time, x, y, z, vx, vy, vz, yaw, pitch, roll, yaw_rate, pitch_rate, roll_rate
0.0000000e+00,0.0000000e+00,0.0000000e+00,0.0000000e+00,0.0000000e+00,0.0000000e+00,0.0000000e+00,0.0000000e+00,0.0000000e+00,0.0000000e+00,0.0000000e+00,0.0000000e+00,0.0000000e+00
9.9999905e-03,6.8615598e-04,2.4444032e-03,2.2626241e-04,6.7019356e-02,2.4389050e-01,7.2064091e-02,-6.1607761e-03,-1.3754999e-02,1.2972976e-03,-6.1607819e-01,-1.3755012e+00,1.2972988e-01
1.9999981e-02,9.8532875e-04,2.8362179e-03,5.8489922e-04,2.9633480e-02,3.8791960e-02,3.0697258e-02,-5.9612278e-03,-1.8699124e-02,1.6606897e-03,1.9954848e-02,-4.9441297e-01,3.6339247e-02
2.9999971e-02,6.7772409e-04,2.2767129e-03,1.0660436e-04,-3.0402025e-02,-5.5837434e-02,-3.1317379e-02,-5.6697242e-03,-9.2282121e-03,1.3239792e-03,2.9150388e-02,9.4709208e-01,-3.3671080e-02
3.9999962e-02,8.4910466e-04,2.9851966e-03,4.8044379e-04,1.6659058e-02,7.0610133e-02,1.8536784e-02,-6.3288605e-03,-1.9344065e-02,1.7656275e-03,-6.5913701e-02,-1.0115863e+00,4.4164873e-02
5.0000191e-02,7.2419358e-04,3.1068202e-03,5.5792006e-04,-1.2542592e-02,1.2355914e-02,-1.2246321e-02,-6.5086662e-03,-2.2239457e-02,2.1691725e-03,-1.7980154e-02,-2.8953253e-01,4.0353576e-02
6.0000181e-02,5.8541807e-04,2.6305162e-03,1.9044617e-04,-1.3606932e-02,-4.7496843e-02,-1.4585403e-02,-5.2305212e-03,-1.4431450e-02,1.5344897e-03,1.2781462e-01,7.8080143e-01,-6.3468340e-02
7.0000172e-02,-1.7462823e-04,1.7567838e-04,-6.8051544e-06,-7.6142593e-02,-2.4531984e-01,-7.6395759e-02,5.1708219e-04,-1.6384292e-03,-1.4428033e-04,5.7476089e-01,1.2793033e+00,-1.6787716e-01
8.0000162e-02,3.8990177e-04,1.4552722e-03,1.9279878e-04,5.6151068e-02,1.2761996e-01,5.7512898e-02,-2.0703057e-03,-8.0023616e-03,6.5431264e-04,-2.5873904e-01,-6.3639385e-01,7.9859373e-02
9.0000153e-02,4.8399363e-04,1.6513506e-03,2.3581661e-04,9.3486489e-03,1.9542794e-02,9.6029205e-03,-2.5048994e-03,-9.3120487e-03,1.2109854e-03,-4.3459414e-02,-1.3096883e-01,5.5667327e-02
1.0000014e-01,3.3568836e-04,1.2700168e-03,-7.7695723e-06,-1.4740911e-02,-3.8074780e-02,-1.5068639e-02,-2.5103117e-03,-6.4057367e-03,-4.1434386e-04,-5.4122665e-04,2.9063148e-01,-1.6253308e-01
1.1000013e-01,-2.6961409e-04,-9.3978537e-04,-8.8425375e-04,-6.0786550e-02,-2.2158377e-01,-5.8015620e-02,2.4716168e-04,1.0449349e-02,-3.3366389e-03,2.7574760e-01,1.6855102e+00,-2.9222978e-01
1.2000012e-01,8.9126156e-04,2.7421230e-03,5.3624578e-04,1.1350804e-01,3.6656060e-01,1.2355848e-01,-6.5106684e-03,-1.9835610e-02,1.5495540e-03,-6.7578366e-01,-3.0284988e+00,4.8861976e-01
1.3000011e-01,9.4080912e-04,2.8049582e-03,5.3384195e-04,4.9031889e-03,6.2136542e-03,5.0922755e-03,-6.6183833e-03,-2.0389199e-02,1.9913710e-03,-1.0771495e-02,-5.5358978e-02,4.4181741e-02
1.4000010e-01,9.4053385e-04,2.7505020e-03,5.3171064e-04,7.7464871e-06,-5.4440275e-03,-1.3734787e-04,-6.4675360e-03,-2.0171736e-02,1.9321347e-03,1.5084739e-02,2.1746309e-02,-5.9236342e-03
1.5000010e-01,4.6487239e-04,2.4273702e-03,1.6905880e-04,-4.7279191e-02,-3.2256844e-02,-4.7889486e-02,-7.6037509e-03,-8.7356645e-03,8.3903258e-04,-1.1362160e-01,1.1436083e+00,-1.0931032e-01
1.6000009e-01,-2.8349808e-04,6.2091563e-04,-7.3093002e-04,-7.4953444e-02,-1.8024232e-01,-7.5688307e-02,-4.6162324e-04,-5.8251957e-03,-2.6723581e-03,7.1421345e-01,2.9104716e-01,-3.5113940e-01
1.7000008e-01,8.0891483e-05,5.6998908e-04,2.7416994e-04,3.6349589e-02,-5.3319029e-03,3.6494021e-02,5.8423584e-04,-5.9697689e-03,2.3688547e-03,1.0458601e-01,-1.4457338e-02,5.0412175e-01
1.8000007e-01,4.2151991e-05,6.1364691e-04,2.9701625e-04,-3.8623341e-03,4.3911007e-03,-3.8569066e-03,5.5968192e-04,-5.9809082e-03,2.3655319e-03,-2.4553946e-03,-1.1139308e-03,-3.3227958e-04
1.9000006e-01,-1.7048080e-04,2.0655138e-04,2.7532327e-05,-2.1276069e-02,-4.0653026e-02,-2.1358535e-02,4.7449491e-04,-2.1802891e-03,3.0776018e-04,-8.5187095e-03,3.8006227e-01,-2.0577736e-01
2.0000005e-01,3.9245519e-04,2.1282729e-03,-5.0848019e-05,5.5159193e-02,1.9209427e-01,5.7666386e-02,-5.8330333e-03,-7.0746123e-03,2.2311925e-04,-6.3075342e-01,-4.8943279e-01,-8.4641006e-03
2.1000004e-01,8.0604956e-04,2.9970112e-03,5.0395903e-04,4.0773004e-02,8.6292384e-02,4.3121647e-02,-5.8963271e-03,-1.9487365e-02,1.7760108e-03,-6.3293896e-03,-1.2412764e+00,1.5528931e-01
2.2000003e-01,8.8631151e-04,3.0254936e-03,4.7858928e-04,7.9934260e-03,2.7380339e-03,8.0969504e-03,-6.1265183e-03,-1.9743774e-02,1.8890420e-03,-2.3019138e-02,-2.5640975e-02,1.1303127e-02
2.3000002e-01,9.1550162e-04,2.7557766e-03,6.1470448e-04,3.0830444e-03,-2.7003533e-02,2.4122596e-03,-6.2106845e-03,-1.8917272e-02,1.1725421e-03,-8.4166345e-03,8.2650255e-02,-7.1650058e-02
2.4000001e-01,8.4306481e-04,2.5109728e-03,2.2317934e-04,-7.0925272e-03,-2.4428780e-02,-7.5606191e-03,-5.9009034e-03,-1.2685413e-02,9.0784830e-04,3.0978146e-02,6.2318654e-01,-2.6469404e-02
2.5000000e-01,7.1846648e-04,2.4732185e-03,3.2046812e-04,-1.2409242e-02,-3.7901980e-03,-1.2505778e-02,-7.6979641e-03,-6.4866807e-03,1.6976992e-03,-1.7970624e-01,6.1987382e-01,7.8985166e-02
2.5999999e-01,5.4528362e-04,1.6371494e-03,1.9458949e-04,-1.7079746e-02,-8.3469961e-02,-1.8194033e-02,-2.5151103e-03,-1.0147057e-02,1.6282799e-03,5.1828588e-01,-3.6603802e-01,-6.9419407e-03
2.6999998e-01,2.2021695e-04,9.4480017e-04,-1.3823343e-04,-3.2394523e-02,-6.9156563e-02,-3.2784446e-02,-2.0751937e-03,-4.4664460e-03,-9.7167671e-04,4.3991697e-02,5.6806168e-01,-2.5999591e-01
2.7999997e-01,-3.7716848e-05,-1.4427885e-04,-1.4265260e-04,-2.5831427e-02,-1.0894641e-01,-2.5592402e-02,3.5853777e-05,1.5316137e-03,-1.3236259e-03,2.1110495e-01,5.9980654e-01,-3.5194957e-02
2.8999996e-01,-1.2306544e-04,5.0300888e-05,4.5405396e-05,-8.5366920e-03,1.9473307e-02,-8.4980328e-03,-1.7957281e-04,-1.9781039e-03,1.9552791e-04,-2.1542679e-02,-3.5097209e-01,1.5191553e-01
3.0000019e-01,7.4413155e-04,2.8427055e-03,5.0271065e-04,8.4694152e-02,2.7801956e-01,9.2431680e-02,-6.6374089e-03,-1.9896732e-02,1.9386490e-03,-6.4576883e-01,-1.7918218e+00,1.7430811e-01
3.1000018e-01,8.1743730e-04,2.5273772e-03,2.4761970e-04,7.5099013e-03,-3.1579901e-02,6.9359419e-03,-5.9487234e-03,-1.2778606e-02,1.1085085e-03,6.8868620e-02,7.1181331e-01,-8.3014127e-02
3.2000017e-01,5.8709982e-04,2.4267200e-03,1.6627480e-04,-2.2969922e-02,-9.9159720e-03,-2.3162128e-02,-6.2712361e-03,-1.2728521e-02,1.1737895e-05,-3.2251303e-02,5.0084840e-03,-1.0967716e-01
3.3000016e-01,7.4725674e-04,2.8281617e-03,4.5363533e-04,1.5741838e-02,3.9913059e-02,1.6843552e-02,-6.2335894e-03,-2.0083229e-02,1.4548439e-03,3.7646780e-03,-7.3547156e-01,1.4431073e-01
3.4000015e-01,7.5441003e-04,2.8790703e-03,4.7384542e-04,6.8205072e-04,5.0794667e-03,8.2106648e-04,-6.2279371e-03,-2.0491180e-02,2.1782273e-03,5.6522701e-04,-4.0795114e-02,7.2338410e-02
3.5000014e-01,1.4451941e-04,9.2761685e-04,7.0083526e-04,-6.0695365e-02,-1.9448056e-01,-6.3360140e-02,-6.1586367e-04,-1.1282903e-02,2.8417438e-03,5.6120788e-01,9.2082858e-01,6.6351714e-02
3.6000013e-01,-1.4720792e-05,-5.1502803e-05,-5.6272305e-05,-1.5990739e-02,-9.7904380e-02,-1.5904389e-02,5.6838387e-04,8.7276090e-05,-6.9447321e-04,1.1842487e-01,1.1370190e+00,-3.5362204e-01
3.7000012e-01,-4.5134800e-05,-7.3325363e-05,-3.8242899e-05,-3.0448494e-03,-2.1799121e-03,-3.0396380e-03,7.4475918e-04,-2.6423132e-05,-5.9900245e-04,1.7637547e-02,-1.1369933e-02,9.5470849e-03
3.8000011e-01,2.9376032e-04,1.2460328e-03,8.9045993e-04,3.3696773e-02,1.3143554e-01,3.5962768e-02,-3.4835652e-04,-1.4634283e-02,4.3226376e-03,-1.0931167e-01,-1.4607874e+00,4.9216447e-01
3.9000010e-01,4.8775319e-04,1.3972725e-03,1.0172370e-03,1.9310076e-02,1.4836643e-02,1.9707766e-02,-5.7752611e-04,-1.5236457e-02,4.1406647e-03,-2.2916981e-02,-6.0217490e-02,-1.8197308e-02
4.0000010e-01,1.4104288e-05,-2.8784105e-05,-7.4791668e-05,-4.7451807e-02,-1.4258080e-01,-4.7353224e-02,4.1566209e-04,-1.1178128e-04,-5.8286604e-04,9.9318914e-02,1.5124691e+00,-4.7235352e-01
4.1000009e-01,7.8117175e-04,2.4755634e-03,2.4048649e-04,7.5242222e-02,2.4987222e-01,7.9925199e-02,-5.5730008e-03,-1.2589167e-02,8.8270798e-04,-5.9886686e-01,-1.2477397e+00,1.4655754e-01
4.2000008e-01,1.9273872e-04,1.7883614e-03,-3.6086358e-04,-5.8727796e-02,-6.8277506e-02,-5.9470871e-02,-3.6377770e-03,-1.1107735e-02,-2.2937034e-03,1.9352256e-01,1.4814327e-01,-3.1764144e-01
4.3000007e-01,-4.0417405e-04,-3.9480241e-04,-1.5097686e-03,-5.9988595e-02,-2.1864054e-01,-5.8188716e-02,-1.3254152e-04,5.3770174e-03,-5.4797669e-03,3.5052389e-01,1.6484768e+00,-3.1860666e-01
4.4000006e-01,3.6767729e-04,1.2445907e-03,-8.3853874e-05,7.6845527e-02,1.6358703e-01,7.8264354e-02,-2.3777571e-03,-6.8918721e-03,-6.5248443e-04,-2.2452177e-01,-1.2268901e+00,4.8272871e-01
4.5000005e-01,6.9320280e-04,2.3498651e-03,3.4169991e-04,3.1679388e-02,1.1058573e-01,3.3209782e-02,-7.5735559e-03,-5.6285713e-03,1.0801687e-03,-5.1958037e-01,1.2633020e-01,1.7326547e-01
4.6000004e-01,6.3911587e-04,2.3694256e-03,2.6715868e-04,-5.4138718e-03,2.0024704e-03,-5.3864896e-03,-5.6606612e-03,-1.4269709e-02,1.0739268e-03,1.9128966e-01,-8.6411459e-01,-6.2418708e-04
4.7000003e-01,3.5672192e-04,2.1097403e-03,-8.0480683e-06,-2.8065457e-02,-2.5830922e-02,-2.8537503e-02,-5.9596541e-03,-1.0756514e-02,6.6198269e-04,-2.9899319e-02,3.5131988e-01,-4.1194450e-02
4.8000002e-01,2.7581305e-05,1.7886406e-06,-4.4580678e-05,-3.3012528e-02,-2.1075136e-01,-3.3096798e-02,4.1096669e-04,-9.2304516e-04,-3.5880006e-04,6.3706268e-01,9.8334778e-01,-1.0207837e-01
4.9000001e-01,-5.5336872e-06,-1.2153849e-04,-9.8572815e-05,-3.3202238e-03,-1.2331973e-02,-3.3055671e-03,4.8980233e-04,2.6331380e-04,-8.0997827e-04,7.8835715e-03,1.1863601e-01,-4.5117864e-02
5.0000000e-01,5.6278883e-04,2.3516385e-03,2.0480066e-04,5.5390925e-02,2.4681727e-01,6.0324656e-02,-5.5831123e-03,-1.3890658e-02,1.0498956e-03,-6.0729204e-01,-1.4153986e+00,1.8598757e-01
5.0999999e-01,6.1974696e-04,2.4579067e-03,2.2904421e-04,5.6266156e-03,1.0574790e-02,5.8591078e-03,-5.6370730e-03,-1.4523362e-02,1.6152825e-03,-5.3960721e-03,-6.3270456e-02,5.6538743e-02
5.1999998e-01,6.4497373e-04,2.4933794e-03,2.1963677e-04,2.4995706e-03,3.5222876e-03,2.5800350e-03,-5.4131167e-03,-1.5111660e-02,1.5331076e-03,2.2395645e-02,-5.8829765e-02,-8.2175039e-03
5.2999997e-01,8.0535463e-04,2.5062217e-03,2.4577341e-04,1.6011101e-02,1.1506858e-03,1.6075180e-02,-5.1994422e-03,-1.3500967e-02,1.2530651e-03,2.1367477e-02,1.6106942e-01,-2.8004273e-02
5.3999996e-01,8.8210690e-05,1.8103909e-03,-3.8413796e-04,-7.1617409e-02,-6.8890264e-02,-7.2476346e-02,-3.2328762e-03,-1.2832600e-02,-1.7902834e-03,1.9665679e-01,6.6836739e-02,-3.0433515e-01
5.5000019e-01,8.4043263e-04,2.7678586e-03,5.2737740e-04,7.4558319e-02,9.4723140e-02,7.7148214e-02,-5.6760473e-03,-1.8976324e-02,1.5607911e-03,-2.4431152e-01,-6.1435831e-01,3.3509978e-01
5.6000018e-01,4.6411486e-04,1.0437439e-03,8.0092108e-04,-3.7461121e-02,-1.7195440e-01,-3.9829942e-02,-2.9779269e-04,-1.2075679e-02,3.1664672e-03,5.3782597e-01,6.9006515e-01,1.6056777e-01
5.7000017e-01,4.6286574e-04,1.3708251e-03,1.2257497e-04,-1.8903319e-04,3.2707776e-02,1.4195920e-04,-1.9621326e-03,-8.1617853e-03,4.4798204e-04,-1.6643415e-01,3.9138973e-01,-2.7184878e-01
5.8000016e-01,6.8046135e-05,4.5838685e-04,-3.7115464e-04,-3.9476129e-02,-9.1226151e-02,-3.9528894e-02,-1.1369786e-03,-1.5864943e-03,-2.4826465e-03,8.2515484e-02,6.5752972e-01,-2.9306313e-01
5.9000015e-01,-1.6315412e-05,-1.6690488e-04,-1.5246583e-04,-8.4812061e-03,-6.2530734e-02,-8.3796740e-03,5.5825440e-04,7.4042637e-04,-1.2023918e-03,1.6952346e-01,2.3269229e-01,1.2802559e-01
6.0000014e-01,9.3730617e-05,2.4140597e-05,-5.9378648e-05,1.1015727e-02,1.9088787e-02,1.1020863e-02,3.7743810e-04,-1.0556095e-03,-3.5474147e-04,-1.8081646e-02,-1.7960376e-01,8.4765112e-02
6.1000013e-01,-1.1404704e-04,3.8955309e-04,-8.2803147e-04,-2.0871564e-02,3.6601376e-02,-2.0577056e-02,-4.3098685e-04,-3.3457780e-03,-3.7626323e-03,-8.0842573e-02,-2.2901707e-01,-3.4078941e-01
6.2000012e-01,-2.7823274e-04,-4.3541354e-05,-6.5097501e-04,-1.6609673e-02,-4.3088370e-02,-1.6803648e-02,2.7721701e-03,-1.0584060e-02,-4.3393107e-03,3.2031601e-01,-7.2382892e-01,-5.7667901e-02
6.3000011e-01,4.2428695e-04,2.2105635e-03,4.7673249e-06,6.8846262e-02,2.2498649e-01,7.2951700e-02,-6.1133975e-03,-1.1861507e-02,3.7635819e-04,-8.8855761e-01,-1.2774482e-01,4.7156734e-01
6.4000010e-01,7.2550793e-04,2.8193623e-03,4.5157574e-04,2.9682635e-02,6.0428521e-02,3.1438624e-02,-6.2510136e-03,-2.0724344e-02,1.9350629e-03,-1.3761624e-02,-8.8628456e-01,1.5587062e-01
6.5000010e-01,1.4748189e-04,2.0140470e-03,-2.7476206e-04,-5.7543546e-02,-7.9890938e-02,-5.8939058e-02,-3.7008442e-03,-1.4635813e-02,-6.8042565e-04,2.5501719e-01,6.0885376e-01,-2.6154910e-01
6.6000009e-01,6.1397512e-04,2.3224802e-03,2.0971767e-04,4.6432293e-02,3.0449691e-02,4.7122154e-02,-5.6026391e-03,-1.3953409e-02,9.3289107e-04,-1.9017968e-01,6.8240463e-02,1.6133183e-01
6.7000008e-01,6.1638593e-04,2.4436927e-03,2.0713581e-04,1.7918180e-04,1.2117824e-02,4.0912088e-04,-5.0818572e-03,-1.3846178e-02,1.2325685e-03,5.2078244e-02,1.0723045e-02,2.9967768e-02
6.8000007e-01,1.4443655e-04,2.1847263e-04,2.0680794e-04,-4.7364561e-02,-2.2232465e-01,-4.7950155e-02,1.0047340e-03,-3.1520002e-03,1.1429853e-03,6.0865970e-01,1.0694188e+00,-8.9583262e-03
6.9000006e-01,3.9393225e-04,9.1716358e-04,7.9687554e-04,2.4884661e-02,6.9579802e-02,2.5808314e-02,7.3503429e-05,-1.1313595e-02,2.8045026e-03,-9.3123144e-02,-8.1616026e-01,1.6615189e-01
7.0000005e-01,1.3385676e-06,-2.5923084e-05,-1.0961822e-04,-3.9378230e-02,-9.4248596e-02,-3.9284864e-02,8.7645334e-04,-6.5508812e-04,-9.2203872e-04,8.0295068e-02,1.0658517e+00,-3.7265449e-01
7.1000004e-01,5.2272061e-04,2.1258727e-03,-6.2524713e-06,5.0984496e-02,2.1497017e-01,5.4106764e-02,-5.3451098e-03,-9.1337512e-03,5.4841388e-05,-6.2215691e-01,-8.4786712e-01,9.7688104e-02
7.2000003e-01,6.2553833e-04,2.2165162e-03,1.1556916e-05,1.0224656e-02,9.0256417e-03,1.0372407e-02,-5.6693410e-03,-9.3764908e-03,5.4183648e-04,-3.2423142e-02,-2.4273983e-02,4.8699556e-02
7.3000002e-01,6.6905762e-04,2.2545193e-03,2.0935796e-05,4.3268976e-03,3.7814208e-03,4.3931628e-03,-5.7547975e-03,-1.0031586e-02,7.1057183e-04,-8.5456673e-03,-6.5509576e-02,1.6873551e-02
7.4000001e-01,-1.2940338e-04,3.8960413e-04,-8.2190322e-04,-8.0095672e-02,-1.8617871e-01,-8.0325264e-02,-2.0204912e-04,-4.1169448e-03,-3.6031305e-03,5.5527537e-01,5.9146468e-01,-4.3137064e-01
7.5000000e-01,6.5271944e-04,2.3548486e-03,1.9346591e-04,7.7034905e-02,1.9577876e-01,8.1194688e-02,-5.5455914e-03,-1.4753850e-02,1.1041972e-03,-5.3435474e-01,-1.0636916e+00,4.7073321e-01
7.5999999e-01,5.8802231e-04,2.3523898e-03,1.7482467e-04,-6.4608165e-03,-1.8744831e-04,-6.4805632e-03,-5.5602077e-03,-1.4569855e-02,1.1486182e-03,-1.4616311e-03,1.8399522e-02,4.4421071e-03
7.6999998e-01,3.7139396e-06,-1.4890913e-04,-1.2753663e-04,-5.8615059e-02,-2.5010629e-01,-5.8348464e-02,5.3347575e-04,1.2607867e-04,-8.6869107e-04,6.0936893e-01,1.4695948e+00,-2.0173112e-01
7.7999997e-01,1.6843895e-04,7.3554871e-04,-2.3113596e-04,1.6378440e-02,8.8405851e-02,1.6778306e-02,-1.3688729e-03,-3.7613647e-03,-1.6410359e-03,-1.9023505e-01,-3.8874471e-01,-7.7234556e-02
7.8999996e-01,-3.4124469e-04,-1.0401912e-03,-7.7799864e-04,-5.1306882e-02,-1.7802226e-01,-4.9028746e-02,1.0723416e-03,1.0072447e-02,-2.9095397e-03,2.4412168e-01,1.3833825e+00,-1.2685051e-01
8.0000019e-01,3.4348182e-04,2.1882541e-03,3.4592835e-05,6.6557329e-02,3.2239873e-01,7.2315821e-02,-5.7665179e-03,-1.1756464e-02,7.4429706e-04,-6.8387030e-01,-2.1828412e+00,3.6537532e-01
8.1000018e-01,3.6491635e-04,2.1885258e-03,1.4323083e-05,2.1421710e-03,1.3720400e-05,2.1448666e-03,-5.7932221e-03,-1.2062466e-02,5.0869925e-04,-2.6704204e-03,-3.0600249e-02,-2.3559804e-02
8.2000017e-01,1.7383119e-04,1.4628139e-03,-2.7974727e-05,-1.9025821e-02,-7.2321979e-02,-2.0109950e-02,-1.5000203e-03,-1.4179370e-02,-1.3702527e-03,4.2932059e-01,-2.1169064e-01,-1.8789538e-01
8.3000016e-01,8.3881281e-04,2.5172836e-03,2.1785173e-04,6.5878478e-02,1.0485949e-01,6.8026668e-02,-5.2329089e-03,-1.3880624e-02,1.0077157e-03,-3.7328921e-01,2.9874650e-02,2.3779707e-01
8.4000015e-01,8.9386892e-04,2.8539196e-03,4.8310420e-04,5.2996646e-03,3.3581000e-02,6.1719917e-03,-5.8647268e-03,-1.9568250e-02,1.5299696e-03,-6.3181858e-02,-5.6876318e-01,5.2225441e-02
8.5000014e-01,7.2373505e-04,2.7672120e-03,4.7325112e-04,-1.6928869e-02,-8.4306816e-03,-1.7217171e-02,-6.2810823e-03,-2.0242914e-02,1.7463689e-03,-4.1635583e-02,-6.7466427e-02,2.1639950e-02
8.6000013e-01,7.7685987e-04,2.4058636e-03,2.5969731e-04,5.4942154e-03,-3.6173590e-02,4.8435064e-03,-5.2152403e-03,-1.3166849e-02,1.2510807e-03,1.0658430e-01,7.0760718e-01,-4.9528863e-02
8.7000012e-01,2.0877972e-04,2.3314887e-04,1.0638860e-04,-5.6959096e-02,-2.1703272e-01,-5.7565214e-02,8.9719837e-04,-3.2844498e-03,7.7223110e-04,6.1124445e-01,9.8824087e-01,-4.7885010e-02
8.8000011e-01,1.5048159e-04,2.0405351e-04,9.3515747e-05,-5.8290908e-03,-2.8844674e-03,-5.8429901e-03,1.0201120e-03,-3.2754399e-03,6.3323156e-04,1.2291371e-02,9.0098451e-04,-1.3899968e-02
8.9000010e-01,-9.6215171e-05,1.0593006e-04,2.8730094e-05,-2.4668037e-02,-9.7228408e-03,-2.4706775e-02,7.9758267e-04,-2.8280831e-03,3.8420905e-04,-2.2252950e-02,4.4735721e-02,-2.4902274e-02
9.0000010e-01,-1.4740966e-05,-1.3831895e-04,-8.5387149e-05,8.1347361e-03,-2.4429176e-02,8.1473618e-03,7.7013422e-04,2.4742663e-04,-7.5152888e-04,-2.7448475e-03,3.0755127e-01,-1.1357390e-01
9.1000009e-01,-7.6091220e-04,-1.7285590e-03,-1.9485211e-03,-7.5949818e-02,-1.5920310e-01,-7.2870644e-02,4.8295287e-03,7.3671629e-03,-7.6077999e-03,4.0593984e-01,7.1197431e-01,-6.8562776e-01
9.2000008e-01,5.7002581e-04,2.1980821e-03,1.7352838e-05,1.3084426e-01,3.9210268e-01,1.3692573e-01,-5.6397616e-03,-9.6734297e-03,2.4816857e-04,-1.0469300e+00,-1.7040609e+00,7.8559760e-01
9.3000007e-01,2.9609127e-04,1.9489080e-03,-3.0331335e-04,-2.7361960e-02,-2.4657911e-02,-2.7658540e-02,-3.2636768e-03,-1.2682884e-02,-1.8249945e-03,2.3760871e-01,-3.0094567e-01,-2.0731650e-01
9.4000006e-01,3.5959493e-04,2.0161570e-03,-2.6739844e-04,6.3364828e-03,6.6626467e-03,6.4293830e-03,-3.4575145e-03,-1.3183026e-02,-1.4813030e-03,-1.9383790e-02,-5.0014334e-02,3.4369178e-02
9.5000005e-01,-4.4841947e-04,-5.1112883e-04,-1.5666712e-03,-8.1262496e-02,-2.5320574e-01,-7.8821878e-02,-5.5103136e-05,5.9374932e-03,-5.8948314e-03,3.4024146e-01,1.9120538e+00,-4.4135326e-01
9.6000004e-01,5.1197181e-04,2.3182107e-03,9.9915730e-05,9.4255657e-02,2.8216908e-01,9.9976593e-02,-6.0963646e-03,-1.3723048e-02,5.9248183e-04,-6.0412672e-01,-1.9660560e+00,6.4873194e-01
9.7000003e-01,3.3641076e-04,2.0048096e-03,-1.6308298e-04,-1.7384058e-02,-3.1285893e-02,-1.7822088e-02,-5.2251097e-03,-8.2266339e-03,4.5945857e-04,8.7125577e-02,5.4964197e-01,-1.3302338e-02
9.8000002e-01,3.0000439e-04,2.0159807e-03,-1.7013048e-04,-3.6431450e-03,1.1279475e-03,-3.6347910e-03,-5.1777840e-03,-8.1605932e-03,8.8717852e-04,4.7325739e-03,6.6040752e-03,4.2772036e-02
9.9000001e-01,1.2508383e-04,8.1873130e-04,6.0473951e-04,-1.7406922e-02,-1.1952733e-01,-1.8874617e-02,-3.7839053e-04,-1.1225304e-02,2.2753764e-03,4.7993980e-01,-3.0647138e-01,1.3881992e-01
1.0000000e+00,-4.3060240e-05,-1.1951912e-04,-1.1798484e-04,-1.6894787e-02,-9.3809732e-02,-1.6819790e-02,7.1099798e-04,-2.0350531e-04,-8.1267450e-04,1.0893895e-01,1.1021809e+00,-3.0880538e-01
1.0100000e+00,7.3048268e-04,2.4037556e-03,2.5843343e-04,7.6010039e-02,2.5168980e-01,8.0693199e-02,-5.0224285e-03,-1.2942236e-02,9.8277115e-04,-5.7334319e-01,-1.2738743e+00,1.7954474e-01
1.0200000e+00,7.6265272e-04,2.4931157e-03,2.6427848e-04,3.1679714e-03,8.9086896e-03,3.3391275e-03,-5.0305880e-03,-1.3228895e-02,1.2554900e-03,-8.1595482e-04,-2.8665953e-02,2.7271915e-02
1.0300000e+00,7.9296562e-04,2.5012835e-03,2.6936522e-04,3.0229564e-03,7.9179690e-04,3.0462122e-03,-5.2241693e-03,-1.3422914e-02,1.3279462e-03,-1.9358153e-02,-1.9401907e-02,7.2456191e-03
1.0400000e+00,7.7341626e-04,2.4841782e-03,2.3605315e-04,-1.9435109e-03,-1.6936220e-03,-1.9808855e-03,-5.2463307e-03,-1.3786973e-02,1.2397914e-03,-2.2161367e-03,-3.6405930e-02,-8.8154875e-03
1.0500002e+00,6.1186666e-04,2.4057616e-03,1.9268960e-04,-1.6093421e-02,-7.6869764e-03,-1.6289343e-02,-5.3519948e-03,-1.4838419e-02,1.1736911e-03,-1.0566170e-02,-1.0514218e-01,-6.6098734e-03
1.0600002e+00,5.7067996e-04,2.1700951e-03,-2.2002501e-05,-3.9916705e-03,-2.3547979e-02,-4.3444272e-03,-5.3218856e-03,-9.5159230e-03,3.7053960e-04,3.0109225e-03,5.3225008e-01,-8.0315230e-02
1.0700002e+00,-3.2814717e-04,-9.9754901e-04,-8.6803681e-04,-9.0509097e-02,-3.1752080e-01,-8.6523782e-02,1.0792348e-03,9.6896019e-03,-3.1701400e-03,6.4011265e-01,1.9205543e+00,-3.5406830e-01
1.0800002e+00,-1.2351319e-05,-2.2667379e-04,-1.6766252e-04,3.1661612e-02,7.7098004e-02,3.1471919e-02,5.7349381e-04,9.0557807e-04,-1.1974749e-03,-5.0574145e-02,-8.7840322e-01,1.9726670e-01
1.0900002e+00,2.4151114e-05,-1.7961793e-04,-9.9437880e-05,3.6559285e-03,4.7045922e-03,3.6458449e-03,5.7058796e-04,2.9758134e-04,-8.2148440e-04,-2.9058536e-04,-6.0799731e-02,3.7599084e-02
1.1000001e+00,2.6271395e-05,-1.2945137e-04,-1.0953328e-04,2.1504119e-04,5.0165567e-03,2.1145556e-04,5.6228727e-04,7.5325712e-05,-9.0653722e-04,-8.3006960e-04,-2.2225584e-02,-8.5052904e-03
1.1100001e+00,-3.0571724e-04,-1.1040560e-03,-8.9507403e-04,-3.3407587e-02,-9.7770675e-02,-3.2058086e-02,9.3609556e-04,1.0477314e-02,-3.5447749e-03,3.7380864e-02,1.0401998e+00,-2.6382402e-01
1.1200001e+00,-2.9116205e-04,-9.6387820e-04,-8.6730975e-04,1.4703750e-03,1.4030284e-02,1.3132507e-03,7.1340681e-04,9.7954109e-03,-3.3402853e-03,-2.2268896e-02,-6.8190399e-02,2.0448987e-02
1.1300001e+00,6.3852034e-04,2.1908349e-03,1.9288728e-05,9.1136776e-02,3.1507222e-01,9.6084051e-02,-5.6155636e-03,-9.6925984e-03,6.2951586e-04,-6.3289764e-01,-1.9488028e+00,3.9698049e-01
1.1400001e+00,-8.2597997e-04,4.5295265e-04,-1.9438863e-03,-1.4709780e-01,-1.7397457e-01,-1.4557746e-01,-2.1077195e-03,-8.3925630e-04,-6.9497451e-03,3.5078474e-01,8.8533505e-01,-7.5792682e-01
1.1500001e+00,6.3103171e-04,2.4151353e-03,1.9703471e-04,1.4442806e-01,1.9486833e-01,1.4874909e-01,-5.6215753e-03,-1.4704160e-02,1.1516651e-03,-3.5138591e-01,-1.3864917e+00,8.1014179e-01
1.1600001e+00,5.9426346e-04,2.3760404e-03,1.9873009e-04,-3.6518605e-03,-3.8752254e-03,-3.7374914e-03,-5.3436777e-03,-1.4521036e-02,1.0941363e-03,2.7789790e-02,1.8312412e-02,-5.7528797e-03
1.1700001e+00,6.0332425e-04,2.5301639e-03,3.0886135e-04,7.9514558e-04,1.5411376e-02,1.0199638e-03,-7.1021001e-03,-7.3051379e-03,1.6020487e-03,-1.7584241e-01,7.2159050e-01,5.0791288e-02
1.1800001e+00,7.3382842e-04,2.4855830e-03,2.3364399e-04,1.3054146e-02,-4.5667453e-03,1.3009081e-02,-5.0519418e-03,-1.3392617e-02,1.4271625e-03,2.0501602e-01,-6.0874844e-01,-1.7488642e-02
1.1900001e+00,6.4082208e-04,2.5097661e-03,2.0132916e-04,-9.2976105e-03,2.5042679e-03,-9.2809078e-03,-5.2238366e-03,-1.4472127e-02,1.6693071e-03,-1.7189496e-02,-1.0795112e-01,2.4214490e-02
1.2000000e+00,-4.4034571e-04,-6.7171543e-04,-7.0090757e-04,-1.0859356e-01,-3.1874054e-01,-1.0587194e-01,9.2304859e-04,6.4733158e-03,-1.6945691e-03,6.1468911e-01,2.0945463e+00,-3.3638795e-01
1.2100000e+00,-3.3638263e-04,-9.4818235e-04,-7.8771476e-04,1.0388197e-02,-2.7564307e-02,1.0620839e-02,1.3986118e-03,9.2367139e-03,-2.9434551e-03,4.7556367e-02,2.7634007e-01,-1.2488872e-01
1.2200000e+00,-1.8144700e-04,2.8747843e-04,-7.9287006e-04,1.5558262e-02,1.2352107e-01,1.5785813e-02,3.2184185e-05,-2.8589069e-03,-3.9260191e-03,-1.3664289e-01,-1.2095632e+00,-9.8256490e-02
1.2300000e+00,-1.7222276e-04,2.6424575e-04,-8.1325610e-04,9.2635382e-04,-2.3259153e-03,9.1176099e-04,-9.9870489e-05,-2.9907712e-03,-4.0153396e-03,-1.3205480e-02,-1.3186443e-02,-8.9320549e-03
1.2400000e+00,-7.3821809e-06,-2.4654136e-04,-1.9688301e-04,1.6471608e-02,-5.1074694e-02,1.6509112e-02,6.8017359e-04,9.2600884e-04,-1.3525602e-03,7.8004482e-02,3.9167838e-01,2.6627819e-01
1.2500000e+00,8.4256797e-04,2.4166968e-03,2.4262502e-04,8.3490284e-02,2.6564942e-01,8.8524589e-02,-5.3558191e-03,-1.2973073e-02,9.0807538e-04,-6.0359984e-01,-1.3899096e+00,2.2606377e-01
1.2600000e+00,7.4680597e-04,2.2769530e-03,2.7381513e-04,-9.4951145e-03,-1.3903657e-02,-9.7581947e-03,-5.6109580e-03,-1.2850711e-02,2.6462878e-04,-2.5513922e-02,1.2236266e-02,-6.4344722e-02
1.2700000e+00,6.5385024e-04,2.3414137e-03,2.0411179e-04,-9.3259672e-03,6.5270241e-03,-9.2082490e-03,-5.6336894e-03,-1.4416168e-02,6.2187123e-04,-2.2731353e-03,-1.5654589e-01,3.5724279e-02
1.2800000e+00,-4.0181198e-04,7.0595987e-06,-1.6916959e-03,-1.0579685e-01,-2.3412558e-01,-1.0379272e-01,-1.9371660e-03,4.6569220e-03,-6.4902061e-03,3.6965269e-01,1.9073109e+00,-7.1120841e-01
1.2900000e+00,-2.7332478e-04,-9.3641013e-04,-7.6666519e-04,1.2777255e-02,-9.4248678e-02,1.3618975e-02,1.0617208e-03,8.4701915e-03,-2.2362106e-03,2.9988896e-01,3.8132732e-01,4.2539995e-01
1.3000002e+00,4.0086045e-04,2.2152080e-03,8.3268290e-06,6.5496824e-02,3.1469471e-01,7.1343720e-02,-5.9066932e-03,-1.2283723e-02,8.5207908e-04,-6.9682545e-01,-2.0753439e+00,3.0882190e-01
1.3100002e+00,3.4448105e-04,2.1736444e-03,5.7034560e-07,-5.6103692e-03,-4.1214429e-03,-5.6908470e-03,-5.7564139e-03,-1.1879770e-02,6.3070189e-04,1.5027944e-02,4.0395341e-02,-2.2137740e-02
1.3200002e+00,6.3509032e-04,2.5033346e-03,1.9372259e-04,2.8852117e-02,3.2687947e-02,2.9581926e-02,-4.9513352e-03,-1.4469410e-02,1.5555513e-03,8.0507941e-02,-2.5896424e-01,9.2485033e-02
1.3300002e+00,-2.0495642e-05,-5.5785102e-05,-5.3612269e-05,-6.5826629e-02,-2.5583253e-01,-6.5601131e-02,9.1935896e-04,-2.9443617e-04,-4.9926076e-04,5.8706998e-01,1.4174987e+00,-2.0548141e-01
1.3400002e+00,7.0689925e-04,2.3780002e-03,2.7317123e-04,7.1464685e-02,2.4277532e-01,7.5949019e-02,-4.8951840e-03,-1.2859999e-02,1.1352390e-03,-5.8145485e-01,-1.2565574e+00,1.6345013e-01
1.3500001e+00,6.9206031e-04,2.4012009e-03,2.7893401e-04,-1.4936000e-03,2.3322513e-03,-1.4547683e-03,-4.8247766e-03,-1.3178068e-02,9.9097475e-04,7.0407470e-03,-3.1806959e-02,-1.4426437e-02
1.3600001e+00,1.9788146e-04,1.8275784e-03,-3.5338198e-04,-4.9376269e-02,-5.6924794e-02,-4.9962488e-02,-2.6415770e-03,-1.1440405e-02,-2.2291130e-03,2.1832017e-01,1.7376646e-01,-3.2200908e-01
1.3700001e+00,2.1689436e-04,1.7184718e-03,-4.0550053e-04,1.9357078e-03,-1.0924715e-02,1.7821496e-03,-2.7232871e-03,-1.0475956e-02,-2.4803892e-03,-8.1710198e-03,9.6444959e-02,-2.5127639e-02
1.3800001e+00,-7.4939079e-04,9.2127862e-05,-2.0631376e-03,-9.7138946e-02,-1.6311066e-01,-9.5305350e-02,-1.9539808e-03,3.0100420e-03,-8.6091130e-03,7.6930698e-02,1.3486011e+00,-6.1287297e-01
1.3900001e+00,-3.8126777e-04,-9.5525106e-04,-7.6846800e-04,3.6846364e-02,-1.0448453e-01,3.7492287e-02,4.6336667e-04,7.2891042e-03,-2.2452995e-03,2.4173498e-01,4.2790663e-01,6.3638196e-01
1.4000001e+00,-2.7993813e-04,-9.7926821e-04,-8.5602744e-04,1.0160241e-02,-2.3190960e-03,1.0124911e-02,9.8961765e-04,9.1602024e-03,-2.9303899e-03,5.2625148e-02,1.8710999e-01,-6.8509111e-02
1.4100001e+00,4.1456963e-05,-1.2434806e-04,-1.4986660e-04,3.2202005e-02,8.5497248e-02,3.2063220e-02,3.6981383e-04,5.3116742e-04,-9.6037158e-04,-6.1980441e-02,-8.6290432e-01,1.9700202e-01
1.4200001e+00,-3.9416623e-04,-9.2563030e-04,-7.2551407e-04,-4.3676042e-02,-8.0445344e-02,-4.2858522e-02,1.9988130e-04,7.5472812e-03,-2.2444996e-03,-1.6993269e-02,7.0161205e-01,-1.2841293e-01
1.4300001e+00,-3.9676885e-04,-9.1414429e-04,-6.4482780e-04,-2.6049106e-04,1.1467343e-03,-2.6814687e-04,2.0610177e-04,7.2754759e-03,-1.7893707e-03,6.2204781e-04,-2.7180559e-02,4.5512933e-02
1.4400001e+00,4.1254976e-04,2.1717765e-03,4.4044563e-05,7.9136036e-02,3.0800210e-01,8.4861096e-02,-5.6170813e-03,-1.2541135e-02,7.5648984e-04,-5.8231886e-01,-1.9816630e+00,2.5458630e-01
1.4500000e+00,7.6367459e-04,2.4001328e-03,2.5061529e-04,3.4958073e-02,2.2566350e-02,3.5439208e-02,-5.1955331e-03,-1.2790218e-02,1.0056060e-03,4.2154864e-02,-2.4908290e-02,2.4911637e-02
1.4600000e+00,7.8558310e-04,2.4348762e-03,2.6504308e-04,2.1706435e-03,3.4562404e-03,2.2390735e-03,-5.2881208e-03,-1.3376564e-02,8.2396420e-04,-9.2587791e-03,-5.8634622e-02,-1.8164194e-02
1.4700000e+00,1.8260683e-04,1.7622966e-03,-3.0004627e-04,-6.0203024e-02,-6.6768316e-02,-6.0933162e-02,-3.3886334e-03,-1.1455800e-02,-2.2180965e-03,1.8994892e-01,1.9207650e-01,-3.0420636e-01
1.4800000e+00,8.1023723e-04,2.5628577e-03,2.4860434e-04,6.2263974e-02,7.9501787e-02,6.3953648e-02,-5.2037903e-03,-1.3878826e-02,1.3005976e-03,-1.8151586e-01,-2.4230281e-01,3.5186974e-01
1.4900000e+00,7.8519014e-04,2.5415711e-03,2.6243444e-04,-2.4901598e-03,-2.1071879e-03,-2.5371669e-03,-5.1815204e-03,-1.3645145e-02,1.3915934e-03,2.2269889e-03,2.3368108e-02,9.0995913e-03
1.5000000e+00,5.5182462e-04,2.3830961e-03,2.2708714e-04,-2.3222860e-02,-1.5631062e-02,-2.3594573e-02,-5.4574777e-03,-1.4633092e-02,1.1511914e-03,-2.7595758e-02,-9.8794786e-02,-2.4040217e-02
1.5100000e+00,5.6938117e-04,2.4598641e-03,1.8755181e-04,1.7153504e-03,7.6593160e-03,1.8682793e-03,-4.9103519e-03,-1.4348974e-02,1.4740383e-03,5.4712635e-02,2.8411825e-02,3.2284714e-02
1.5200000e+00,3.7853324e-04,1.3009167e-03,8.0761260e-05,-1.8909061e-02,-1.1575445e-01,-2.0085596e-02,-1.4234051e-03,-8.5473776e-03,5.6393379e-04,3.4869501e-01,5.8016022e-01,-9.1010535e-02
1.5300000e+00,-1.3962358e-04,-2.0494587e-04,-8.7966315e-04,-5.1940059e-02,-1.5081198e-01,-5.1029211e-02,-1.0196945e-04,4.2899355e-03,-2.6994115e-03,1.3214369e-01,1.2837325e+00,-3.2633484e-01
1.5400000e+00,-5.6536007e-05,-1.8156786e-04,-1.2718452e-04,8.3188551e-03,2.3360151e-03,8.2991671e-03,6.7208803e-04,4.5750969e-04,-1.0259760e-03,7.7405822e-02,-3.8324294e-01,1.6734371e-01
1.5500002e+00,7.6099669e-04,2.3938476e-03,2.5554458e-04,8.0286920e-02,2.5689456e-01,8.5149202e-02,-5.3639828e-03,-1.2886216e-02,1.0012274e-03,-6.0359327e-01,-1.3343420e+00,2.0271570e-01
1.5600002e+00,8.5072254e-04,2.4339561e-03,2.3082511e-04,8.9435151e-03,3.9394274e-03,9.0330682e-03,-5.3333894e-03,-1.3237813e-02,8.4217151e-04,3.0593481e-03,-3.5159791e-02,-1.5905600e-02
1.5700002e+00,7.8898984e-04,2.2803402e-03,2.2824340e-04,-6.0856749e-03,-1.5315573e-02,-6.3714532e-03,-5.6608301e-03,-1.2870522e-02,8.7989392e-05,-3.2744108e-02,3.6729139e-02,-7.5418283e-02
1.5800002e+00,7.8846495e-04,2.3251754e-03,2.6354883e-04,-7.8548582e-05,4.4834438e-03,7.5719825e-06,-5.8181961e-03,-1.3405016e-02,4.8780348e-04,-1.5736606e-02,-5.3449413e-02,3.9981447e-02
1.5900002e+00,6.5945872e-04,2.3822499e-03,1.9872019e-04,-1.2919052e-02,5.8287720e-03,-1.2827757e-02,-5.6463734e-03,-1.5091426e-02,1.0539201e-03,1.7182280e-02,-1.6864118e-01,5.6611715e-02
1.6000001e+00,1.2744337e-05,-2.2102195e-04,-1.2612655e-04,-6.4963113e-02,-2.6028467e-01,-6.4551270e-02,8.6488236e-04,2.0534133e-04,-1.0285681e-03,6.5112620e-01,1.5296782e+00,-2.0824901e-01
1.6100001e+00,-1.8008249e-05,-2.4728315e-04,-1.6952956e-04,-3.0815547e-03,-2.6256045e-03,-3.0693990e-03,8.1476718e-04,6.4751056e-04,-1.3518634e-03,-5.0115222e-03,4.4216965e-02,-3.2329570e-02
1.6200001e+00,-1.4402786e-05,-1.3434132e-04,-4.3535236e-05,3.6875699e-04,1.1293881e-02,3.6205152e-04,7.1008528e-04,-1.5051695e-04,-5.2891910e-04,-1.0468200e-02,-7.9802826e-02,8.2294513e-02
1.6300001e+00,8.0559090e-05,5.1891649e-04,2.6888648e-04,9.5162053e-03,6.5259894e-02,9.9201499e-03,6.4703471e-04,-6.1517680e-03,2.3410833e-03,-6.3050626e-03,-6.0012567e-01,2.8700052e-01
1.6400001e+00,5.9002833e-04,2.5283956e-03,2.0473922e-04,4.9871105e-02,2.0040655e-01,5.4050100e-02,-4.8778630e-03,-1.4990046e-02,1.8643196e-03,-5.5249030e-01,-8.8382868e-01,-4.7676414e-02
1.6499746e+00,7.8760811e-05,1.9941768e-03,-3.6922187e-04,-5.1159168e-02,-5.3018728e-02,-5.1912894e-02,-2.9185109e-03,-1.3367683e-02,-1.1348168e-03,1.9643653e-01,1.6265143e-01,-3.0068100e-01
1.6599746e+00,-1.4259711e-05,1.7576155e-03,-4.2550781e-04,-9.2398624e-03,-2.3569593e-02,-9.5796419e-03,-3.3468456e-03,-1.2463395e-02,-1.8320977e-03,-4.2833511e-02,9.0428854e-02,-6.9728148e-02
1.6699746e+00,7.0153317e-04,2.8588949e-03,4.7332735e-04,7.0790803e-02,1.0903113e-01,7.4001831e-02,-5.9578412e-03,-2.0881994e-02,1.8307332e-03,-2.6109981e-01,-8.4186066e-01,3.6628343e-01
1.6799746e+00,8.4025839e-04,2.5360701e-03,2.5901920e-04,1.4022333e-02,-3.2399837e-02,1.3441728e-02,-5.2333369e-03,-1.3928697e-02,1.3655886e-03,7.2450505e-02,6.9533035e-01,-4.6514498e-02
1.6899745e+00,7.2554729e-04,2.2988513e-03,3.7414604e-04,-1.1277537e-02,-2.3751229e-02,-1.1601642e-02,-7.5341654e-03,-4.8879079e-03,1.2662766e-03,-2.3008307e-01,9.0407977e-01,-9.9312081e-03
1.6999745e+00,5.2121798e-04,2.0507032e-03,-4.9886588e-06,-2.0300234e-02,-2.4737416e-02,-2.0657867e-02,-5.3402976e-03,-9.0616890e-03,-4.5244131e-06,2.1938699e-01,-4.1737851e-01,-1.2708023e-01
1.7099745e+00,-2.2821647e-06,-7.1557236e-05,-8.7548954e-05,-5.2533881e-02,-2.1215795e-01,-5.2442680e-02,6.8804734e-04,-6.1532404e-04,-7.2246278e-04,6.0283507e-01,8.4463730e-01,-7.1793906e-02
1.7199745e+00,2.8078654e-04,9.9288365e-04,-4.6257350e-05,2.8145740e-02,1.0632677e-01,2.8902616e-02,-1.7153703e-03,-5.7989951e-03,-7.5893059e-04,-2.4034199e-01,-5.1836760e-01,-3.6467837e-03
1.7299745e+00,3.3635533e-04,1.0291668e-03,-3.8830127e-05,5.5541329e-03,3.6076435e-03,5.5730731e-03,-2.0645273e-03,-5.7783455e-03,-8.5550908e-04,-3.4915728e-02,2.0649611e-03,-9.6578589e-03
1.7399745e+00,8.6033033e-05,-2.6484479e-04,-1.1295338e-04,-2.5152237e-02,-1.2940007e-01,-2.4918011e-02,7.4904978e-04,7.0382412e-04,-9.2174447e-04,2.8135797e-01,6.4821758e-01,-6.6235450e-03
1.7499745e+00,7.1778062e-04,2.2950052e-03,2.4074584e-04,6.1724599e-02,2.5536611e-01,6.6998391e-02,-5.3290865e-03,-1.4619539e-02,1.3471577e-03,-6.0781421e-01,-1.5323378e+00,2.2689044e-01
1.7599745e+00,4.7857650e-04,2.1691948e-03,2.4278137e-05,-2.3832650e-02,-1.2408697e-02,-2.4097436e-02,-5.5770166e-03,-1.2722490e-02,7.2083446e-04,-2.4793027e-02,1.8970514e-01,-6.2632387e-02
1.7699745e+00,6.9008390e-04,2.2749001e-03,2.1685981e-04,2.1068517e-02,1.0387214e-02,2.1322968e-02,-5.6065132e-03,-1.4200649e-02,1.0701492e-03,-2.9496640e-03,-1.4781603e-01,3.4931503e-02
1.7799745e+00,7.3725084e-04,2.6947204e-03,4.5804084e-04,4.4502210e-03,4.1907799e-02,5.5606052e-03,-6.1875973e-03,-1.9963000e-02,1.4029316e-03,-5.8108465e-02,-5.7623568e-01,3.3278281e-02
1.7899745e+00,6.7415783e-04,2.4030492e-03,2.3790556e-04,-6.1382045e-03,-2.9104021e-02,-6.7539113e-03,-5.5187111e-03,-1.4915427e-02,1.5904123e-03,6.6888681e-02,5.0475782e-01,1.8748087e-02
1.7999747e+00,3.6062626e-04,2.0390147e-03,-4.7728043e-05,-3.1146815e-02,-3.6226097e-02,-3.1759215e-02,-5.2505128e-03,-1.0792321e-02,4.4840319e-04,2.6819218e-02,4.1230110e-01,-1.1419830e-01
1.8099747e+00,-2.1326036e-05,-1.8828665e-04,-8.6608801e-05,-3.8464318e-02,-2.2270868e-01,-3.8051319e-02,1.0303289e-03,4.6736043e-04,-1.0369634e-03,6.2808477e-01,1.1259692e+00,-1.4853680e-01
1.8199747e+00,-6.7967671e-05,-1.0464959e-04,-3.8029880e-05,-4.6575493e-03,8.3709247e-03,-4.6578410e-03,1.1504947e-03,-3.9718339e-04,-6.4486982e-04,1.2016595e-02,-8.6454464e-02,3.9209394e-02
1.8299747e+00,1.6135148e-05,4.3251160e-05,8.0402626e-06,8.4259735e-03,1.4771137e-02,8.4278804e-03,8.3980166e-04,-1.4118003e-03,-3.8838073e-04,-3.1069338e-02,-1.0146179e-01,2.5648934e-02
1.8399746e+00,2.0940936e-04,3.1601607e-05,-1.0469324e-04,1.9350044e-02,-1.1887641e-03,1.9303356e-02,3.1946953e-04,-9.1345298e-04,-1.1896030e-03,-5.2033263e-02,4.9834780e-02,-8.0122305e-02
1.8499746e+00,5.1614275e-04,-3.1882303e-07,-1.3566741e-04,3.0711443e-02,-3.1878238e-03,3.0635687e-02,-7.1517311e-05,6.6213706e-05,-1.2346050e-03,-3.9098721e-02,9.7966763e-02,-4.5001981e-03
1.8599746e+00,1.7820934e-03,2.3487102e-03,4.3378546e-04,1.2501253e-01,2.3424661e-01,1.2935438e-01,-5.2252419e-03,-1.0259797e-02,2.7885829e-03,-5.1537295e-01,-1.0326021e+00,4.0231917e-01
1.8699746e+00,1.6909124e-03,1.0799372e-03,6.5038901e-04,-9.1619195e-03,-1.2675910e-01,-1.0599480e-02,6.8718021e-04,-1.1337500e-02,4.7460280e-03,5.9124277e-01,-1.0777039e-01,1.9574470e-01
1.8799746e+00,8.1210634e-04,-1.0853998e-04,-1.4612918e-04,-8.8025364e-02,-1.1879006e-01,-8.7813974e-02,4.1273439e-04,-2.4471897e-04,-1.0887735e-03,-2.7444608e-02,1.1092792e+00,-5.8348071e-01
1.8899746e+00,9.2137343e-04,-4.4606480e-04,-2.4375092e-04,1.0920441e-02,-3.3730595e-02,1.1000434e-02,1.0817090e-03,3.0797504e-03,-2.7711523e-03,6.6897520e-02,3.3244725e-01,-1.6823804e-01
1.8999746e+00,1.9042136e-03,1.2837370e-03,6.7501676e-04,9.7932205e-02,1.7173302e-01,1.0079079e-01,6.2816609e-04,-1.1883083e-02,4.6749036e-03,-4.5354330e-02,-1.4962847e+00,7.4460631e-01
1.9099746e+00,1.8711941e-03,1.9599673e-03,1.0385469e-03,-3.3847146e-03,6.7667457e-02,-2.0850715e-03,-1.4878506e-03,-1.8259494e-02,5.3877613e-03,-2.1160187e-01,-6.3764170e-01,7.1285835e-02
1.9199746e+00,3.5753138e-04,-2.8466172e-04,-1.8883789e-04,-1.5178296e-01,-2.2441034e-01,-1.5102719e-01,9.7407964e-04,6.2719780e-04,-1.3086941e-03,2.4619326e-01,1.8886710e+00,-6.6964618e-01
1.9299746e+00,1.1765608e-04,-2.7448395e-04,-2.4261051e-04,-2.4035266e-02,9.9939172e-04,-2.3940520e-02,1.0907228e-03,1.8609269e-03,-2.0380009e-03,1.1664325e-02,1.2337303e-01,-7.2930749e-02
1.9399745e+00,1.0812090e-03,2.7967520e-03,2.4318510e-04,9.4626838e-02,3.0578827e-01,1.0214254e-01,-4.8666099e-03,-1.8123929e-02,2.4127857e-03,-5.9573384e-01,-1.9984875e+00,4.4507908e-01
1.9499745e+00,1.2451317e-03,4.1555907e-03,1.2328958e-03,1.5720936e-02,1.3528520e-01,2.1275426e-02,-4.4120660e-03,-3.5495433e-02,4.3625881e-03,4.5454432e-02,-1.7371521e+00,1.9498042e-01
1.9599745e+00,8.1123758e-04,4.2982631e-03,1.5056148e-03,-4.3295438e-02,1.5745245e-02,-4.2970181e-02,-4.6951493e-03,-3.8873404e-02,3.6928373e-03,-2.8308360e-02,-3.3779737e-01,-6.6975147e-02
1.9699745e+00,4.8098249e-04,3.4296052e-03,2.3956382e-03,-3.2702498e-02,-8.5640407e-02,-3.6377448e-02,-4.0152721e-04,-3.5546351e-02,8.6877738e-03,4.2936262e-01,3.3270561e-01,4.9949413e-01
1.9799745e+00,1.5824085e-04,2.9446085e-03,2.5269152e-03,-3.1946797e-02,-4.7330884e-02,-3.4273317e-02,9.7652220e-04,-3.3987373e-02,1.1544768e-02,1.3780507e-01,1.5589794e-01,2.8569972e-01
1.9899745e+00,-1.3438352e-03,3.4255295e-04,9.8010847e-04,-1.5017260e-01,-2.5795483e-01,-1.5407560e-01,3.0556570e-03,-1.1738318e-02,5.5074231e-03,2.0791368e-01,2.2249076e+00,-6.0373509e-01
1.9999745e+00,-2.0560510e-03,1.5993401e-04,9.9810838e-04,-7.0961561e-02,-1.7110071e-02,-7.1765212e-02,4.0626763e-03,-1.2033690e-02,4.6743110e-03,1.0070202e-01,-2.9537210e-02,-8.3311291e-02
2.0099745e+00,-2.5109367e-03,5.1737343e-04,9.0849827e-04,-4.5206227e-02,3.6397750e-02,-4.5251098e-02,2.4266421e-03,-1.1953453e-02,4.2890843e-03,-1.6360357e-01,8.0236810e-03,-3.8522708e-02
2.0199745e+00,-3.1615316e-03,1.1945603e-03,6.6957419e-04,-6.4926376e-02,6.8254332e-02,-6.4631500e-02,-1.2784411e-03,-9.5267145e-03,3.3711521e-03,-3.7050868e-01,2.4267409e-01,-9.1793307e-02
2.0299745e+00,-4.7803168e-03,-6.9465250e-04,4.8710274e-04,-1.6233863e-01,-1.8717438e-01,-1.6344003e-01,4.3225882e-03,-6.4209809e-03,2.1915366e-03,5.6010346e-01,3.1057366e-01,-1.1796166e-01
2.0399745e+00,-5.8292806e-03,-1.1761439e-03,3.1041871e-04,-1.0507184e-01,-4.7333604e-02,-1.0509199e-01,4.1066122e-03,-3.6608162e-03,2.0482428e-04,-2.1597620e-02,2.7601673e-01,-1.9867142e-01
2.0499747e+00,-6.2267585e-03,1.1567285e-04,8.6652741e-04,-3.9373154e-02,1.2980841e-01,-3.8030280e-02,2.3666492e-03,-1.3770549e-02,1.7068903e-03,-1.7399232e-01,-1.0109501e+00,1.5020317e-01
2.0599747e+00,-6.9718779e-03,-2.4154352e-05,9.3930886e-04,-7.4420721e-02,-1.2627408e-02,-7.4844502e-02,3.2141619e-03,-1.4927059e-02,1.8214279e-03,8.4751353e-02,-1.1565115e-01,1.1453771e-02
2.0699747e+00,-8.0000087e-03,-1.2254753e-03,3.0547283e-04,-1.0339429e-01,-1.1888944e-01,-1.0367144e-01,4.7067301e-03,-7.3378628e-03,-1.6366469e-04,1.4925696e-01,7.5892035e-01,-1.9850945e-01
2.0799747e+00,-8.9129686e-03,-2.0752500e-03,5.1037861e-04,-9.1827016e-02,-8.4086366e-02,-9.1588276e-02,7.0841822e-03,-2.6487762e-03,7.5283582e-04,2.3774544e-01,4.6890911e-01,9.1650139e-02
2.0899746e+00,-9.7208174e-03,-2.6068409e-03,4.4342326e-04,-8.1287564e-02,-5.2532144e-02,-8.0690890e-02,7.7775558e-03,3.6083354e-05,-1.1345684e-03,6.9337423e-02,2.6848622e-01,-1.8874060e-01
2.0999746e+00,-9.7528030e-03,-1.4693319e-05,1.0210152e-03,-2.7516793e-03,2.5923344e-01,1.8262052e-03,1.7150889e-03,-1.9390706e-02,7.1934635e-04,-6.0624727e-01,-1.9426808e+00,1.8539165e-01
2.1099746e+00,-1.1234800e-02,-2.7250121e-03,7.7902954e-04,-1.5066786e-01,-2.6907607e-01,-1.4927177e-01,8.9859536e-03,-4.1248504e-03,-2.6031214e-04,7.2708716e-01,1.5265870e+00,-9.7965942e-02
2.1199746e+00,-1.1128172e-02,-5.3730209e-04,2.5098403e-03,1.2592162e-02,2.1828772e-01,1.6737433e-02,9.1468914e-03,-2.7418545e-02,6.6516664e-03,1.6093800e-02,-2.3293717e+00,6.9119852e-01
2.1299746e+00,-1.1699936e-02,-8.6416164e-04,2.4685153e-03,-5.7092663e-02,-3.0623796e-02,-5.8388986e-02,9.2485873e-03,-2.6423957e-02,6.6869823e-03,1.0169597e-02,9.9458892e-02,3.5315905e-03
2.1399746e+00,-1.2174382e-02,-9.2990992e-04,2.5784085e-03,-4.7139945e-02,-4.7842096e-03,-4.7959853e-02,9.9583049e-03,-2.7519191e-02,7.7221319e-03,7.0971831e-02,-1.0952350e-01,1.0351506e-01
2.1499746e+00,-1.3729184e-02,-3.8135079e-03,7.3218393e-04,-1.5882541e-01,-2.8603503e-01,-1.5639150e-01,1.1858997e-02,-2.9554863e-03,4.0932944e-04,1.9006941e-01,2.4563728e+00,-7.3128094e-01
2.1599746e+00,-1.4120549e-02,-3.2474539e-03,1.0889893e-03,-3.8442873e-02,5.7227563e-02,-3.8918574e-02,1.1562524e-02,-4.4406201e-03,9.3201443e-04,-2.9647381e-02,-1.4851352e-01,5.2268549e-02
2.1699746e+00,-1.4921488e-02,-3.2289241e-03,9.3477512e-04,-8.0124503e-02,3.2801250e-03,-8.0017760e-02,1.1546137e-02,-6.2792734e-03,-7.1463650e-04,-1.6387123e-03,-1.8386551e-01,-1.6466525e-01
2.1799746e+00,-1.5739168e-02,-3.9563815e-03,1.1644202e-03,-8.2676758e-02,-7.1225766e-02,-8.2191459e-02,1.2866087e-02,-5.6349954e-03,2.5051506e-04,1.3199515e-01,6.4427862e-02,9.6515248e-02
2.1899745e+00,-1.6280390e-02,-4.4744633e-03,9.9402281e-04,-5.4809330e-02,-5.0949397e-02,-5.4245893e-02,1.3311222e-02,-2.4698971e-03,-4.2475169e-05,4.4513543e-02,3.1651013e-01,-2.9299051e-02
2.1999745e+00,-1.6722528e-02,-3.9567431e-03,1.6160114e-03,-4.3464179e-02,5.2790665e-02,-4.3750301e-02,1.2615795e-02,-1.0560088e-02,2.1020632e-03,-6.9542781e-02,-8.0901986e-01,2.1445404e-01
2.2099745e+00,-1.7440236e-02,-4.3287563e-03,1.0499154e-03,-7.2043548e-02,-3.6232528e-02,-7.1992965e-02,1.1454091e-02,-2.0059042e-03,2.0698562e-03,-1.1617048e-01,8.5541921e-01,-3.2206955e-03
2.2199745e+00,-1.8051180e-02,-3.5200917e-03,2.2771968e-03,-5.9790114e-02,8.2657244e-02,-5.9978126e-02,1.3181930e-02,-1.6362436e-02,3.8074692e-03,1.7278406e-01,-1.4356545e+00,1.7376147e-01
2.2299745e+00,-1.9949811e-02,-5.9957400e-03,1.8967249e-04,-1.9392918e-01,-2.4644026e-01,-1.8719854e-01,1.4021593e-02,8.2968899e-03,-3.2359850e-03,8.3966339e-02,2.4659349e+00,-7.0434609e-01
2.2399745e+00,-2.0671053e-02,-4.7706309e-03,1.1690711e-03,-7.0429305e-02,1.2391415e-01,-7.1398703e-02,1.4181286e-02,-5.4735466e-03,-6.8757919e-04,1.5969398e-02,-1.3770450e+00,2.5484082e-01
2.2499745e+00,-2.1773397e-02,-5.4334971e-03,1.3862840e-03,-1.1136489e-01,-6.3895536e-02,-1.1050995e-01,1.7184614e-02,-4.4135536e-03,-6.8763712e-05,3.0033307e-01,1.0599940e-01,6.1881607e-02
2.2599745e+00,-2.2577590e-02,-5.6299616e-03,1.4883294e-03,-8.0760852e-02,-1.7802467e-02,-8.0506448e-02,1.7712193e-02,-5.1776003e-03,-7.6364597e-05,5.2757914e-02,-7.6404745e-02,-7.6008923e-04
2.2699745e+00,-2.1530909e-02,-2.4363527e-03,3.9316699e-03,1.0992909e-01,3.1276664e-01,1.1830075e-01,2.1706370e-02,-3.7802361e-02,1.5597736e-02,3.9941815e-01,-3.2624791e+00,1.5674116e+00
2.2799745e+00,-2.4030609e-02,-5.9848254e-03,2.2185052e-03,-2.5576765e-01,-3.4742612e-01,-2.5448977e-01,1.8679833e-02,-1.0649523e-02,3.1436010e-03,-3.0265405e-01,2.7152864e+00,-1.2454147e+00
2.2899745e+00,-2.4613017e-02,-5.8252353e-03,2.6299946e-03,-5.7547702e-02,1.8086875e-02,-5.8307994e-02,2.0402267e-02,-1.6133303e-02,6.0855810e-03,1.7224362e-01,-5.4837859e-01,2.9419828e-01
2.2999747e+00,-2.5657889e-02,-4.7747809e-03,1.7631386e-03,-1.0284425e-01,1.0819951e-01,-1.0287896e-01,1.4800467e-02,-1.5634436e-02,7.1181945e-04,-5.6016724e-01,4.9885546e-02,-5.3736386e-01
2.3099747e+00,-2.6760596e-02,-5.4396941e-03,1.6303837e-03,-1.1149161e-01,-6.3136257e-02,-1.1101293e-01,1.6385849e-02,-1.3922429e-02,-1.3255076e-03,1.5853835e-01,1.7120089e-01,-2.0373290e-01
2.3199747e+00,-2.7669640e-02,-6.3062507e-03,2.8859487e-03,-9.2518170e-02,-8.3008218e-02,-9.2663182e-02,2.1700508e-02,-1.8002264e-02,2.6932241e-03,5.3146641e-01,-4.0798392e-01,4.0187356e-01
2.3299747e+00,-2.8666821e-02,-7.4392274e-03,1.6759351e-03,-1.0224402e-01,-1.1045439e-01,-1.0034856e-01,2.1633905e-02,-6.5985701e-03,-9.8548846e-04,-6.6602732e-03,1.1403705e+00,-3.6787161e-01
2.3399746e+00,-2.9567527e-02,-7.7079607e-03,1.8233863e-03,-9.0693518e-02,-2.4281322e-02,-9.0181646e-02,2.2349771e-02,-6.3529860e-03,-4.9735728e-04,7.1586636e-02,2.4558432e-02,4.8813165e-02
2.3499746e+00,-3.0546932e-02,-7.9251902e-03,1.7839684e-03,-9.8483983e-02,-1.8891243e-02,-9.7982809e-02,2.3304803e-02,-5.5503715e-03,-6.5149559e-04,9.5503260e-02,8.0261527e-02,-1.5413846e-02
2.3599746e+00,-3.1470684e-02,-8.1642115e-03,1.9503750e-03,-9.2932282e-02,-2.0970887e-02,-9.2528479e-02,2.3952510e-02,-7.7017344e-03,-1.1923219e-04,6.4770840e-02,-2.1513649e-01,5.3226391e-02
2.3699746e+00,-3.2659668e-02,-7.7091501e-03,2.3984039e-03,-1.1777079e-01,4.9591712e-02,-1.1838589e-01,2.2770513e-02,-1.1714267e-02,5.1096533e-04,-1.1819982e-01,-4.0125364e-01,6.3019812e-02
2.3799746e+00,-3.4088026e-02,-8.4889718e-03,3.2483834e-03,-1.4460491e-01,-7.2085565e-02,-1.4414760e-01,2.5759518e-02,-1.5264352e-02,1.3446911e-03,2.9890075e-01,-3.5500884e-01,8.3372659e-02
2.3899746e+00,-3.5149880e-02,-7.7528102e-03,2.3996153e-03,-1.0472814e-01,7.7395980e-02,-1.0493785e-01,2.1745164e-02,-1.4109820e-02,-1.5872497e-03,-4.0143577e-01,1.1545334e-01,-2.9319436e-01
2.3999746e+00,-3.6888589e-02,-9.8927236e-03,2.7845863e-03,-1.7988294e-01,-2.0724905e-01,-1.7591095e-01,2.8072067e-02,-1.0167968e-02,-4.2541589e-04,6.3269085e-01,3.9418551e-01,1.1618349e-01
2.4099746e+00,-3.8192498e-02,-1.0374339e-02,2.8548547e-03,-1.3170853e-01,-4.3194873e-02,-1.3080608e-01,2.8522000e-02,-9.4076894e-03,2.2299863e-05,4.4993360e-02,7.6027965e-02,4.4771618e-02
2.4199746e+00,-3.9351406e-02,-1.0594097e-02,3.1042952e-03,-1.1638919e-01,-1.7410415e-02,-1.1616714e-01,2.9935610e-02,-9.3621563e-03,9.2819287e-04,1.4136113e-01,4.5533199e-03,9.0589387e-02
2.4299746e+00,-4.0928095e-02,-1.1732307e-02,2.4559059e-03,-1.6137492e-01,-1.0850965e-01,-1.5766438e-01,3.0903259e-02,-2.4461719e-03,-1.6778210e-03,9.6765014e-02,6.9159909e-01,-2.6060164e-01
2.4399745e+00,-4.2270761e-02,-1.1568997e-02,2.1346981e-03,-1.3405865e-01,2.1098971e-02,-1.3380932e-01,3.2066812e-02,-3.5238284e-03,-2.8679193e-03,1.1635539e-01,-1.0776575e-01,-1.1900994e-01
2.4499745e+00,-4.2660585e-02,-1.1325379e-02,3.7721522e-03,-3.7929518e-02,2.6347715e-02,-3.8728592e-02,3.6108044e-02,-1.5270742e-02,3.7895427e-03,4.0412361e-01,-1.1746925e+00,6.6574683e-01
2.4599745e+00,-4.3502332e-02,-1.0407749e-02,4.7119091e-03,-8.0191505e-02,9.7004466e-02,-8.2162713e-02,3.5651299e-02,-2.7541895e-02,7.8002773e-03,-4.5674584e-02,-1.2271165e+00,4.0107385e-01
2.4699745e+00,-4.5611452e-02,-1.3727165e-02,2.8717250e-03,-2.2289933e-01,-3.2385097e-01,-2.1116281e-01,3.6111920e-02,-1.2307989e-03,-6.6487761e-04,4.6062184e-02,2.6311121e+00,-8.4651630e-01
2.4799745e+00,-4.6640414e-02,-1.3278672e-02,3.7328366e-03,-1.0103100e-01,4.9803445e-02,-1.0246501e-01,3.6556232e-02,-1.1906317e-02,1.5278574e-03,4.4431293e-02,-1.0675528e+00,2.1927371e-01
2.4899745e+00,-4.7997686e-02,-1.3311349e-02,4.1600609e-03,-1.3544606e-01,3.9777496e-03,-1.3598917e-01,3.7559021e-02,-1.5781585e-02,2.2687317e-03,1.0027897e-01,-3.8752722e-01,7.4087496e-02
2.4999745e+00,-5.0212323e-02,-1.4828295e-02,2.8645037e-03,-2.2780319e-01,-1.4214635e-01,-2.2136832e-01,3.8665005e-02,-3.9543167e-03,-2.8986740e-03,1.1059845e-01,1.1827280e+00,-5.1674106e-01
2.5099745e+00,-5.1994393e-02,-1.6114341e-02,2.9523721e-03,-1.8401813e-01,-1.2109043e-01,-1.7756471e-01,4.2110071e-02,5.7306492e-04,-3.1191570e-03,3.4450698e-01,4.5273860e-01,-2.2048317e-02
2.5199745e+00,-5.2880713e-02,-1.3607902e-02,5.0901707e-03,-7.7290414e-02,2.5648029e-01,-8.2327800e-02,4.2870620e-02,-2.6459046e-02,5.8325531e-03,7.6054910e-02,-2.7032137e+00,8.9517186e-01
2.5299745e+00,-5.5662262e-02,-1.6522215e-02,2.9126626e-03,-2.9126750e-01,-2.7866814e-01,-2.7781334e-01,4.2506553e-02,-2.4519660e-03,-3.5282022e-03,-3.6406737e-02,2.4007103e+00,-9.3607642e-01
2.5399745e+00,-5.7571862e-02,-1.7081276e-02,3.4640756e-03,-1.9353010e-01,-4.6198021e-02,-1.9096830e-01,4.4750458e-02,-5.8136432e-03,-1.3632359e-03,2.2439079e-01,-3.3616804e-01,2.1649683e-01
2.5499747e+00,-5.9335436e-02,-1.6236452e-02,3.5054349e-03,-1.7273937e-01,9.4132553e-02,-1.7503756e-01,4.3384031e-02,-1.1863532e-02,-1.2247803e-03,-1.3663962e-01,-6.0497505e-01,1.3845251e-02
2.5599747e+00,-6.1030268e-02,-1.6668789e-02,4.6415391e-03,-1.7092704e-01,-3.1674474e-02,-1.7058455e-01,4.8071072e-02,-1.9765161e-02,2.5814239e-03,4.6870461e-01,-7.9016359e-01,3.8062078e-01
2.5699747e+00,-6.3572537e-02,-1.9548017e-02,3.2503501e-03,-2.6913776e-01,-2.7437450e-01,-2.5386214e-01,5.1155142e-02,-6.7982467e-04,-2.0512459e-03,3.0840729e-01,1.9085354e+00,-4.6326742e-01
2.5799747e+00,-6.5474474e-02,-1.9203753e-02,4.3357441e-03,-1.8789944e-01,4.6160889e-02,-1.8998832e-01,5.2249337e-02,-9.7179489e-03,1.2449588e-03,1.0941961e-01,-9.0381328e-01,3.2962078e-01
2.5899746e+00,-6.7086666e-02,-1.8934616e-02,4.9340990e-03,-1.5869052e-01,3.8702768e-02,-1.6132929e-01,5.5059904e-02,-1.8293914e-02,4.9713000e-03,2.8105696e-01,-8.5759733e-01,3.7263447e-01
2.5999746e+00,-6.9406753e-02,-1.9118121e-02,5.5222185e-03,-2.3148582e-01,4.8863162e-04,-2.3325323e-01,5.5381023e-02,-2.5590996e-02,5.0865072e-03,3.2111882e-02,-7.2970886e-01,1.1520733e-02
2.6099746e+00,-7.2296833e-02,-2.0405138e-02,4.2912793e-03,-2.9565389e-01,-1.0758988e-01,-2.9091047e-01,5.5954167e-02,-1.6370451e-02,3.4496643e-04,5.7314468e-02,9.2205538e-01,-4.7415453e-01
2.6199746e+00,-7.4573093e-02,-2.0697247e-02,5.8462369e-03,-2.2760744e-01,-9.2778639e-03,-2.2932397e-01,5.9565583e-02,-2.7624397e-02,5.9309769e-03,3.6114198e-01,-1.1253957e+00,5.5860158e-01
2.6299746e+00,-7.7603865e-02,-2.3108213e-02,4.8886380e-03,-3.1668044e-01,-2.1730815e-01,-3.0713231e-01,6.2408964e-02,-1.4455441e-02,2.7801389e-03,2.8433829e-01,1.3168968e+00,-3.1508409e-01
2.6399746e+00,-7.9939422e-02,-2.2563779e-02,5.5622940e-03,-2.2814576e-01,7.5880740e-02,-2.3292156e-01,6.6174719e-02,-2.6133333e-02,5.5459757e-03,3.7657587e-01,-1.1677903e+00,2.7658395e-01
2.6499746e+00,-8.3204769e-02,-2.5828054e-02,4.2133355e-03,-3.4820288e-01,-3.0197995e-01,-3.2767100e-01,6.7284679e-02,-5.3692858e-03,-1.4087411e-03,1.1099613e-01,2.0764067e+00,-6.9547235e-01
2.6599746e+00,-8.5299837e-02,-2.5462851e-02,5.5373129e-03,-2.0593860e-01,5.4611231e-02,-2.0910992e-01,6.8233775e-02,-1.8565792e-02,2.8161658e-03,9.4909700e-02,-1.3196519e+00,4.2249110e-01
2.6699746e+00,-8.7634153e-02,-2.5419155e-02,4.6765947e-03,-2.3244013e-01,2.3948994e-02,-2.3323371e-01,6.5477107e-02,-1.8485145e-02,8.8030864e-04,-2.7566701e-01,8.0646641e-03,-1.9358590e-01
2.6799746e+00,-9.0523544e-02,-2.7439046e-02,5.0538049e-03,-3.0215403e-01,-1.7695129e-01,-2.9182664e-01,7.1213534e-02,-1.3650792e-02,1.4704921e-03,5.7364324e-01,4.8343579e-01,5.9018397e-02
2.6899745e+00,-9.3312898e-02,-2.9718014e-02,4.9172776e-03,-2.9517146e-01,-2.0450136e-01,-2.8035739e-01,7.5396172e-02,-6.2114524e-03,4.9478342e-04,4.1826411e-01,7.4393467e-01,-9.7570956e-02
2.6999745e+00,-9.5977654e-02,-2.9192937e-02,5.1998089e-03,-2.6148685e-01,7.6243372e-02,-2.6568307e-01,7.5076410e-02,-1.4634713e-02,1.1253831e-03,-3.1976196e-02,-8.4232682e-01,6.3060030e-02
2.7099745e+00,-9.8551552e-02,-2.9549862e-02,6.0857553e-03,-2.5812318e-01,-8.6493761e-03,-2.5898027e-01,8.0903004e-02,-2.3663945e-02,5.0742758e-03,5.8265993e-01,-9.0292415e-01,3.9488964e-01
2.7199745e+00,-1.0147037e-01,-3.1464668e-02,6.4282119e-03,-3.0573757e-01,-1.6084420e-01,-2.9615655e-01,8.2975124e-02,-1.9645166e-02,3.4543097e-03,2.0721219e-01,4.0187836e-01,-1.6199676e-01
2.7299745e+00,-1.0410215e-01,-3.2328327e-02,6.9263964e-03,-2.6809780e-01,-5.7275514e-02,-2.6613497e-01,8.5259066e-02,-2.3982824e-02,5.6041976e-03,2.2839450e-01,-4.3376620e-01,2.1498900e-01
2.7399745e+00,-1.0665967e-01,-3.2135049e-02,6.0852019e-03,-2.5277163e-01,4.7265368e-02,-2.5507700e-01,8.2349329e-02,-2.7243622e-02,2.0464226e-03,-2.9097397e-01,-3.2608015e-01,-3.5577784e-01
2.7499745e+00,-1.0950516e-01,-3.3090377e-02,6.2094513e-03,-2.9096776e-01,-6.2891565e-02,-2.8713418e-01,8.5237909e-02,-2.8193957e-02,2.3940583e-03,2.8885823e-01,-9.5033622e-02,3.4763604e-02
2.7599745e+00,-1.1259089e-01,-3.5488787e-02,7.3282057e-03,-3.2729628e-01,-2.0168337e-01,-3.1648081e-01,9.5300242e-02,-2.4546358e-02,8.7077691e-03,1.0062343e+00,3.6476025e-01,6.3137169e-01
2.7699745e+00,-1.1596421e-01,-3.6768733e-02,6.8586640e-03,-3.4645430e-01,-8.8162405e-02,-3.4082958e-01,9.4594565e-02,-2.1768595e-02,4.3150361e-03,-7.0567789e-02,2.7777654e-01,-4.3927372e-01
2.7799745e+00,-1.1760050e-01,-3.6123850e-02,8.4688693e-03,-1.5278041e-01,8.7853764e-02,-1.6324202e-01,1.0546101e-01,-3.9404913e-02,1.9088990e-02,1.0866454e+00,-1.7636334e+00,1.4773968e+00
2.7899745e+00,-1.2170600e-01,-3.9240741e-02,8.1097747e-03,-4.3688364e-01,-2.5733309e-01,-4.2091029e-01,1.0230910e-01,-2.5858180e-02,8.1311717e-03,-3.1519125e-01,1.3546745e+00,-1.0957828e+00
2.7999747e+00,-1.2454400e-01,-3.9817783e-02,8.1488918e-03,-2.8596996e-01,-1.9102355e-02,-2.8681585e-01,1.0556148e-01,-2.9240449e-02,8.1541308e-03,3.2523097e-01,-3.3821910e-01,2.2958581e-03
2.8099747e+00,-1.2849233e-01,-4.3305697e-02,7.3040424e-03,-4.2899780e-01,-2.9965727e-01,-3.9951087e-01,1.0828739e-01,-1.1108931e-02,3.0819299e-03,2.7259135e-01,1.8131535e+00,-5.0722057e-01
2.8199747e+00,-1.3087901e-01,-4.2980607e-02,8.4940374e-03,-2.3191663e-01,6.4929893e-02,-2.3870699e-01,1.1085190e-01,-2.5958464e-02,7.0597992e-03,2.5645116e-01,-1.4849548e+00,3.9778730e-01
2.8299747e+00,-1.3427698e-01,-4.4681821e-02,8.2612022e-03,-3.5454753e-01,-1.2258016e-01,-3.4515900e-01,1.1376817e-01,-2.2887331e-02,6.9346878e-03,2.9162734e-01,3.0711359e-01,-1.2511148e-02
2.8399746e+00,-1.3798367e-01,-4.4474289e-02,7.4934114e-03,-3.6521748e-01,7.5884644e-02,-3.6889203e-01,1.1430162e-01,-3.5096231e-02,1.7980931e-03,5.3344394e-02,-1.2208912e+00,-5.1365997e-01
2.8499746e+00,-1.4118838e-01,-4.4767636e-02,6.9925160e-03,-3.2154919e-01,2.0532878e-02,-3.2007568e-01,1.1492860e-01,-4.0336202e-02,5.3560389e-04,6.2698061e-02,-5.2399757e-01,-1.2624904e-01
2.8599746e+00,-1.4399581e-01,-4.8217237e-02,8.4643608e-03,-3.1869992e-01,-2.9953123e-01,-2.9213512e-01,1.2524657e-01,-2.6574666e-02,1.0398900e-02,1.0317984e+00,1.3761550e+00,9.8633051e-01
2.8699746e+00,-1.4786936e-01,-4.9962853e-02,8.1398528e-03,-4.0339463e-01,-1.1509891e-01,-3.9317144e-01,1.2765309e-01,-2.2277831e-02,7.7929927e-03,2.4065249e-01,4.2968384e-01,-2.6059094e-01
2.8799746e+00,-1.5094345e-01,-5.0285144e-02,8.7851108e-03,-3.0501493e-01,1.7891254e-02,-3.1094449e-01,1.3159376e-01,-3.0546680e-02,1.2819926e-02,3.9406722e-01,-8.2688563e-01,5.0269380e-01
2.8899746e+00,-1.5470752e-01,-5.3211189e-02,8.0648582e-03,-4.0974239e-01,-2.3289164e-01,-3.8321598e-01,1.3415406e-01,-1.7680924e-02,6.4038440e-03,2.5603030e-01,1.2865768e+00,-6.4160879e-01
2.8999746e+00,-1.5801567e-01,-5.3663301e-02,8.8894800e-03,-3.3051688e-01,9.5196884e-03,-3.3405127e-01,1.3732956e-01,-2.6986081e-02,1.0146335e-02,3.1755022e-01,-9.3051655e-01,3.7424946e-01
2.9099746e+00,-1.6175229e-01,-5.5212167e-02,9.1657851e-03,-3.8788921e-01,-9.1781643e-02,-3.7994006e-01,1.3893264e-01,-2.6051239e-02,9.6444291e-03,1.6030786e-01,9.3484245e-02,-5.0190648e-02
2.9199746e+00,-1.6575189e-01,-5.7127953e-02,8.9707989e-03,-4.1978178e-01,-1.2385452e-01,-4.0630399e-01,1.4147397e-01,-2.3256379e-02,7.9577253e-03,2.5413383e-01,2.7948631e-01,-1.6867054e-01
2.9299746e+00,-1.6944414e-01,-5.6995658e-02,8.1409647e-03,-3.6227359e-01,7.5171349e-02,-3.6869625e-01,1.3918994e-01,-2.9325761e-02,4.1770532e-03,-2.2840384e-01,-6.0693885e-01,-3.7806756e-01
2.9399745e+00,-1.7341509e-01,-5.7858530e-02,8.4231569e-03,-4.0404943e-01,-1.3559930e-02,-3.9921788e-01,1.4345099e-01,-3.7788412e-02,3.2749375e-03,4.2610579e-01,-8.4626587e-01,-9.0211663e-02
2.9499745e+00,-1.7746491e-01,-6.1505330e-02,9.3624104e-03,-4.5209575e-01,-2.8751430e-01,-4.1708331e-01,1.5168598e-01,-2.8537379e-02,8.2136741e-03,8.2349929e-01,9.2510422e-01,4.9387414e-01
2.9599745e+00,-1.8143134e-01,-6.2948143e-02,9.4542354e-03,-4.1013709e-01,-6.8292366e-02,-4.0322651e-01,1.5658900e-01,-3.0756224e-02,1.0414629e-02,4.9030299e-01,-2.2188479e-01,2.2009566e-01
2.9699745e+00,-1.8571528e-01,-6.5202544e-02,9.2011257e-03,-4.5528592e-01,-1.4308042e-01,-4.3601684e-01,1.5943899e-01,-2.6462474e-02,8.0593945e-03,2.8499886e-01,4.2937542e-01,-2.3552364e-01
2.9799745e+00,-1.8992842e-01,-6.7119903e-02,8.5572239e-03,-4.4460150e-01,-1.1137900e-01,-4.2626080e-01,1.6093759e-01,-2.4399575e-02,4.7181157e-03,1.4986044e-01,2.0629012e-01,-3.3412819e-01
2.9899745e+00,-1.9423369e-01,-6.7618567e-02,8.4511284e-03,-4.3070185e-01,3.8714445e-02,-4.3149972e-01,1.6680411e-01,-3.7968850e-02,4.9345853e-03,5.8665263e-01,-1.3569288e+00,2.1646983e-02
2.9999745e+00,-1.9782069e-01,-7.1303203e-02,9.2832552e-03,-4.1396295e-01,-2.9397488e-01,-3.6784617e-01,1.7088916e-01,-2.2279953e-02,6.0365388e-03,4.0850500e-01,1.5688912e+00,1.1019545e-01
3.0099745e+00,-2.0155453e-01,-7.0458541e-02,9.0450916e-03,-3.5309648e-01,1.5997900e-01,-3.6836780e-01,1.6723949e-01,-3.9141706e-02,2.7212896e-03,-3.6496704e-01,-1.6861769e+00,-3.3152524e-01
3.0199745e+00,-2.0604261e-01,-7.0145565e-02,8.1319822e-03,-4.3264226e-01,1.3454153e-01,-4.4559844e-01,1.7616787e-01,-5.5822128e-02,8.2892304e-03,8.9283827e-01,-1.6680439e+00,5.5679461e-01
3.0299745e+00,-2.1034417e-01,-7.4105565e-02,9.0486480e-03,-4.9117206e-01,-2.9782527e-01,-4.4377353e-01,1.7536126e-01,-3.8950906e-02,3.4217215e-03,-8.0660922e-02,1.6871239e+00,-4.8675136e-01
3.0399745e+00,-2.1498432e-01,-7.6067499e-02,9.2888846e-03,-4.9014015e-01,-9.1482241e-02,-4.6958151e-01,1.7794264e-01,-4.1665593e-02,2.7459648e-03,2.5813832e-01,-2.7146899e-01,-6.7575735e-02
3.0499747e+00,-2.1854065e-01,-7.8310156e-02,9.9643321e-03,-3.8901491e-01,-1.4188053e-01,-3.6299792e-01,1.8064734e-01,-4.1217333e-02,3.1290507e-03,2.7046379e-01,4.4825029e-02,3.8307714e-02
3.0599747e+00,-2.2367560e-01,-8.3763637e-02,9.6136236e-03,-6.0646352e-01,-4.2789117e-01,-5.2332778e-01,1.9330501e-01,-1.6654114e-02,4.3346274e-03,1.2657687e+00,2.4563242e+00,1.2055778e-01
3.0699747e+00,-2.2842285e-01,-8.2900190e-02,9.8062963e-03,-4.4908389e-01,1.8996358e-01,-4.6949124e-01,1.8794847e-01,-3.4778444e-02,2.4171096e-03,-5.3565443e-01,-1.8124348e+00,-1.9175196e-01
3.0799747e+00,-2.3248439e-01,-8.5177443e-02,1.0346988e-02,-4.4129968e-01,-1.3177254e-01,-4.1191300e-01,1.9165265e-01,-3.5209614e-02,1.9574347e-03,3.7041837e-01,-4.3116984e-02,-4.5967528e-02
3.0899746e+00,-2.3779527e-01,-8.5207767e-02,9.9245871e-03,-5.2039409e-01,1.2923370e-01,-5.2593463e-01,1.9600609e-01,-5.4379052e-02,2.0983250e-03,4.3534397e-01,-1.9169456e+00,1.4089043e-02
3.0999746e+00,-2.4151171e-01,-8.9787443e-02,1.0437758e-02,-4.5476791e-01,-3.6274822e-01,-3.8415332e-01,2.0058787e-01,-3.1688107e-02,1.8087312e-03,4.5817808e-01,2.2690966e+00,-2.8959412e-02
3.1099746e+00,-2.4691011e-01,-9.1428060e-02,9.7619936e-03,-5.6073486e-01,-2.8861152e-02,-5.4269293e-01,2.0735275e-01,-3.7912870e-02,2.4374117e-03,6.7648887e-01,-6.2247686e-01,6.2868111e-02
3.1199746e+00,-2.5068118e-01,-9.2039038e-02,1.0197869e-02,-3.8038228e-01,4.0959473e-02,-3.7654211e-01,2.0946820e-01,-5.9084178e-02,3.1411541e-03,2.1154557e-01,-2.1171329e+00,7.0374312e-02
3.1299746e+00,-2.5621249e-01,-9.5549073e-02,1.0054196e-02,-6.1389296e-01,-1.9895884e-01,-5.6450256e-01,2.1475735e-01,-4.6642358e-02,2.4094040e-03,5.2891520e-01,1.2441831e+00,-7.3175087e-02
3.1399746e+00,-2.6092052e-01,-9.8447783e-02,1.0365571e-02,-5.2181626e-01,-1.5929663e-01,-4.7923903e-01,2.1930265e-01,-4.4601124e-02,1.6396605e-03,4.5453029e-01,2.0412365e-01,-7.6974422e-02
3.1499746e+00,-2.6501012e-01,-1.0133435e-01,1.0714927e-02,-4.6225219e-01,-1.7299357e-01,-4.1739131e-01,2.2517978e-01,-4.1243516e-02,2.0393281e-03,5.8771355e-01,3.3576110e-01,3.9966795e-02
3.1599746e+00,-2.6982602e-01,-1.0408458e-01,1.0824610e-02,-5.3068838e-01,-1.3948933e-01,-4.8827207e-01,2.2890936e-01,-3.9306743e-02,1.5493873e-03,3.7295874e-01,1.9367753e-01,-4.8994123e-02
3.1699746e+00,-2.7476063e-01,-1.0676853e-01,1.0705607e-02,-5.4131614e-01,-1.2793729e-01,-4.9965266e-01,2.3346627e-01,-3.8250212e-02,1.7232265e-03,4.5569128e-01,1.0565318e-01,1.7383932e-02
