time, x, y, z, vx, vy, vz, yaw, pitch, roll, yaw_rate, pitch_rate, roll_rate
0.0000000e+00,0.0000000e+00,-0.0000000e+00,0.0000000e+00,0.0000000e+00,0.0000000e+00,0.0000000e+00,0.0000000e+00,0.0000000e+00,0.0000000e+00,0.0000000e+00,0.0000000e+00,0.0000000e+00
9.9999905e-03,4.0594290e-05,-4.7485152e-05,-1.4450588e-05,4.0579443e-03,-4.7488170e-03,4.0605732e-03,2.6168209e-04,1.8837932e-04,6.0544501e-05,2.6168234e-02,1.8837950e-02,6.0544559e-03
1.9999981e-02,4.9885556e-05,5.8141298e-06,3.3321672e-05,9.2908770e-04,5.3296728e-03,9.3066045e-04,3.8690890e-05,-2.4146525e-04,2.6474235e-04,-2.2299142e-02,-4.2984497e-02,2.0419804e-02
2.9999971e-02,-2.2640282e-05,-4.6231194e-05,3.2666071e-05,-7.2559716e-03,-5.2032675e-03,-7.2501197e-03,2.8965016e-05,-1.4617414e-04,-4.4547587e-04,-9.7258838e-04,9.5291198e-03,-7.1021889e-02
3.9999962e-02,-7.7690296e-05,-3.2400855e-04,-1.1786385e-04,-5.5201591e-03,-2.7787884e-02,-5.4383484e-03,3.3409525e-04,2.1873838e-03,-1.0673005e-03,3.0513052e-02,2.3335602e-01,-6.2182526e-02
4.9999952e-02,9.0739257e-05,-5.5483513e-05,8.8014095e-07,1.6848819e-02,2.6863771e-02,1.6819180e-02,4.1976454e-06,6.7220316e-04,-3.4056410e-04,-3.2989791e-02,-1.5151821e-01,7.2673713e-02
5.9999943e-02,1.3059118e-04,-1.0269159e-05,1.8403364e-05,3.9838473e-03,4.5227298e-03,3.9850801e-03,-1.8552652e-04,1.3820856e-04,1.2785009e-04,-1.8972435e-02,-5.3399511e-02,4.6841463e-02
6.9999933e-02,1.0793872e-04,-3.3681801e-05,4.3483259e-06,-2.2654328e-03,-2.3422344e-03,-2.2640609e-03,-1.2769921e-04,2.9973872e-04,-2.1387936e-04,5.7827364e-03,1.6153031e-02,-3.4172977e-02
7.9999924e-02,2.7778749e-05,-3.8518710e-06,1.2064804e-05,-8.0153988e-03,2.9846061e-03,-8.0160121e-03,2.5230258e-06,-1.9835139e-04,7.4699352e-05,1.3022236e-02,-4.9809058e-02,2.8857899e-02
8.9999914e-02,-6.1820825e-05,-2.8189468e-04,-1.6912510e-04,-8.9673405e-03,-2.7824578e-02,-8.8893835e-03,1.0532051e-04,2.3776762e-03,-4.9635395e-04,1.0279759e-02,2.5760300e-01,-5.7105384e-02
9.9999905e-02,9.3052746e-05,-5.5935181e-05,-3.9986573e-05,1.5490163e-02,2.2597334e-02,1.5482592e-02,1.9968374e-04,2.8769830e-04,1.1110781e-04,9.4363319e-03,-2.0899799e-01,6.0746234e-02
1.0999990e-01,9.6501382e-05,-3.1615673e-05,-3.6397766e-05,3.4498945e-04,2.4319414e-03,3.4482056e-04,7.4433802e-05,4.0671112e-05,1.6095443e-04,-1.2525006e-02,-2.4702743e-02,4.9846668e-03
1.1999989e-01,1.1549097e-04,1.8664313e-04,5.1099895e-05,1.8876522e-03,2.1824526e-02,1.9258509e-03,-4.8061697e-04,-1.1947878e-03,4.3077463e-04,-5.5505130e-02,-1.2354601e-01,2.6982046e-02
1.2999988e-01,3.6997378e-05,-1.3845358e-05,-7.6190409e-06,-7.8485209e-03,-2.0047204e-02,-7.8544594e-03,-8.7872061e-06,-2.2064789e-04,8.5280313e-05,4.7183021e-02,9.7414083e-02,-3.4549465e-02
1.3999987e-01,6.8097885e-05,-6.6383858e-05,-2.6024942e-05,3.1115516e-03,-5.2518056e-03,3.1120159e-03,-2.3230659e-04,4.2645951e-04,-8.9246296e-05,-2.2351960e-02,6.4710802e-02,-1.7452678e-02
1.4999986e-01,6.4980898e-05,-3.8952068e-05,2.1611048e-05,-3.1248955e-04,2.7430405e-03,-3.1214866e-04,-2.8920547e-04,1.6294879e-04,8.7535722e-06,-5.6898929e-03,-2.6351097e-02,9.7999962e-03
1.6000009e-01,1.5525990e-04,4.8970568e-04,3.6040659e-04,8.9775820e-03,5.2826298e-02,9.2976285e-03,-8.1352355e-04,-4.9740131e-03,7.8636682e-04,-5.2430608e-02,-5.1368443e-01,7.7759545e-02
1.7000008e-01,2.6256443e-04,6.7098558e-04,4.3195940e-04,1.0710073e-02,1.8066591e-02,1.0853706e-02,-6.4211600e-04,-6.3263279e-03,8.1493162e-04,1.7140771e-02,-1.3523161e-01,2.8564835e-03
1.8000007e-01,2.3914654e-05,-6.1327345e-05,-5.0018815e-05,-2.3850859e-02,-7.3251024e-02,-2.3818749e-02,-2.7365986e-04,5.5095819e-04,-2.4724709e-04,3.6845649e-02,6.8772927e-01,-1.0621797e-01
1.9000006e-01,-1.2760064e-05,-7.2773683e-06,-1.3808451e-05,-3.6673854e-03,5.4052407e-03,-3.6672149e-03,-1.0173896e-05,-7.5014721e-05,3.9525467e-05,2.6348622e-02,-6.2597351e-02,2.8677283e-02
2.0000005e-01,2.5858694e-05,2.1176769e-04,1.5970103e-04,3.8595527e-03,2.1897544e-02,3.9035830e-03,-5.1514298e-05,-1.8494820e-03,3.1027322e-04,-4.1340442e-03,-1.7744690e-01,2.7074801e-02
2.1000004e-01,2.7820650e-05,-3.1651261e-06,5.6045318e-05,1.9322199e-04,-2.1493332e-02,1.9594419e-04,1.3772357e-04,-1.2327646e-05,6.9402442e-05,1.8923805e-02,1.8371561e-01,-2.4087101e-02
2.2000003e-01,-5.3708983e-06,-3.7312483e-05,2.0833268e-05,-3.3189114e-03,-3.4148095e-03,-3.3193318e-03,3.7733843e-05,5.9007535e-05,1.1308773e-04,-9.9989823e-03,7.1335249e-03,4.3685333e-03
2.3000002e-01,2.9496476e-05,3.5112017e-05,2.6118838e-05,3.4843943e-03,7.2408940e-03,3.4923278e-03,-1.5316273e-04,-6.0077258e-04,3.5475292e-04,-1.9089675e-02,-6.5978075e-02,2.4166542e-02
2.4000001e-01,6.4332920e-05,-2.8326217e-05,-1.9366141e-05,3.4853553e-03,-6.3429127e-03,3.4836091e-03,-7.5973153e-05,1.8720554e-04,-3.5188171e-04,7.7189649e-03,7.8797887e-02,-7.0663530e-02
2.5000000e-01,4.1483620e-05,-9.1098440e-06,-2.7712887e-05,-2.2857545e-03,1.9208266e-03,-2.2847931e-03,-2.2441072e-04,1.3119217e-04,-1.7116891e-04,-1.4843771e-02,-5.6013421e-03,1.8071297e-02
2.5999999e-01,9.6584655e-05,-1.3381285e-05,-4.7307759e-06,5.5098500e-03,-4.2502494e-04,5.5105314e-03,-2.0385619e-04,1.8079121e-04,6.2738571e-05,2.0554551e-03,4.9599082e-03,2.3390770e-02
2.6999998e-01,6.2319592e-05,-3.0325671e-05,1.1799509e-05,-3.4257544e-03,-1.6961454e-03,-3.4264208e-03,-3.4306474e-04,1.5460116e-04,5.0657599e-05,-1.3920868e-02,-2.6190071e-03,-1.2080984e-03
2.7999997e-01,2.6061500e-04,7.9492863e-04,5.0697517e-04,1.9774750e-02,8.2370619e-02,2.0516403e-02,-3.2940733e-04,-7.9961293e-03,1.3921257e-03,1.3657421e-03,-8.1507382e-01,1.3414694e-01
2.8999996e-01,2.7310462e-04,8.2545906e-04,4.4544558e-04,1.2456419e-03,3.0439166e-03,1.2743058e-03,-5.9494791e-04,-7.8201233e-03,1.2037772e-03,-2.6554083e-02,1.7600617e-02,-1.8834872e-02
2.9999995e-01,7.3246234e-05,1.3151729e-04,2.0324419e-05,-1.9956075e-02,-6.9381288e-02,-2.0060456e-02,-3.5377108e-04,-9.9977147e-04,2.6169832e-04,2.4117706e-02,6.8203583e-01,-9.4207976e-02
3.0999994e-01,8.2591127e-05,1.5228514e-04,4.9930632e-05,9.3316244e-04,2.0762603e-03,9.3698498e-04,-4.5778587e-04,-1.0200435e-03,4.0328913e-04,-1.0401489e-02,-2.0272026e-03,1.4159095e-02
3.1999993e-01,-3.0299102e-06,-2.0680285e-05,3.0152256e-05,-8.5622637e-03,-1.7294255e-02,-8.5666136e-03,3.3480541e-05,-2.3557276e-04,4.9911833e-05,4.9126688e-02,7.8447147e-02,-3.5337764e-02
3.2999992e-01,1.1576257e-05,1.5278295e-05,5.4699147e-05,1.4603843e-03,3.5952312e-03,1.4624023e-03,3.2822398e-06,-4.2791591e-04,1.6813726e-04,-3.0198330e-03,-1.9234334e-02,1.1822554e-02
3.3999991e-01,2.6744324e-05,4.8584283e-07,8.9682892e-06,1.5173880e-03,-1.4789394e-03,1.5165278e-03,-2.4904379e-04,-4.6526535e-05,-1.3943236e-04,-2.5232627e-02,3.8138974e-02,-3.0756992e-02
3.4999990e-01,8.1667343e-06,-5.1134342e-05,-4.2377366e-05,-1.8587589e-03,-5.1628439e-03,-1.8544795e-03,1.9600377e-05,4.6175223e-04,-4.8294639e-04,2.6864443e-02,5.0827925e-02,-3.4351436e-02
3.5999990e-01,1.2467795e-05,-3.9234023e-05,-2.6741919e-05,4.3036579e-04,1.1901602e-03,4.2949490e-04,7.0351209e-05,3.6631628e-04,-4.0826470e-04,5.0750880e-03,-9.5436041e-03,7.4681761e-03
3.6999989e-01,-3.6798303e-06,-1.5417658e-05,1.4221546e-05,-1.6153926e-03,2.3809926e-03,-1.6150885e-03,-2.1274739e-04,1.8740880e-04,-7.5437795e-05,-2.8309887e-02,-1.7890764e-02,3.3282722e-02
3.7999988e-01,1.7455940e-06,-2.0408561e-05,2.6686817e-05,5.4272323e-04,-4.9878959e-04,5.4263966e-04,-2.9691000e-04,2.5828004e-04,-5.9212211e-05,-8.4162689e-03,7.0871302e-03,1.6225600e-03
3.8999987e-01,6.6325953e-05,-1.7646271e-05,3.5614856e-05,6.4570495e-03,2.7461076e-04,6.4591035e-03,2.4648258e-04,-4.1360115e-06,1.6419363e-04,5.4339310e-02,-2.6241630e-02,2.2340605e-02
3.9999986e-01,6.6094428e-05,-1.1284269e-04,-3.0588652e-05,-2.6239992e-05,-9.5196524e-03,-1.8785295e-05,3.2419470e-04,4.5859819e-04,-5.6380599e-05,7.7712195e-03,4.6273465e-02,-2.2057444e-02
4.1000009e-01,1.1022471e-04,1.2442026e-04,3.5637199e-05,4.4017361e-03,2.3723300e-02,4.4372173e-03,-4.1078032e-04,-9.6303680e-04,3.2738259e-04,-7.3495820e-02,-1.4216025e-01,3.8375440e-02
4.2000008e-01,1.2986280e-04,2.0366534e-04,6.8375860e-05,1.9599218e-03,7.9217159e-03,1.9789325e-03,-2.8572699e-04,-1.7039150e-03,8.2680714e-04,1.2505344e-02,-7.4087892e-02,4.9942503e-02
4.3000007e-01,1.7260914e-04,2.4867060e-04,9.4929057e-05,4.2704350e-03,4.4917866e-03,4.2880148e-03,-7.2705773e-05,-2.1138368e-03,9.0631804e-04,2.1302142e-02,-4.0992220e-02,7.9510977e-03
4.4000006e-01,1.6260113e-04,1.3456740e-04,3.6018745e-05,-9.9368939e-04,-1.1410242e-02,-1.0088731e-03,-6.1468199e-04,-6.9868610e-04,9.8969279e-05,-5.4197674e-02,1.4151521e-01,-8.0734953e-02
4.5000005e-01,6.8763680e-05,-1.0463231e-04,-3.6399473e-05,-9.3787306e-03,-2.3927635e-02,-9.3692818e-03,-2.6834163e-04,5.4655891e-04,-1.4878770e-04,3.4634069e-02,1.2452462e-01,-2.4775722e-02
4.6000004e-01,6.9795059e-05,-6.8507401e-05,-1.9401327e-05,1.0197675e-04,3.6125598e-03,1.0197908e-04,-3.2273707e-04,3.1952635e-04,-4.5109343e-05,-5.4395491e-03,-2.2703278e-02,1.0367846e-02
4.7000003e-01,6.7132494e-05,-6.2453832e-05,-1.3588513e-05,-2.6636803e-04,6.0525414e-04,-2.6638046e-04,-1.5267260e-04,2.3543725e-04,-7.0706776e-05,1.7006464e-02,-8.4089174e-03,-2.5597458e-03
4.8000002e-01,7.3364602e-05,-3.6519969e-05,-1.1402186e-05,6.2351811e-04,2.5935478e-03,6.2224208e-04,4.7378066e-05,3.0285201e-04,-2.9499883e-04,2.0005085e-02,6.7414816e-03,-2.2429227e-02
4.9000001e-01,-2.2447970e-05,2.6344138e-05,2.1340156e-05,-9.5797663e-03,6.2910708e-03,-9.5797115e-03,4.2514765e-05,-4.4324652e-04,1.2866292e-04,-4.8633060e-04,-7.4609924e-02,4.2366215e-02
5.0000000e-01,-4.5152266e-05,-1.2353353e-06,-2.1661920e-06,-2.2706014e-03,-2.7572771e-03,-2.2710791e-03,5.6368608e-05,-2.3995803e-04,-6.2746315e-06,1.3853857e-03,2.0328869e-02,-1.3493768e-02
5.0999999e-01,-3.7348806e-05,-1.3806043e-05,-1.2829043e-05,7.8035041e-04,-1.2572025e-03,7.8013261e-04,3.2090279e-05,-1.3522321e-04,-5.6479293e-05,-2.4278353e-03,1.0473491e-02,-5.0204709e-03
5.1993871e-01,2.3632407e-05,7.5462674e-05,6.7733656e-05,6.1331050e-03,8.9770314e-03,6.1454805e-03,-8.6837184e-05,-8.8202742e-04,2.9950590e-04,-1.1966078e-02,-7.5140908e-02,3.5818024e-02
5.2993870e-01,2.1495897e-05,-2.0003367e-05,2.1331818e-05,-2.1368584e-04,-9.5465718e-03,-2.1545904e-04,8.3376216e-06,-1.8467266e-04,2.1012977e-04,9.5174896e-03,6.9735542e-02,-8.9376215e-03
5.3993869e-01,5.8090436e-05,-8.6664373e-05,-9.9877106e-06,3.6606605e-03,-6.6639172e-03,3.6622413e-03,-2.7517649e-05,5.7074312e-04,-2.7869117e-04,-3.5855305e-03,7.5541651e-02,-4.8882141e-02
5.4993868e-01,4.5071629e-05,-3.8791756e-05,-1.8628356e-06,-1.3032276e-03,4.7865773e-03,-1.3030682e-03,-2.6830826e-04,2.6065307e-04,-4.7059668e-05,-2.4079084e-02,-3.1009035e-02,2.3163173e-02
5.5993867e-01,5.7352097e-05,-7.7826236e-06,-2.0197854e-06,1.2270637e-03,3.1014894e-03,1.2275844e-03,-3.3773187e-04,1.2913327e-04,-5.1368769e-05,-6.9423678e-03,-1.3151992e-02,-4.3091049e-04
5.6993866e-01,9.1485728e-05,-7.0043593e-05,-2.8487510e-05,3.4146640e-03,-6.2241918e-03,3.4155531e-03,-6.5954618e-05,4.9382987e-04,-2.5991159e-04,2.7177751e-02,3.6469695e-02,-2.0854302e-02
5.7993865e-01,1.2276640e-04,-8.0743666e-05,-1.0067380e-05,3.1281319e-03,-1.0688018e-03,3.1284202e-03,-1.7679600e-05,3.6800183e-04,-1.3801852e-05,4.8275065e-03,-1.2582816e-02,2.4610997e-02
5.8993864e-01,6.3689717e-05,-2.1467533e-05,2.1566393e-05,-5.9063458e-03,5.9292082e-03,-5.9074063e-03,-2.4125168e-05,-2.9311399e-04,2.4892150e-04,-6.4455747e-04,-6.6111645e-02,2.6272360e-02
5.9993863e-01,1.4575868e-05,-1.0357129e-04,-3.9821324e-05,-4.9114342e-03,-8.2117003e-03,-4.9091438e-03,3.3570876e-06,2.7143579e-04,-3.4611088e-06,2.7482282e-03,5.6455032e-02,-2.5238285e-02
6.0993862e-01,-1.0123274e-04,-4.3843165e-04,-2.8218747e-04,-1.1598195e-02,-3.3519099e-02,-1.1467423e-02,2.5684949e-04,3.1256675e-03,-7.5343691e-04,2.5349265e-02,2.8542344e-01,-7.4997651e-02
6.1993861e-01,9.5780362e-05,1.2080508e-04,-1.2585565e-05,1.9687127e-02,5.5908366e-02,1.9759036e-02,-1.5649491e-04,-9.3460844e-04,2.7658392e-04,-4.1334479e-02,-4.0602798e-01,1.0300218e-01
6.2993860e-01,3.1736537e-05,-1.8952143e-05,-6.9712562e-06,-6.4070429e-03,-1.3972492e-02,-6.4088090e-03,2.1788614e-04,-2.8837219e-04,6.0997347e-05,3.7438140e-02,6.4623686e-02,-2.1558678e-02
6.3993859e-01,1.8762920e-05,-2.1564269e-05,4.2859913e-05,-1.2974863e-03,-2.6130011e-04,-1.2972220e-03,-1.4526976e-04,-7.8008871e-05,-1.2435848e-04,-3.6315624e-02,2.1036352e-02,-1.8535600e-02
6.4993858e-01,8.0991603e-05,2.0149314e-04,1.8646808e-04,6.2134876e-03,2.2293524e-02,6.2758809e-03,-2.9368612e-04,-2.2499560e-03,4.5556047e-04,-1.4841651e-02,-2.1719492e-01,5.7991950e-02
6.5993881e-01,1.8296015e-05,1.6999008e-06,2.5942029e-05,-6.2660761e-03,-1.9975253e-02,-6.2842509e-03,-9.3769632e-05,-6.6927758e-04,2.3378620e-04,1.9991191e-02,1.5806423e-01,-2.2176920e-02
6.6993880e-01,7.7188511e-05,-7.1733798e-05,-7.1192060e-06,5.8890434e-03,-7.3439619e-03,5.8887376e-03,2.9137841e-04,1.9202210e-04,-3.2743860e-04,3.8514841e-02,8.6130050e-02,-5.6122534e-02
6.7993879e-01,6.0624473e-05,-7.7063707e-05,-6.2819181e-06,-1.6571804e-03,-5.3282104e-04,-1.6556849e-03,3.0835647e-04,2.0558625e-04,-3.6876523e-04,1.6978073e-03,1.3564159e-03,-4.1326670e-03
6.8993878e-01,2.6790744e-06,-5.9770185e-05,3.3836461e-05,-5.7934529e-03,1.7323466e-03,-5.7947437e-03,2.4682739e-04,-2.6963839e-04,1.1482353e-04,-6.1529137e-03,-4.7522509e-02,4.8358922e-02
6.9993877e-01,3.1443423e-05,-6.7117048e-05,4.6524595e-05,2.8757373e-03,-7.3562336e-04,2.8768983e-03,8.2185406e-05,-2.4327006e-04,2.2241162e-04,-1.6464214e-02,2.6368353e-03,1.0758819e-02
7.0993876e-01,4.9100988e-05,-1.1315730e-04,3.0227713e-05,1.7647095e-03,-4.6044291e-03,1.7657642e-03,1.5533574e-04,-7.1097856e-05,1.8886345e-04,7.3150406e-03,1.7217237e-02,-3.3548196e-03
7.1993876e-01,1.0153633e-04,-1.8279134e-04,-1.3983167e-05,5.2392050e-03,-6.9648730e-03,5.2459299e-03,5.4105503e-04,2.6196196e-04,1.0796041e-04,3.8571966e-02,3.3306013e-02,-8.0903117e-03
7.2993875e-01,1.0904201e-04,-1.6701598e-04,-1.6372288e-05,7.5129247e-04,1.5772517e-03,7.5044460e-04,5.4339280e-04,1.6268970e-04,1.7698727e-04,2.3377725e-04,-9.9272353e-03,6.9026921e-03
7.3993874e-01,2.8644358e-05,-1.0398994e-04,-1.4248729e-05,-8.0358480e-03,6.3075834e-03,-8.0397962e-03,3.3619484e-04,-2.8237439e-04,2.2451502e-04,-2.0719817e-02,-4.4506451e-02,4.7527799e-03
7.4993873e-01,8.4711012e-05,-9.4800953e-05,-6.7418096e-06,5.6066609e-03,9.1866991e-04,5.6067180e-03,4.3566556e-05,2.6749579e-06,8.8853017e-06,-2.9262856e-02,2.8504962e-02,-2.1562992e-02
7.5993872e-01,1.7251272e-04,-3.7133529e-05,7.8487053e-06,8.7794035e-03,5.7619854e-03,8.7840806e-03,1.0510847e-04,-4.3718152e-04,1.5735579e-04,6.1541976e-03,-4.3985690e-02,1.4847063e-02
7.6993871e-01,2.2573673e-04,1.1524205e-04,4.5616635e-05,5.3148668e-03,1.5233348e-02,5.3419973e-03,-3.6376761e-04,-1.1549548e-03,3.7501362e-04,-4.6887653e-02,-7.1777401e-02,2.1765804e-02
7.7993870e-01,1.1823300e-04,-1.6484417e-04,-1.9921726e-05,-1.0758343e-02,-2.8008742e-02,-1.0742175e-02,2.5679420e-04,2.6565103e-04,-7.1407108e-05,6.2056241e-02,1.4206072e-01,-4.4642116e-02
7.8993869e-01,5.4370192e-05,-1.1416554e-04,3.0443434e-05,-6.3834636e-03,5.0713742e-03,-6.3863270e-03,3.0410171e-04,-2.4494794e-04,2.0077167e-04,4.7307549e-03,-5.1059946e-02,2.7217904e-02
7.9993868e-01,3.0554771e-05,-1.1114814e-04,3.2442750e-05,-2.3810980e-03,3.0297023e-04,-2.3818346e-03,2.7552907e-04,-2.4083941e-04,1.5247180e-04,-2.8572663e-03,4.1085362e-04,-4.8299922e-03
8.0993867e-01,3.0107948e-06,-9.8577158e-05,2.2123910e-06,-2.7539316e-03,1.2582475e-03,-2.7543446e-03,2.0489446e-04,-2.1197864e-04,7.6606539e-05,-7.0634681e-03,2.8860792e-03,-7.5865331e-03
8.1993866e-01,2.7036322e-05,-1.5292163e-04,-5.3265677e-05,2.3996074e-03,-5.4356100e-03,2.4028821e-03,5.6733128e-04,8.5153937e-05,-5.6570960e-05,3.6243717e-02,2.9713286e-02,-1.3317763e-02
8.2993865e-01,1.1463311e-05,-1.5996252e-04,-4.7749691e-05,-1.5576439e-03,-7.0355438e-04,-1.5572032e-03,4.9142441e-04,1.4781567e-04,2.9274542e-06,-7.5906944e-03,6.2661797e-03,5.9498471e-03
8.3993864e-01,6.4261638e-05,-1.3359532e-04,2.1351457e-05,5.2804756e-03,2.6359467e-03,5.2795871e-03,2.0740813e-04,6.0541716e-05,-1.7248968e-05,-2.8401655e-02,-8.7274041e-03,-2.0176441e-03
8.4993863e-01,8.1001936e-05,-7.7987272e-05,7.6961980e-05,1.6743800e-03,5.5602190e-03,1.6756467e-03,1.0913701e-04,-2.4402958e-04,1.5428928e-04,-9.8271216e-03,-3.0457158e-02,1.7153842e-02
8.5993862e-01,9.4167913e-05,-1.3111549e-04,3.4391528e-05,1.3143057e-03,-5.3130084e-03,1.3181564e-03,4.7311056e-04,3.3457239e-04,-1.6750840e-04,3.6397390e-02,5.7860252e-02,-3.2179799e-02
8.6993861e-01,6.7509842e-05,-1.7035529e-04,-2.8288072e-05,-2.6677722e-03,-3.9239530e-03,-2.6638910e-03,4.1699508e-04,4.0574151e-04,-1.2248839e-04,-5.6115534e-03,7.1169179e-03,4.5020058e-03
8.7993860e-01,3.9876719e-05,-2.0662601e-04,-7.8232896e-05,-2.7643325e-03,-3.6284347e-03,-2.7605114e-03,1.2592475e-04,6.1815428e-04,-2.0298453e-04,-2.9107061e-02,2.1241298e-02,-8.0496222e-03
8.8993859e-01,5.9934714e-05,-1.1621116e-04,-5.9375038e-06,2.0081005e-03,9.0403831e-03,2.0085046e-03,3.0751196e-04,-2.4571672e-04,2.3986260e-04,1.8158739e-02,-8.6387182e-02,4.4284756e-02
8.9993858e-01,4.2886337e-04,8.0464384e-04,5.2886540e-04,3.6866363e-02,9.1745256e-02,3.7757213e-02,2.7103980e-04,-8.8439130e-03,1.3948475e-03,-3.6472198e-03,-8.5982045e-01,1.1549860e-01
9.0993881e-01,1.7581694e-04,7.7943058e-05,1.0153693e-04,-2.5304624e-02,-7.2619198e-02,-2.5444409e-02,2.9772054e-04,-1.6419428e-03,8.3248155e-04,2.6680126e-03,7.2018054e-01,-5.6235303e-02
9.1993880e-01,1.3839022e-04,8.1237135e-05,6.3934191e-05,-3.7395872e-03,3.3765165e-04,-3.7450278e-03,1.8444656e-04,-2.0167072e-03,8.0866508e-04,-1.1327409e-02,-3.7476483e-02,-2.3816490e-03
9.2993879e-01,1.6631972e-04,8.9750624e-05,4.1198215e-05,2.7910948e-03,8.4509051e-04,2.7967080e-03,3.5155599e-04,-1.8874764e-03,7.7196079e-04,1.6710959e-02,1.2923092e-02,-3.6704324e-03
9.3993878e-01,1.3873401e-04,4.1139524e-05,2.4854989e-05,-2.7586887e-03,-4.8571966e-03,-2.7653515e-03,2.3758550e-04,-1.1809728e-03,3.7685211e-04,-1.1397060e-02,7.0650432e-02,-3.9510906e-02
9.4993877e-01,7.3646272e-05,-1.1841863e-04,6.6159168e-06,-6.5138675e-03,-1.5954782e-02,-6.5062595e-03,2.9305170e-04,1.3211870e-04,-6.3319593e-05,5.5466250e-03,1.3130927e-01,-4.4017212e-02
9.5993876e-01,7.9567470e-05,-1.0737867e-04,8.4820694e-06,5.9263750e-04,1.1038074e-03,5.9195527e-04,3.7408635e-04,5.5105814e-05,-1.7596007e-04,8.1034733e-03,-7.7012964e-03,-1.1264058e-02
9.6993876e-01,3.4968667e-05,-1.3530224e-04,1.1213694e-05,-4.4602964e-03,-2.7919597e-03,-4.4597229e-03,1.8314996e-04,9.3569166e-05,2.2321843e-05,-1.9093657e-02,3.8463388e-03,1.9828210e-02
9.7993875e-01,3.5558312e-05,-5.4116904e-05,5.0775747e-05,5.9207553e-05,8.1185087e-03,6.3071405e-05,3.0851078e-05,-5.0493304e-04,1.2697817e-04,-1.5229903e-02,-5.9850277e-02,1.0465643e-02
9.8993874e-01,2.8869411e-05,-1.0204773e-04,1.9140566e-05,-6.6925578e-04,-4.7929855e-03,-6.6925574e-04,7.0652533e-05,-8.1653984e-05,-3.9436159e-05,3.9801493e-03,4.2327945e-02,-1.6641449e-02
9.9993873e-01,1.1527688e-05,-9.6479916e-05,-1.8199511e-07,-1.7336761e-03,5.5792011e-04,-1.7343060e-03,3.5096111e-04,-3.0517923e-04,1.7431448e-04,2.8030884e-02,-2.2352546e-02,2.1375084e-02
1.0099387e+00,4.2045529e-05,-1.1785930e-04,-8.2227221e-07,3.0503308e-03,-2.1403833e-03,3.0515308e-03,5.8308113e-04,-2.1735241e-04,6.8508260e-05,2.3212024e-02,8.7826912e-03,-1.0580632e-02
1.0199387e+00,5.3474625e-05,-9.6939337e-05,4.7233099e-05,1.1438466e-03,2.0910505e-03,1.1437094e-03,5.4294947e-04,-2.8626036e-04,1.7483428e-04,-4.0131700e-03,-6.8908019e-03,1.0632612e-02
1.0299387e+00,4.5847159e-05,-8.1215231e-05,8.6307400e-05,-7.6211751e-04,1.5729998e-03,-7.6216515e-04,2.9431181e-04,-4.7633276e-04,2.1902013e-04,-2.4863790e-02,-1.9007258e-02,4.4185891e-03
1.0399387e+00,7.4603098e-05,-1.1223505e-04,4.8480189e-05,2.8735991e-03,-3.1042321e-03,2.8751689e-03,4.0448547e-04,-3.7691424e-04,2.5819816e-04,1.1017377e-02,9.9418609e-03,3.9178071e-03
1.0499387e+00,1.1003358e-04,-1.6651612e-04,-2.6661977e-05,3.5418625e-03,-5.4281073e-03,3.5442472e-03,2.4682852e-04,2.4805271e-04,-4.2598486e-05,-1.5765710e-02,6.2496755e-02,-3.0079694e-02
1.0599387e+00,1.7182459e-04,8.5093565e-05,2.9567882e-05,6.1719632e-03,2.5156138e-02,6.2059550e-03,-2.1909894e-04,-1.0023901e-03,2.6387733e-04,-4.6592790e-02,-1.2504440e-01,3.0647611e-02
1.0699387e+00,3.3056647e-04,7.1854090e-04,4.8363153e-04,1.5843258e-02,6.3221948e-02,1.6386580e-02,-1.7873322e-04,-7.7868426e-03,1.2354142e-03,4.0365755e-03,-6.7844589e-01,9.7153777e-02
1.0799387e+00,2.7060804e-04,6.7409048e-04,5.0293325e-04,-5.9865100e-03,-4.4026549e-03,-6.0363209e-03,-4.2816347e-04,-7.4682387e-03,1.2393115e-03,-2.4943049e-02,3.1860413e-02,3.8973582e-04
1.0899386e+00,3.8833808e-05,-1.0265240e-04,1.0168402e-05,-2.3197130e-02,-7.7654164e-02,-2.3225384e-02,3.1865988e-04,-5.5200815e-04,2.1852823e-04,7.4682406e-02,6.9162372e-01,-1.0207843e-01
1.0999386e+00,9.6362359e-05,-1.7093026e-04,-2.9795203e-05,5.7472911e-03,-6.8328194e-03,5.7524582e-03,6.8395306e-04,-1.9025091e-04,1.5614100e-04,3.6529354e-02,3.6175759e-02,-6.2387284e-03
1.1099386e+00,8.7921999e-05,-2.2158761e-04,-5.4008631e-05,-8.4819750e-04,-5.0652894e-03,-8.4257296e-04,8.2632165e-04,2.9395313e-04,2.9560757e-05,1.4236872e-02,4.8420450e-02,-1.2658036e-02
1.1199386e+00,2.1122416e-05,-1.1065987e-04,2.2403391e-05,-6.6746559e-03,1.1097647e-02,-6.6771957e-03,3.6906892e-04,-3.5887974e-04,1.8176520e-04,-4.5725317e-02,-6.5283349e-02,1.5220459e-02
1.1299386e+00,1.3004095e-05,-3.5361143e-05,7.9453456e-05,-8.1006381e-04,7.5306833e-03,-8.0612596e-04,2.0888060e-04,-7.8386166e-04,2.4169515e-04,-1.6018847e-02,-4.2498233e-02,5.9930008e-03
1.1399386e+00,1.3068042e-05,-5.7269851e-05,4.0505469e-05,5.7281327e-06,-2.1908788e-03,4.8129705e-06,3.0366224e-04,-7.2249745e-04,2.0250004e-04,9.4781727e-03,6.1364273e-03,-3.9195144e-03
1.1499386e+00,7.1969712e-05,-1.0632326e-04,-6.0002722e-06,5.8902751e-03,-4.9072856e-03,5.8884540e-03,2.5189734e-04,-7.7489000e-05,-2.2723878e-04,-5.1764942e-03,6.4500906e-02,-4.2973924e-02
1.1599388e+00,1.0782989e-04,-1.1465649e-04,2.0709485e-05,3.5856939e-03,-8.3514869e-04,3.5857490e-03,3.8186360e-04,-1.3249183e-04,-2.1304780e-05,1.2996328e-02,-5.5001566e-03,2.0592929e-02
1.1699388e+00,1.0677957e-04,-6.6891660e-05,7.3767801e-05,-1.0340285e-04,4.7765491e-03,-1.0386890e-04,3.4456970e-04,-2.4016696e-04,-1.5652635e-04,-3.7293938e-03,-1.0767523e-02,-1.3522170e-02
1.1799388e+00,4.6140022e-05,-6.2201370e-05,7.3538633e-05,-6.0636706e-03,4.7174977e-04,-6.0640398e-03,4.9613447e-05,-3.9898021e-04,4.4008737e-05,-2.9495653e-02,-1.5881341e-02,2.0053528e-02
1.1899388e+00,4.9543718e-05,-1.0877661e-04,2.4757239e-05,3.4014419e-04,-4.6575559e-03,3.4021643e-04,4.5954555e-05,-3.5499911e-05,3.4602408e-05,-3.6588957e-04,3.6348065e-02,-9.4063381e-04
1.1999388e+00,-6.6030656e-06,-1.9693787e-04,-5.6618873e-05,-5.6192629e-03,-8.8156821e-03,-5.6108124e-03,5.1657258e-04,4.3628172e-04,-4.5795868e-06,4.7061847e-02,4.7178208e-02,-3.9182032e-03
1.2099388e+00,3.5846245e-05,-2.1417538e-04,-6.2388521e-05,4.2439624e-03,-1.7255740e-03,4.2451676e-03,7.7238186e-04,3.4316923e-04,-8.4804627e-05,2.5580953e-02,-9.3112584e-03,-8.0225117e-03
1.2198749e+00,8.1479956e-05,-1.5017693e-04,-3.2362495e-07,4.5961031e-03,6.4377912e-03,4.5938464e-03,6.0959152e-04,-9.0286973e-05,1.1835213e-04,-1.6383736e-02,-4.3624405e-02,2.0446339e-02
1.2298748e+00,7.7170374e-05,-8.6758721e-05,3.7934283e-05,-4.2923356e-04,6.3422128e-03,-4.2698204e-04,2.4945035e-04,-6.4946037e-04,3.3175035e-04,-3.6014151e-02,-5.5917393e-02,2.1339842e-02
1.2398748e+00,1.2911372e-04,1.1662592e-04,8.6098765e-05,5.1929505e-03,2.0325790e-02,5.2451647e-03,1.7480629e-04,-2.2566439e-03,9.5148288e-04,-7.4644134e-03,-1.6071851e-01,6.1973313e-02
1.2498748e+00,2.0904743e-04,6.5455254e-05,3.9712212e-05,7.9936817e-03,-5.1225488e-03,7.9895650e-03,-1.8002696e-04,-8.6549052e-04,7.7239932e-05,-3.5483359e-02,1.3911547e-01,-8.7424378e-02
1.2598748e+00,2.0101943e-04,5.8574801e-05,1.9666670e-05,-8.0264000e-04,-6.8761874e-04,-8.0332721e-04,-1.7180806e-04,-7.0369507e-04,5.2887753e-05,8.2189022e-04,1.6179560e-02,-2.4352203e-03
1.2698748e+00,1.4234271e-04,5.8487832e-05,3.8575669e-05,-5.8662845e-03,-4.2342642e-06,-5.8690755e-03,-3.4809706e-04,-1.1083760e-03,2.3683415e-04,-1.7628917e-02,-4.0468131e-02,1.8394657e-02
1.2798748e+00,4.7297707e-05,-1.0223156e-04,3.9412543e-05,-9.5053174e-03,-1.6068278e-02,-9.5099158e-03,5.3584402e-05,-3.3314118e-04,5.5752171e-06,4.0168185e-02,7.7523556e-02,-2.3125915e-02
1.2898748e+00,4.0752919e-05,-8.6594066e-05,6.7269732e-05,-6.5440269e-04,1.5640051e-03,-6.5394872e-04,4.4279651e-05,-3.4416877e-04,1.1480662e-05,-9.3047592e-04,-1.1027601e-03,5.9054502e-04
1.2998748e+00,1.4288061e-05,-1.1392607e-04,3.2197288e-05,-2.6474204e-03,-2.7306831e-03,-2.6481570e-03,4.9237489e-04,-4.5955105e-04,1.5616354e-04,4.4809567e-02,-1.1538239e-02,1.4468301e-02
1.3098748e+00,7.3408510e-05,-1.2775153e-04,-4.8875864e-06,5.9099495e-03,-1.3878630e-03,5.9129055e-03,6.7950107e-04,-2.1966332e-04,1.9621597e-04,1.8712636e-02,2.3988795e-02,4.0052468e-03
1.3198748e+00,3.6128450e-05,-1.5010962e-04,-3.7549267e-05,-3.7292082e-03,-2.2330506e-03,-3.7284652e-03,7.0386977e-04,-3.6452676e-05,1.0035016e-04,2.4368719e-03,1.8321082e-02,-9.5865895e-03
1.3298748e+00,2.1316326e-06,-7.0549586e-05,1.5544290e-05,-3.3957361e-03,7.9589823e-03,-3.3966753e-03,4.1878704e-04,-4.5557115e-04,1.8135949e-04,-2.8508299e-02,-4.1911888e-02,8.1009406e-03
1.3398747e+00,2.8305900e-05,-1.6655584e-05,5.5222319e-05,2.6180176e-03,5.3863744e-03,2.6230736e-03,2.9469746e-04,-8.6208966e-04,3.8187092e-04,-1.2408970e-02,-4.0651890e-02,2.0051162e-02
1.3498747e+00,1.1564414e-04,-5.2968820e-05,5.9287564e-05,8.7269868e-03,-3.6413641e-03,8.7364952e-03,5.1193896e-04,-6.3704959e-04,5.7061030e-04,2.1724171e-02,2.2504029e-02,1.8873956e-02
1.3598747e+00,1.9110445e-04,-1.2656917e-04,2.0736433e-05,7.5425444e-03,-7.3614185e-03,7.5481898e-03,3.6821356e-04,1.8571449e-04,1.0388699e-04,-1.4372553e-02,8.2276487e-02,-4.6672375e-02
1.3698747e+00,1.3053890e-04,-1.8311057e-04,-1.5584603e-05,-6.0606025e-03,-5.6531060e-03,-6.0534868e-03,4.7366874e-04,3.0228767e-04,-2.2528967e-04,1.0545528e-02,1.1657329e-02,-3.2917698e-02
1.3798747e+00,1.0223467e-04,4.0132492e-05,4.4233663e-05,-2.8398717e-03,2.2325782e-02,-2.8094159e-03,-4.3797968e-04,-9.5603278e-04,1.1716537e-04,-9.1164929e-02,-1.2583217e-01,3.4245537e-02
1.3898747e+00,8.4414054e-05,1.1239806e-04,6.2448287e-05,-1.7792573e-03,7.2307210e-03,-1.7679488e-03,1.7427255e-04,-2.1661677e-03,8.6753237e-04,6.1225281e-02,-1.2101361e-01,7.5036771e-02
1.3998747e+00,1.6206707e-04,6.1026219e-05,3.9274931e-05,7.7559618e-03,-5.1541157e-03,7.7634342e-03,5.0617957e-04,-1.6731250e-03,8.6835086e-04,3.3190734e-02,4.9304319e-02,8.1848836e-05
1.4098749e+00,1.9073594e-04,5.5483291e-05,4.7463916e-05,2.8638765e-03,-5.6069986e-04,2.8685152e-03,5.6880239e-04,-1.6693036e-03,9.1656699e-04,6.2621392e-03,3.8213023e-04,4.8215027e-03
1.4198749e+00,1.1009545e-04,-1.4038909e-04,9.4498389e-06,-8.0743587e-03,-1.9579197e-02,-8.0733135e-03,5.9858798e-04,-4.0007299e-04,1.7622792e-04,2.9785617e-03,1.2692318e-01,-7.4033977e-02
1.4298749e+00,4.5142432e-05,-9.7998693e-05,3.2863824e-05,-6.4926281e-03,4.2444313e-03,-6.4944681e-03,2.6660613e-04,-5.6291049e-04,2.3848391e-04,-3.3198216e-02,-1.6283765e-02,6.2256049e-03
1.4398749e+00,2.7848822e-05,-1.1832606e-04,1.6517495e-05,-1.7295321e-03,-2.0314723e-03,-1.7306811e-03,3.7817821e-04,-3.5396800e-04,3.4644063e-04,1.1157218e-02,2.0894269e-02,1.0795682e-02
1.4498749e+00,4.4519772e-05,-1.4864319e-04,-3.4781117e-05,1.6642829e-03,-3.0333435e-03,1.6669460e-03,7.6891407e-04,-2.0832921e-04,2.8916267e-04,3.9073623e-02,1.4563892e-02,-5.7278013e-03
1.4598749e+00,7.5453311e-05,-1.5368767e-04,-3.2778597e-05,3.0936520e-03,-5.0485076e-04,3.0929962e-03,4.6493704e-04,3.3517730e-04,-1.7134090e-04,-3.0397732e-02,5.4350703e-02,-4.6050402e-02
1.4698749e+00,3.8960239e-05,2.8051245e-05,9.8833910e-05,-3.6447814e-03,1.8180650e-02,-3.6201460e-03,2.2044352e-04,-1.6331592e-03,1.4329878e-04,-2.4449375e-02,-1.9683384e-01,3.1463999e-02
1.4798748e+00,2.8040020e-05,-2.0579397e-04,1.3873704e-05,-1.0996098e-03,-2.3384444e-02,-1.0865266e-03,3.1916357e-04,2.2972601e-04,-1.1305389e-04,9.8720137e-03,1.8628870e-01,-2.5635291e-02
1.4898748e+00,1.2541919e-04,-1.6268137e-04,5.4837015e-05,9.7390894e-03,4.3072642e-03,9.7385331e-03,3.7094207e-04,-3.9793272e-05,4.4713968e-05,5.1778556e-03,-2.6951954e-02,1.5776800e-02
1.4998748e+00,1.2636308e-04,-1.7661098e-04,2.2511029e-05,9.3653130e-05,-1.3929974e-03,9.4610334e-05,5.3629997e-04,1.6654410e-04,-1.1621763e-04,1.6535805e-02,2.0633757e-02,-1.6093176e-02
1.5098748e+00,3.8230144e-05,-1.8596242e-04,-5.3600933e-06,-8.8135211e-03,-9.2517270e-04,-8.8141355e-03,8.5829871e-04,-2.7303661e-04,6.5852598e-05,3.2199905e-02,-4.3958113e-02,1.8207041e-02
1.5198748e+00,1.0774012e-05,-1.8896586e-04,-3.5059004e-05,-2.7460254e-03,-2.9782896e-04,-2.7454802e-03,6.6309027e-04,-2.5314526e-04,-7.6860860e-05,-1.9520862e-02,1.9891374e-03,-1.4271359e-02
1.5298748e+00,2.4350443e-05,-2.4222101e-04,-6.3598506e-05,1.3543927e-03,-5.3262930e-03,1.3578618e-03,6.1027616e-04,4.0559380e-05,1.0489505e-06,-5.2814165e-03,2.9370492e-02,7.7909884e-03
1.5398748e+00,1.7998911e-05,-4.8072347e-04,-1.5395635e-04,-6.5212849e-04,-2.3851056e-02,-5.8651119e-04,7.0972060e-04,2.0374295e-03,-7.5232593e-05,9.9444539e-03,1.9968721e-01,-7.6281616e-03
1.5498748e+00,1.5019384e-04,-2.7357244e-04,1.3757747e-05,1.3235071e-02,2.0704858e-02,1.3220012e-02,9.8445056e-04,2.0865776e-04,3.6461049e-04,2.7473022e-02,-1.8287735e-01,4.3984351e-02
1.5598748e+00,1.3230741e-04,-2.5614701e-04,-1.9172116e-05,-1.7876024e-03,1.7431166e-03,-1.7891292e-03,6.6257094e-04,3.4241475e-04,-6.2971302e-05,-3.2187992e-02,1.3375711e-02,-4.2758220e-02
1.5698748e+00,8.8325240e-05,-1.1170123e-04,-1.6142469e-06,-4.3941301e-03,1.4448413e-02,-4.3897510e-03,2.5501928e-04,-6.1445437e-04,9.2595130e-05,-4.0755205e-02,-9.5687003e-02,1.5556658e-02
1.5798748e+00,6.0477507e-05,-1.3612239e-04,-5.3220054e-05,-2.7853551e-03,-2.4409104e-03,-2.7852559e-03,1.6491397e-04,-2.6890392e-04,-6.3358735e-05,-9.0105398e-03,3.4555078e-02,-1.5595401e-02
1.5898747e+00,1.3867320e-04,-1.5838929e-04,-5.4609519e-05,7.8199197e-03,-2.2301756e-03,7.8182406e-03,4.9307807e-04,4.7580392e-05,-1.8442614e-04,3.2816441e-02,3.1648461e-02,-1.2106752e-02
1.5998747e+00,8.9400508e-05,-2.6426994e-04,-4.0794366e-05,-4.9371848e-03,-1.0584157e-02,-4.9257690e-03,1.0098165e-03,2.1588001e-04,1.5798303e-04,5.1673889e-02,1.6829978e-02,3.4240950e-02
1.6098747e+00,9.1247652e-05,-1.9686111e-04,3.3611799e-05,1.9022950e-04,6.7406713e-03,1.8706414e-04,8.2693439e-04,-3.3949081e-04,3.2116498e-04,-1.8288225e-02,-5.5537135e-02,1.6318210e-02
1.6198747e+00,5.4139568e-05,-1.8399566e-04,4.3888112e-05,-3.7090257e-03,1.2900678e-03,-3.7113751e-03,4.7363116e-04,-4.7533241e-04,3.1699762e-04,-3.5330357e-02,-1.3584173e-02,-4.1673618e-04
1.6298747e+00,3.1410305e-05,-1.3683145e-04,3.3275607e-05,-2.2697615e-03,4.7194442e-03,-2.2698255e-03,5.6546300e-04,-7.6334901e-04,2.1980154e-04,9.1831922e-03,-2.8801687e-02,-9.7196172e-03
1.6398747e+00,3.9247710e-05,-1.2282410e-04,-1.4176598e-06,7.8477804e-04,1.3996149e-03,7.8470535e-04,8.1739078e-04,-6.1151119e-04,1.3768352e-04,2.5192802e-02,1.5183796e-02,-8.2118096e-03
1.6498747e+00,8.7066928e-06,-2.3389864e-04,-6.6128733e-05,-3.0659334e-03,-1.1104757e-02,-3.0520982e-03,1.0630678e-03,1.7865590e-04,-7.3692032e-06,2.4567728e-02,7.9016784e-02,-1.4505286e-02
1.6598749e+00,8.4690643e-05,-2.6183119e-04,-5.6056446e-05,7.5986369e-03,-2.7925982e-03,7.5980233e-03,7.3576440e-04,8.1382537e-04,-3.2551933e-04,-3.2729593e-02,6.3515494e-02,-3.1814285e-02
1.6698749e+00,4.0072777e-05,-2.6377825e-04,-1.0978397e-05,-4.4622028e-03,-1.9482593e-04,-4.4613738e-03,4.0128234e-04,4.2827826e-04,-7.4871050e-05,-3.3448238e-02,-3.8554749e-02,2.5064852e-02
1.6798749e+00,7.9325517e-05,-2.4122863e-04,2.5793551e-05,3.9256460e-03,2.2544967e-03,3.9251779e-03,3.0907151e-04,1.9002778e-04,8.3683470e-05,-9.2210920e-03,-2.3825071e-02,1.5855467e-02
1.6898749e+00,1.5714362e-04,-2.4921863e-04,-2.4155161e-05,7.7821890e-03,-8.0077454e-04,7.7812645e-03,6.5724838e-04,4.2939462e-04,-1.1539327e-04,3.4817720e-02,2.3936707e-02,-1.9907693e-02
1.6998749e+00,9.3678518e-05,-2.8050492e-04,-6.8369031e-05,-6.3494859e-03,-3.1234695e-03,-6.3460890e-03,1.1039514e-03,2.9082513e-04,7.5707866e-05,4.4670341e-02,-1.3856962e-02,1.9110131e-02
1.7098749e+00,1.1187311e-04,1.4970361e-05,2.1850148e-05,1.8319728e-03,2.9544357e-02,1.8584405e-03,4.4503827e-04,-1.2975763e-03,3.5040830e-04,-6.5891372e-02,-1.5884029e-01,2.7470069e-02
1.7198749e+00,2.5762034e-04,7.4661270e-04,4.8994968e-04,1.4565026e-02,7.3028249e-02,1.5251100e-02,1.9230720e-04,-8.9280383e-03,1.6303146e-03,-2.5273131e-02,-7.6304693e-01,1.2799076e-01
1.7298748e+00,3.1432746e-04,7.1557952e-04,5.0205130e-04,5.6595424e-03,-3.1549617e-03,5.6533595e-03,2.8711619e-04,-8.8249436e-03,1.8118748e-03,9.4809074e-03,1.0309479e-02,1.8156029e-02
1.7398748e+00,2.2725241e-04,-2.4069284e-05,6.6209610e-05,-8.7541463e-03,-7.3943224e-02,-8.8442143e-03,7.4355464e-04,-1.7348710e-03,9.5977551e-04,4.5643889e-02,7.0900794e-01,-8.5210007e-02
1.7498748e+00,1.1232511e-04,-3.0450537e-04,-5.1626405e-05,-1.1522463e-02,-2.8033187e-02,-1.1488471e-02,1.0921338e-03,1.8449739e-04,7.8195847e-05,3.4857949e-02,1.9193702e-01,-8.8158050e-02
1.7598748e+00,8.7545167e-05,-2.2844239e-04,-2.5014167e-05,-2.4733713e-03,7.6074944e-03,-2.4789664e-03,7.3633890e-04,2.5554856e-04,-3.9401126e-04,-3.5579523e-02,7.1051241e-03,-4.7220756e-02
1.7698748e+00,1.0499068e-05,-2.0823626e-04,-1.7042866e-05,-7.7062132e-03,2.0231684e-03,-7.7023510e-03,5.4616367e-04,2.1485772e-04,-3.5057822e-04,-1.9017541e-02,-4.0690875e-03,4.3433082e-03
1.7798748e+00,9.8043285e-07,-1.7056883e-04,-2.3544007e-06,-9.5087373e-04,3.7671184e-03,-9.5138302e-04,2.8557053e-04,-1.0522721e-04,-8.9360751e-05,-2.6059339e-02,-3.2008524e-02,2.6121772e-02
1.7898748e+00,7.9519212e-05,-2.5300216e-04,-2.8155625e-05,7.8498410e-03,-8.2458896e-03,7.8552536e-03,7.8718894e-04,4.6244786e-04,-3.1163648e-04,5.0161889e-02,5.6767561e-02,-2.2227594e-02
1.7998748e+00,1.2962928e-04,-2.6444993e-04,-2.1292648e-05,5.0112645e-03,-1.1469748e-03,5.0102560e-03,8.4918656e-04,4.1076859e-04,-2.4488408e-04,6.1997682e-03,-5.1679318e-03,6.6752455e-03
1.8098748e+00,7.4651073e-05,-1.9751088e-04,3.1916330e-05,-5.4948045e-03,6.6972651e-03,-5.4967615e-03,5.7134979e-04,-3.8916769e-05,-1.4628088e-04,-2.7783704e-02,-4.4968579e-02,9.8603302e-03
1.8198748e+00,1.2639169e-05,-6.8296095e-05,9.4995502e-05,-6.1931462e-03,1.2931294e-02,-6.1887942e-03,4.3613992e-04,-1.1458251e-03,3.8920130e-04,-1.3521000e-02,-1.1069094e-01,5.3548269e-02
1.8298748e+00,8.0898653e-06,-1.3100008e-04,3.3738499e-05,-4.5868179e-04,-6.2698405e-03,-4.5891708e-04,6.0526195e-04,-6.2866128e-04,9.7131717e-05,1.6912218e-02,5.1716429e-02,-2.9206987e-02
1.8398747e+00,6.8294084e-05,-2.9908111e-04,-7.3448457e-05,6.0030159e-03,-1.6811405e-02,6.0286345e-03,1.1544464e-03,6.0652047e-04,-3.3166610e-04,5.4918500e-02,1.2351829e-01,-4.2879823e-02
1.8498747e+00,1.0140953e-04,-2.7607923e-04,-7.4524344e-05,3.3143692e-03,2.2980562e-03,3.3102055e-03,1.0225971e-03,3.7878104e-04,-1.4234109e-04,-1.3184945e-02,-2.2773964e-02,1.8932519e-02
1.8598747e+00,7.1481018e-05,-1.8784794e-04,1.9020448e-05,-2.9871762e-03,8.8262581e-03,-2.9893243e-03,5.6279123e-04,-4.8037513e-04,2.3769602e-04,-4.5980630e-02,-8.5915699e-02,3.8003746e-02
1.8698747e+00,8.6114012e-05,-1.9449627e-04,6.0317660e-05,1.4630643e-03,-6.6562638e-04,1.4631772e-03,2.0872408e-04,-3.3251484e-04,6.6746367e-05,-3.5406748e-02,1.4786043e-02,-1.7094981e-02
1.8798747e+00,1.0463675e-04,-1.6157351e-04,4.2573547e-05,1.8527965e-03,3.2910225e-03,1.8539881e-03,2.3097076e-04,-4.4734939e-04,1.2942758e-04,2.2246704e-03,-1.1483466e-02,6.2681274e-03
1.8898747e+00,1.0543228e-04,-2.5752841e-04,-4.9754440e-05,7.2414058e-05,-9.5955500e-03,8.0261138e-05,7.4467985e-04,7.4397490e-05,-8.1608632e-05,5.1370958e-02,5.2174738e-02,-2.1103641e-02
1.8998747e+00,6.9673297e-05,-3.0246780e-04,-9.1683012e-05,-3.5814890e-03,-4.4911871e-03,-3.5737722e-03,1.0274891e-03,2.5768276e-04,-2.7165673e-04,2.8280949e-02,1.8328544e-02,-1.9004828e-02
1.9098749e+00,9.6306690e-06,-2.8592996e-04,-3.5543676e-05,-6.0023120e-03,1.6621867e-03,-6.0036075e-03,1.1626292e-03,-2.4343418e-04,-1.8893094e-05,1.3513709e-02,-5.0110546e-02,2.5275785e-02
1.9198749e+00,-7.1902677e-05,-5.1119447e-04,-9.2288823e-05,-8.1843949e-03,-2.2524623e-02,-8.1272988e-03,1.2614734e-03,1.0386554e-03,-3.2415779e-04,9.8844255e-03,1.2820908e-01,-3.0526498e-02
1.9298749e+00,6.8637055e-05,-2.9572669e-04,3.8030953e-05,1.4069104e-02,2.1529335e-02,1.4065619e-02,9.0432139e-04,-3.3744685e-04,3.1033921e-04,-3.5715236e-02,-1.3761036e-01,6.3449760e-02
1.9398749e+00,8.2372509e-05,-3.6057006e-04,-3.0203489e-05,1.3644121e-03,-6.4861383e-03,1.3741723e-03,1.3958119e-03,8.3838308e-05,5.9958471e-05,4.9149093e-02,4.2128556e-02,-2.5038098e-02
1.9498749e+00,1.1606825e-05,-3.6555175e-04,-6.8629130e-05,-7.0787635e-03,-4.9112246e-04,-7.0748789e-03,1.3182819e-03,3.2245997e-04,-2.1733305e-04,-7.7529982e-03,2.3862189e-02,-2.7729178e-02
1.9598749e+00,-4.3506074e-05,-2.6242208e-04,-1.7437785e-05,-5.5026845e-03,1.0319872e-02,-5.5069908e-03,8.5058799e-04,-4.0132776e-04,-2.9652636e-05,-4.6769440e-02,-7.2378843e-02,1.8768059e-02
1.9698749e+00,-1.3906022e-04,-5.6888033e-04,-1.6897766e-04,-9.5947339e-03,-3.0654646e-02,-9.4875898e-03,9.8376588e-04,1.9131243e-03,-9.5980278e-04,1.3317801e-02,2.3144543e-01,-9.3015103e-02
1.9798748e+00,4.1898809e-05,-2.5358448e-04,4.0996335e-05,1.8120802e-02,3.1512319e-02,1.8101146e-02,7.4420960e-04,-2.1103255e-04,-7.8616052e-05,-2.3955651e-02,-2.1241589e-01,8.8118757e-02
1.9898748e+00,4.4820280e-04,6.4364124e-04,5.6676491e-04,4.0648406e-02,8.9336713e-02,4.1454542e-02,7.7636646e-04,-8.6288194e-03,1.2710753e-03,3.2156894e-03,-8.4177949e-01,1.3496926e-01
1.9998748e+00,1.2063372e-04,-2.5350115e-04,3.9592759e-05,-3.2845944e-02,-8.9672415e-02,-3.2782556e-02,9.5222001e-04,-3.2581302e-04,-1.0965680e-04,1.7585372e-02,8.3030143e-01,-1.3807334e-01
2.0098748e+00,5.4849083e-05,-2.1379166e-04,5.0957085e-05,-6.5727968e-03,3.9828129e-03,-6.5769708e-03,9.8054452e-04,-8.2259069e-04,2.6998347e-04,2.8324537e-03,-4.9677814e-02,3.7964064e-02
2.0198748e+00,9.7316693e-06,-2.4775645e-04,1.8370168e-05,-4.5144123e-03,-3.3896718e-03,-4.5141997e-03,9.7215771e-04,-5.3690952e-04,1.4032357e-04,-8.3868150e-04,2.8568144e-02,-1.2966002e-02
2.0298748e+00,5.7363444e-06,-3.3781896e-04,-1.8040796e-05,-4.1002406e-04,-9.0057809e-03,-3.9968754e-04,1.1662458e-03,-1.5802657e-05,3.0139363e-05,1.9408827e-02,5.2110736e-02,-1.1018432e-02
2.0398748e+00,7.4864705e-05,-3.1764986e-04,-1.7905572e-05,6.9141020e-03,2.0065510e-03,6.9145979e-03,1.2080574e-03,-2.9040504e-04,1.6953584e-04,4.1811669e-03,-2.7460264e-02,1.3939661e-02
2.0498748e+00,8.4024925e-05,-3.6174536e-04,-2.1908452e-05,9.1059652e-04,-4.4108436e-03,9.1522152e-04,1.2114993e-03,-2.0053118e-04,9.1234381e-05,3.4418870e-04,8.9873944e-03,-7.8301537e-03
2.0598748e+00,9.0677761e-05,-2.9355204e-04,4.0563015e-05,6.7145894e-04,6.8182749e-03,6.6995779e-04,9.3065241e-04,-6.6004821e-04,2.5764876e-04,-2.8084716e-02,-4.5951747e-02,1.6641453e-02
2.0698748e+00,3.1152703e-04,4.8263449e-04,5.0356756e-04,2.2078533e-02,7.7439560e-02,2.2711443e-02,2.8779514e-04,-7.7102958e-03,1.3010371e-03,-6.4285789e-02,-7.0502543e-01,1.0433893e-01
2.0798748e+00,7.3128065e-05,-3.3015859e-04,-2.3039261e-05,-2.3921362e-02,-8.1258039e-02,-2.3831105e-02,9.7005688e-04,7.6276973e-05,-1.0939510e-04,6.8226240e-02,7.7865802e-01,-1.4104335e-01
2.0898747e+00,9.6252042e-05,-2.6547735e-04,-5.5342895e-06,2.3198761e-03,6.4655766e-03,2.3120535e-03,1.0543225e-03,-4.8522007e-05,-2.8458857e-04,8.4265683e-03,-1.2479910e-02,-1.7519364e-02
2.0998747e+00,4.5364073e-05,-2.7774055e-04,-7.5152263e-06,-5.0909446e-03,-1.2197445e-03,-5.0882393e-03,1.0894159e-03,-2.0300671e-04,-1.5915611e-04,3.5093413e-03,-1.5448485e-02,1.2543258e-02
2.1098747e+00,2.3068175e-06,-2.4808966e-04,2.8660859e-05,-4.3012366e-03,2.9733221e-03,-4.3045453e-03,1.0642790e-03,-8.4736736e-04,3.0999259e-04,-2.5136917e-03,-6.4436127e-02,4.6914915e-02
2.1198747e+00,4.0874947e-05,-2.6460326e-04,4.2280364e-05,3.8537777e-03,-1.6572972e-03,3.8573086e-03,9.8574786e-04,-5.5312852e-04,3.6531029e-04,-7.8531185e-03,2.9423912e-02,5.5317756e-03
2.1298747e+00,5.2633539e-05,-2.7428293e-04,4.2670844e-05,1.1744018e-03,-9.6994287e-04,1.1756906e-03,1.2463634e-03,-4.3376551e-04,2.1360678e-04,2.6061575e-02,1.1936313e-02,-1.5170366e-02
2.1398747e+00,4.6736701e-06,-3.8494328e-04,-4.3716709e-05,-4.8123429e-03,-1.1060753e-02,-4.7918187e-03,1.4456494e-03,3.4473296e-04,-7.4828593e-05,1.9928620e-02,7.7849922e-02,-2.8843565e-02
2.1498747e+00,-9.9639759e-07,-3.0371062e-04,7.9048352e-07,-5.5872278e-04,8.1240308e-03,-5.6438013e-04,1.0067601e-03,-3.3625112e-04,1.8702480e-04,-4.3888973e-02,-6.8098474e-02,2.6185365e-02
2.1598749e+00,-1.9562465e-05,-3.2959793e-04,-6.2119664e-06,-1.8591369e-03,-2.5856863e-03,-1.8581491e-03,1.0567348e-03,-5.5015879e-04,8.7150874e-05,4.9973561e-03,-2.1390277e-02,-9.9871644e-03
2.1698749e+00,6.6168280e-05,-3.3932625e-04,2.4686499e-05,8.5702659e-03,-9.8775104e-04,8.5741932e-03,1.1693012e-03,-5.7074395e-04,1.9517365e-04,1.1256653e-02,-2.0585176e-03,1.0802287e-02
2.1798749e+00,1.6322119e-04,-4.0596894e-04,1.2358392e-05,9.6982701e-03,-6.6747210e-03,9.7051491e-03,1.3756568e-03,2.9871923e-04,-2.2123245e-04,2.0635580e-02,8.6946401e-02,-4.1640650e-02
2.1898749e+00,1.7303148e-04,-3.1689135e-04,5.8449463e-05,9.9126501e-04,8.9063765e-03,9.8337114e-04,1.1556674e-03,-2.5623730e-04,5.9681000e-05,-2.1998961e-02,-5.5495706e-02,2.8091372e-02
2.1998749e+00,2.8222444e-04,4.4548291e-04,5.1733877e-04,1.0942047e-02,7.6143856e-02,1.1532712e-02,4.8699463e-04,-7.8619734e-03,1.3165162e-03,-6.6867340e-02,-7.6057434e-01,1.2568364e-01
2.2098749e+00,2.7221142e-04,4.3556689e-04,4.8367093e-04,-1.0005597e-03,-9.8325907e-04,-1.0102338e-03,4.8399421e-04,-7.8088886e-03,1.2206386e-03,-3.0004170e-04,5.3084869e-03,-9.5877630e-03
2.2198749e+00,3.5265856e-05,-3.9279135e-04,-7.2237284e-05,-2.3798576e-02,-8.2801426e-02,-2.3710854e-02,1.2820921e-03,-1.7003105e-04,9.2274513e-05,7.9809860e-02,7.6388649e-01,-1.1283652e-01
2.2298748e+00,9.2146003e-05,-3.5305723e-04,-3.5530357e-05,5.6924700e-03,3.9616037e-03,5.6918069e-03,1.4901681e-03,-5.8556458e-04,2.5750374e-04,2.0807625e-02,-4.1553392e-02,1.6522939e-02
2.2398748e+00,1.2101449e-04,-3.2806969e-04,2.1618259e-05,2.8893440e-03,2.4931083e-03,2.8892391e-03,1.3881403e-03,-5.6712112e-04,3.3694913e-04,-1.0202791e-02,1.8443474e-03,7.9445461e-03
2.2498748e+00,8.6251747e-05,-3.4175841e-04,5.1732530e-05,-3.4766408e-03,-1.3640029e-03,-3.4778279e-03,1.0899042e-03,-3.1084176e-04,3.2395267e-04,-2.9823633e-02,2.5627961e-02,-1.2996469e-03
2.2598748e+00,8.2722205e-05,-2.3378273e-04,8.7705740e-05,-3.4312884e-04,1.0798221e-02,-3.4283224e-04,8.9305828e-04,-9.5386537e-04,5.1746126e-04,-1.9684615e-02,-6.4302423e-02,1.9350878e-02
2.2698748e+00,2.4657837e-05,-3.5095446e-04,-1.5021796e-05,-5.8193254e-03,-1.1709652e-02,-5.8087373e-03,1.1988025e-03,-9.6755407e-05,1.9964642e-04,3.0574450e-02,8.5711078e-02,-3.1781515e-02
2.2798748e+00,2.9395709e-05,-4.0064027e-04,-9.3575859e-05,4.6738247e-04,-4.9690153e-03,4.7564770e-04,1.3360085e-03,4.2060970e-04,-4.9240131e-04,1.3720615e-02,5.1736560e-02,-6.9204839e-02
2.2898748e+00,1.0415972e-04,-2.6691567e-04,2.4592420e-05,7.4940325e-03,1.3360221e-02,7.4806667e-03,1.1914624e-03,-4.4601086e-04,-2.2699931e-04,-1.4454623e-02,-8.6662139e-02,2.6540225e-02
2.2998748e+00,1.8129712e-04,6.4753795e-05,2.9732114e-04,7.7204408e-03,3.3132674e-02,7.8532107e-03,3.6519436e-04,-4.0436396e-03,7.0217948e-04,-8.2626884e-02,-3.5976322e-01,9.2917968e-02
2.3098748e+00,5.1761578e-05,-3.7095114e-04,6.8029709e-05,-1.2998734e-02,-4.3556821e-02,-1.2954444e-02,1.0374008e-03,-1.9556014e-05,1.9605895e-06,6.7220708e-02,4.0240874e-01,-7.0021956e-02
2.3198748e+00,2.9601891e-04,3.4565097e-04,5.1523364e-04,2.4444617e-02,7.1468895e-02,2.4961742e-02,7.1334845e-04,-7.0393323e-03,1.3195519e-03,-3.2405266e-02,-7.0197830e-01,1.3175925e-01
2.3298748e+00,1.6644483e-04,3.6094061e-04,4.6319284e-04,-1.2932061e-02,1.6458042e-03,-1.2968436e-02,1.0744635e-03,-7.9320762e-03,1.8280662e-03,3.6111541e-02,-8.9274470e-02,5.0851480e-02
2.3398747e+00,-2.8079755e-04,-4.1586472e-04,-4.1632081e-05,-4.4818523e-02,-7.7596209e-02,-4.4776419e-02,1.4154039e-03,-4.6958543e-04,3.5013058e-04,3.4094069e-02,7.4624979e-01,-1.4779370e-01
2.3498747e+00,-6.6529933e-04,-5.5996097e-04,-1.4454700e-04,-3.8482772e-02,-1.4373180e-02,-3.8431286e-02,1.3975402e-03,4.4988098e-04,-3.2401336e-04,-1.7863717e-03,9.1946729e-02,-6.7414458e-02
2.3598747e+00,-6.0371696e-04,4.0055298e-04,5.2915457e-04,6.2617221e-03,9.5981554e-02,7.0758906e-03,1.1559500e-03,-9.4775446e-03,1.2248112e-03,-2.4159044e-02,-9.9274350e-01,1.5488260e-01
2.3698747e+00,-7.4443398e-04,1.9850196e-04,5.3034070e-04,-1.4086983e-02,-2.0059488e-02,-1.4263489e-02,1.6175788e-03,-8.6654482e-03,1.2355796e-03,4.6162924e-02,8.1209721e-02,1.0768453e-03
2.3798747e+00,-1.1103470e-03,-1.0268835e-03,-1.9419152e-04,-3.6912112e-02,-1.2252521e-01,-3.6313143e-02,2.5214123e-03,2.1730400e-03,-3.2587856e-04,9.0383442e-02,1.0838499e+00,-1.5614597e-01
2.3898747e+00,-9.8514499e-04,-4.5765499e-04,8.8131655e-06,1.2579831e-02,5.6901326e-02,1.2558489e-02,1.1924371e-03,-5.2701380e-04,6.5861526e-04,-1.3289765e-01,-2.7000564e-01,9.8449476e-02
2.3998747e+00,-1.0867965e-03,3.1234500e-04,5.1918444e-04,-1.0066635e-02,7.7100664e-02,-9.4774855e-03,1.0781073e-03,-9.1236184e-03,1.5243091e-03,-1.1432993e-02,-8.5966128e-01,8.6569468e-02
2.4098749e+00,-1.5842457e-03,1.9455245e-04,5.5288463e-04,-4.9712568e-02,-1.1234721e-02,-4.9900644e-02,1.6546493e-03,-9.2670005e-03,1.0174584e-03,5.7652883e-02,-1.4337883e-02,-5.0683911e-02
2.4198749e+00,-1.9770706e-03,7.8503380e-05,5.4223436e-04,-3.9276542e-02,-1.1152886e-02,-3.9419213e-02,2.0379036e-03,-9.4486429e-03,7.5203998e-04,3.8325461e-02,-1.8164257e-02,-2.6541868e-02
2.4298749e+00,-2.6945877e-03,-1.0677187e-03,-1.5045867e-04,-7.2237623e-02,-1.1432019e-01,-7.1746290e-02,3.5888875e-03,-6.1186390e-04,-1.0450108e-03,1.5509854e-01,8.8367875e-01,-1.7970525e-01
2.4398749e+00,-3.1050630e-03,-1.5007105e-03,-2.3178848e-04,-4.1312404e-02,-4.3226867e-02,-4.0857701e-02,4.0906293e-03,2.3444746e-03,-2.1476875e-03,5.0174228e-02,2.9563414e-01,-1.1026777e-01
2.4498749e+00,-3.1139022e-03,-8.9288889e-04,1.4400441e-04,-6.8098987e-04,6.0786718e-02,-7.4332179e-04,3.3509891e-03,-2.3036061e-03,-8.4812020e-04,-7.3964094e-02,-4.6480852e-01,1.2995685e-01
2.4598749e+00,-3.3544873e-03,-1.4533009e-03,-1.6556497e-04,-2.4326423e-02,-5.5989213e-02,-2.3909843e-02,4.0523140e-03,1.9159956e-03,-1.7054836e-03,7.0132562e-02,4.2196057e-01,-8.5736419e-02
2.4698749e+00,-3.4487743e-03,-1.5896389e-03,-1.9015409e-04,-9.4997172e-03,-1.3623804e-02,-9.3717409e-03,4.1992695e-03,3.1619875e-03,-1.4685046e-03,1.4695564e-02,1.2459930e-01,2.3697924e-02
2.4798748e+00,-3.7426049e-03,-1.6803605e-03,-2.0050878e-04,-2.9465357e-02,-9.0411072e-03,-2.9310179e-02,4.5603671e-03,3.5133506e-03,-1.4033594e-03,3.6109791e-02,3.5136346e-02,6.5145187e-03
2.4898748e+00,-3.7432443e-03,-3.3354855e-04,6.6894981e-04,3.9436175e-04,1.3467660e-01,1.0602805e-03,3.4024731e-03,-8.3449001e-03,8.5050074e-04,-1.1578950e-01,-1.1858262e+00,2.2538623e-01
2.4998748e+00,-4.2516809e-03,-3.7985789e-04,7.0355596e-04,-5.0814873e-02,-3.9798375e-03,-5.0927604e-02,3.8777906e-03,-8.9159894e-03,9.1243173e-04,4.7531796e-02,-5.7108991e-02,6.1931045e-03
2.5098748e+00,-4.7490665e-03,-3.8146135e-04,6.9272376e-04,-4.9682544e-02,4.9021386e-04,-4.9792450e-02,3.5992286e-03,-9.4697805e-03,1.1316138e-03,-2.7856229e-02,-5.5379159e-02,2.1918226e-02
2.5198748e+00,-5.6790208e-03,-1.4010194e-03,2.6895740e-04,-9.3487852e-02,-1.0140276e-01,-9.3106619e-02,4.7177950e-03,-1.2174479e-03,-1.3291151e-04,1.1185674e-01,8.2523405e-01,-1.2645265e-01
2.5298748e+00,-6.3199340e-03,-1.6308888e-03,9.9901598e-05,-6.4275049e-02,-2.2699047e-02,-6.4010011e-02,5.0459668e-03,5.5899155e-04,-1.0692645e-03,3.2817217e-02,1.7764411e-01,-9.3635384e-02
2.5398748e+00,-6.9307166e-03,-1.8609670e-03,3.2318772e-05,-6.1301544e-02,-2.2752694e-02,-6.0950116e-02,5.6220640e-03,1.4532137e-03,-1.5540889e-03,5.7609766e-02,8.9422303e-02,-4.8482493e-02
2.5498748e+00,-7.3776188e-03,-2.1170836e-03,1.0397818e-04,-4.4915161e-02,-2.5475341e-02,-4.4542495e-02,6.0690516e-03,3.0361827e-03,-1.5737799e-03,4.4698811e-02,1.5829705e-01,-1.9690998e-03
2.5598748e+00,-7.8781441e-03,-1.9904472e-03,2.3928770e-04,-4.9943676e-02,1.3052008e-02,-5.0061596e-02,6.8388044e-03,-9.2589547e-04,4.2201661e-04,7.6975347e-02,-3.9620820e-01,1.9957984e-01
2.5698748e+00,-8.3287900e-03,-2.0124434e-03,3.2583559e-04,-4.5048523e-02,-1.8641843e-03,-4.5095847e-02,6.9177869e-03,-5.2414991e-04,6.7092083e-04,7.8982581e-03,4.0174594e-02,2.4890445e-02
2.5798748e+00,-8.7686043e-03,-1.4792317e-03,6.9109512e-04,-4.3569004e-02,5.3891172e-02,-4.3696406e-02,6.7382391e-03,-6.2648460e-03,1.1857616e-03,-1.7954799e-02,-5.7407016e-01,5.1484126e-02
2.5898747e+00,-9.5574609e-03,-1.5965417e-03,6.1976278e-04,-7.8942772e-02,-1.0629012e-02,-7.8984808e-02,7.2972827e-03,-6.6630613e-03,3.3553011e-04,5.5904419e-02,-3.9821568e-02,-8.5023230e-02
2.5998747e+00,-1.0440069e-02,-1.9987582e-03,3.8893331e-04,-8.8651108e-02,-3.9028058e-02,-8.8405512e-02,8.5601296e-03,-4.9445038e-03,-5.5741439e-04,1.2628481e-01,1.7185591e-01,-8.9294535e-02
2.6098747e+00,-1.0979995e-02,-2.0689456e-03,4.8273744e-04,-5.4065914e-02,-6.2277910e-03,-5.4016462e-02,8.7978879e-03,-5.8458701e-03,-2.5101904e-04,2.3775856e-02,-9.0136709e-02,3.0639565e-02
2.6198747e+00,-1.1431889e-02,-2.2456316e-03,5.8632820e-04,-4.5360460e-02,-1.7013908e-02,-4.5269291e-02,9.3634201e-03,-5.1035621e-03,-1.6714844e-04,5.6553269e-02,7.4230863e-02,8.3870671e-03
2.6298747e+00,-1.1731007e-02,-2.2330611e-03,6.9755157e-04,-2.9891724e-02,1.7373154e-03,-2.9907843e-02,9.8001608e-03,-6.2580148e-03,2.1149345e-04,4.3674113e-02,-1.1544538e-01,3.7864226e-02
2.6398747e+00,-1.1965581e-02,-2.2326644e-03,8.0359785e-04,-2.3439860e-02,4.1963647e-04,-2.3471157e-02,9.5009686e-03,-6.6928595e-03,6.8518993e-04,-2.9919249e-02,-4.3484508e-02,4.7369693e-02
2.6498747e+00,-1.2394459e-02,-2.1565621e-03,8.4081800e-04,-4.2747755e-02,8.3806690e-03,-4.2884166e-02,9.5223761e-03,-8.4436916e-03,1.5312939e-03,2.1407478e-03,-1.7508338e-01,8.4610475e-02
2.6598749e+00,-1.2965584e-02,-2.0882443e-03,8.4143523e-04,-5.6919105e-02,7.9558243e-03,-5.7157475e-02,9.7752797e-03,-9.9001722e-03,2.1446974e-03,2.5289783e-02,-1.4564473e-01,6.1338952e-02
2.6698749e+00,-1.3405321e-02,-1.9330400e-03,1.0662796e-03,-4.3740316e-02,1.6548656e-02,-4.3831256e-02,1.0271791e-02,-1.3140074e-02,1.6273857e-03,4.9651221e-02,-3.2399048e-01,-5.1731223e-02
2.6798749e+00,-1.3950921e-02,-2.1255076e-03,1.1012097e-03,-5.4734578e-02,-1.8017923e-02,-5.4804360e-02,1.0405024e-02,-1.2069285e-02,4.1748518e-04,1.3323266e-02,1.0707899e-01,-1.2099017e-01
2.6898749e+00,-1.4384169e-02,-2.3131706e-03,1.1658150e-03,-4.3515598e-02,-1.7779095e-02,-4.3549417e-02,1.1185884e-02,-1.1541620e-02,3.7908820e-04,7.8086056e-02,5.2766553e-02,-3.8397015e-03
2.6998749e+00,-1.4687443e-02,-2.4917911e-03,1.1593626e-03,-3.0498767e-02,-1.7199430e-02,-3.0538041e-02,1.1223148e-02,-1.0547918e-02,8.9912100e-04,3.7264248e-03,9.9370322e-02,5.2003330e-02
2.7098749e+00,-1.5072643e-02,-2.6290692e-03,1.0734976e-03,-3.8616123e-02,-1.2918842e-02,-3.8703069e-02,1.1454239e-02,-9.4942140e-03,1.5190302e-03,2.3109167e-02,1.0537048e-01,6.1990981e-02
2.7198749e+00,-1.5770518e-02,-3.3281471e-03,6.0130540e-04,-7.0567074e-02,-6.8925806e-02,-6.9980301e-02,1.1688488e-02,-2.3115936e-03,4.7043378e-04,2.3424873e-02,7.1826273e-01,-1.0485974e-01
2.7298748e+00,-1.6608171e-02,-3.6476587e-03,5.7852570e-04,-8.4181616e-02,-3.0754499e-02,-8.3795974e-02,1.2759766e-02,-1.4956469e-03,-1.8384422e-04,1.0712790e-01,8.1594744e-02,-6.5427862e-02
2.7398748e+00,-1.7336508e-02,-3.2031496e-03,9.2613132e-04,-7.2259502e-02,4.5843597e-02,-7.2542059e-02,1.2579255e-02,-6.6029950e-03,1.2935772e-04,-1.8051108e-02,-5.1073529e-01,3.1320224e-02
2.7498748e+00,-1.8027474e-02,-3.1114430e-03,1.1074504e-03,-6.8927248e-02,1.0737507e-02,-6.9040116e-02,1.3000464e-02,-9.6880382e-03,6.4165988e-04,4.2120937e-02,-3.0850461e-01,5.1230265e-02
2.7598748e+00,-1.8624490e-02,-3.2362478e-03,1.1305594e-03,-5.9843388e-02,-1.1093271e-02,-5.9833564e-02,1.3688048e-02,-9.5161478e-03,3.9423649e-04,6.8758442e-02,1.7189049e-02,-2.4742362e-02
2.7698748e+00,-1.9245508e-02,-4.1523484e-03,6.8063697e-04,-6.3515467e-02,-9.0493429e-02,-6.2308945e-02,1.5132775e-02,-2.6771896e-03,-5.5629497e-04,1.4447286e-01,6.8389648e-01,-9.5053237e-02
2.7798748e+00,-1.9592861e-02,-3.9713686e-03,8.5521215e-04,-3.4437052e-02,1.8741883e-02,-3.4690883e-02,1.4688143e-02,-3.9065267e-03,8.2685339e-04,-4.4463212e-02,-1.2293383e-01,1.3831497e-01
2.7898748e+00,-2.0054210e-02,-3.5757562e-03,1.0598958e-03,-4.5454559e-02,4.0620912e-02,-4.5888928e-02,1.4446761e-02,-8.6245600e-03,2.2539257e-03,-2.4138201e-02,-4.7180378e-01,1.4270737e-01
2.7998748e+00,-2.0966212e-02,-4.2199578e-03,7.7115572e-04,-9.2106317e-02,-6.2524596e-02,-9.1608147e-02,1.5701246e-02,-4.9839541e-03,1.0319897e-03,1.2544856e-01,3.6406094e-01,-1.2219372e-01
2.8098748e+00,-2.1652107e-02,-3.6513120e-03,1.4324557e-03,-6.7563601e-02,5.8778951e-02,-6.7991379e-02,1.5999880e-02,-1.2059813e-02,1.5640094e-03,2.9863417e-02,-7.0758660e-01,5.3202022e-02
2.8198748e+00,-2.2339463e-02,-3.2272812e-03,1.7998037e-03,-6.7756796e-02,4.4795293e-02,-6.8188094e-02,1.7111871e-02,-1.7821170e-02,3.5331919e-03,1.1119920e-01,-5.7613624e-01,1.9691843e-01
2.8298566e+00,-2.3588349e-02,-4.1687504e-03,1.3895168e-03,-1.2663010e-01,-9.0710246e-02,-1.2625391e-01,1.7433224e-02,-1.1231554e-02,8.8233568e-04,3.2193685e-02,6.6015841e-01,-2.6556707e-01
2.8398566e+00,-2.4508795e-02,-4.2719203e-03,1.4288075e-03,-9.2187868e-02,-7.6032542e-03,-9.2165491e-02,1.7643054e-02,-1.1813909e-02,2.6624887e-04,2.0983024e-02,-5.8235502e-02,-6.1608739e-02
2.8498566e+00,-2.5310586e-02,-4.4221074e-03,1.4254000e-03,-8.0421108e-02,-1.2531768e-02,-8.0364102e-02,1.8436248e-02,-1.2534134e-02,2.6682008e-04,7.9319469e-02,-7.2022624e-02,5.7120797e-05
2.8598566e+00,-2.5864750e-02,-4.5471861e-03,1.5040947e-03,-5.5600028e-02,-1.0714068e-02,-5.5607900e-02,1.9027665e-02,-1.3273939e-02,7.9874562e-04,5.9141790e-02,-7.3980561e-02,5.3192605e-02
2.8698566e+00,-2.6566758e-02,-4.8860824e-03,1.5151173e-03,-7.0739131e-02,-3.1611234e-02,-7.0721642e-02,2.0176530e-02,-1.2125782e-02,1.8674998e-03,1.1488663e-01,1.1481582e-01,1.0687552e-01
2.8798566e+00,-2.7588955e-02,-5.3100182e-03,1.4354206e-03,-1.0285998e-01,-3.9182072e-02,-1.0285709e-01,2.1125796e-02,-1.0157999e-02,2.2722480e-03,9.4926629e-02,1.9677852e-01,4.0474864e-02
2.8898566e+00,-2.8703883e-02,-5.6023289e-03,1.4222798e-03,-1.1188395e-01,-2.5948836e-02,-1.1191264e-01,2.1269272e-02,-8.0894152e-03,1.8408244e-03,1.4347648e-02,2.0685857e-01,-4.3142400e-02
2.8998566e+00,-3.0151036e-02,-5.6628147e-03,1.3813003e-03,-1.4463249e-01,-1.4218088e-03,-1.4491769e-01,2.2000091e-02,-9.9498846e-03,1.2500429e-03,7.3081999e-02,-1.8604712e-01,-5.9078212e-02
2.9098568e+00,-3.1695847e-02,-6.6522489e-03,9.0852207e-04,-1.5690322e-01,-9.4528043e-02,-1.5479602e-01,2.3610613e-02,-4.7781931e-03,-8.6057012e-04,1.6104844e-01,5.1715731e-01,-2.1105647e-01
2.9198568e+00,-3.2839006e-02,-7.0789052e-03,9.3728056e-04,-1.1551624e-01,-3.9376622e-02,-1.1428964e-01,2.4979890e-02,-3.6809871e-03,-1.4904987e-03,1.3692783e-01,1.0972071e-01,-6.2992918e-02
2.9298568e+00,-3.3951319e-02,-6.8629992e-03,1.1991163e-03,-1.1068107e-01,2.5359190e-02,-1.1098482e-01,2.5861818e-02,-8.0970310e-03,-4.0591337e-04,8.8192898e-02,-4.4160482e-01,1.0845864e-01
2.9398568e+00,-3.5105216e-02,-7.1170248e-03,1.3072697e-03,-1.1598293e-01,-2.1485055e-02,-1.1559092e-01,2.6213156e-02,-7.6567971e-03,2.8631180e-04,3.5133824e-02,4.4023433e-02,6.9222583e-02
2.9498568e+00,-3.6007634e-02,-7.0013056e-03,1.5317141e-03,-8.9798054e-02,1.4707515e-02,-9.0228086e-02,2.5945656e-02,-8.8418770e-03,1.2542958e-03,-2.6750029e-02,-1.1850810e-01,9.6798493e-02
2.9598567e+00,-3.7537540e-02,-7.0079124e-03,1.7372039e-03,-1.5272491e-01,5.1886823e-03,-1.5316963e-01,2.6730458e-02,-1.1489199e-02,1.4944721e-03,7.8480336e-02,-2.6473247e-01,2.4017653e-02
2.9698567e+00,-3.9096210e-02,-7.8901560e-03,1.4869498e-03,-1.5823185e-01,-8.2690231e-02,-1.5651734e-01,2.8321786e-02,-6.9448732e-03,4.5605204e-04,1.5913296e-01,4.5443302e-01,-1.0384211e-01
2.9798567e+00,-4.0863600e-02,-8.4721460e-03,1.3361014e-03,-1.7849340e-01,-5.1943041e-02,-1.7692549e-01,2.9833566e-02,-5.4198141e-03,-5.4808037e-04,1.5117810e-01,1.5250606e-01,-1.0041334e-01
2.9898567e+00,-4.2399734e-02,-8.4104936e-03,1.6450650e-03,-1.5333716e-01,1.2229295e-02,-1.5352674e-01,3.0304493e-02,-9.1965601e-03,1.2450593e-04,4.7092755e-02,-3.7767496e-01,6.7258694e-02
2.9998567e+00,-4.3959104e-02,-8.3169172e-03,1.9672848e-03,-1.5548701e-01,1.6338529e-02,-1.5581141e-01,3.0767920e-02,-1.4034070e-02,5.6711975e-04,4.6342695e-02,-4.8375143e-01,4.4261424e-02
3.0098567e+00,-4.5274528e-02,-7.7980069e-03,2.4948185e-03,-1.2952931e-01,5.8904622e-02,-1.3058313e-01,3.1655483e-02,-2.1919121e-02,2.3155372e-03,8.8756412e-02,-7.8850584e-01,1.7484191e-01
3.0198567e+00,-4.7167692e-02,-9.4874664e-03,1.7071359e-03,-1.9477768e-01,-1.6087175e-01,-1.9080418e-01,3.2840243e-02,-9.2983705e-03,-8.4403563e-05,1.1847616e-01,1.2620762e+00,-2.3999430e-01
3.0298567e+00,-4.8835756e-02,-1.0192398e-02,1.5672838e-03,-1.6912347e-01,-6.3139883e-02,-1.6741791e-01,3.5204120e-02,-8.6071274e-03,3.6481897e-04,2.3638790e-01,6.9124380e-02,4.4922296e-02
3.0398567e+00,-5.0291860e-02,-1.0790829e-02,1.5374262e-03,-1.4767071e-01,-5.3444593e-02,-1.4602438e-01,3.6615914e-02,-7.0487413e-03,2.2656112e-04,1.4117954e-01,1.5583875e-01,-1.3825798e-02
3.0498567e+00,-5.1719999e-02,-1.0603148e-02,1.9034497e-03,-1.4171232e-01,2.5646674e-02,-1.4284182e-01,3.7006720e-02,-1.1242742e-02,2.1648662e-03,3.9080584e-02,-4.1940049e-01,1.9383070e-01
3.0598567e+00,-5.3602734e-02,-1.0952337e-02,1.9928851e-03,-1.8911588e-01,-2.5612798e-02,-1.8892460e-01,3.8174783e-02,-1.1098473e-02,1.8752390e-03,1.1680643e-01,1.4426972e-02,-2.8962751e-02
3.0698566e+00,-5.5724263e-02,-1.1372778e-02,2.0569652e-03,-2.1352140e-01,-3.1593694e-02,-2.1259359e-01,3.8711728e-02,-1.0395260e-02,4.7099869e-04,5.3694586e-02,7.0321375e-02,-1.4042417e-01
3.0798566e+00,-5.7847556e-02,-1.1901458e-02,2.0708425e-03,-2.1441482e-01,-4.1920881e-02,-2.1267707e-01,4.0312439e-02,-1.1047755e-02,-5.9934094e-04,1.6007127e-01,-6.5249615e-02,-1.0703406e-01
3.0898566e+00,-5.9784551e-02,-1.2392395e-02,2.2040085e-03,-1.9572997e-01,-3.8507847e-02,-1.9405213e-01,4.1900750e-02,-1.2532889e-02,-7.4297568e-04,1.5883117e-01,-1.4851356e-01,-1.4363488e-02
3.0998566e+00,-6.1644918e-02,-1.3055798e-02,2.3279706e-03,-1.8883979e-01,-5.5822567e-02,-1.8666520e-01,4.3443376e-02,-1.2751624e-02,-5.2286464e-04,1.5426280e-01,-2.1873522e-02,2.2011125e-02
3.1098566e+00,-6.3221570e-02,-1.3823150e-02,2.1708164e-03,-1.6101307e-01,-6.8315924e-02,-1.5815414e-01,4.4816118e-02,-8.0995310e-03,-4.3288305e-04,1.3727435e-01,4.6520978e-01,8.9981675e-03
3.1198566e+00,-6.4819198e-02,-1.3861060e-02,2.3467525e-03,-1.5967086e-01,5.0111529e-03,-1.5982146e-01,4.4926118e-02,-1.0155490e-02,6.3312566e-04,1.1000036e-02,-2.0559614e-01,1.0660097e-01
3.1298566e+00,-6.6703399e-02,-1.4278744e-02,2.4086432e-03,-1.8997667e-01,-3.1065685e-02,-1.8892547e-01,4.6103005e-02,-1.0461498e-02,8.9346981e-04,1.1768876e-01,-3.0600807e-02,2.6034440e-02
3.1398566e+00,-6.8967870e-02,-1.5009197e-02,2.3993901e-03,-2.2954413e-01,-6.0261806e-02,-2.2709117e-01,4.7017270e-02,-9.0814438e-03,3.7998179e-04,9.1426635e-02,1.3800557e-01,-5.1348851e-02
3.1498566e+00,-7.1416890e-02,-1.5982159e-02,2.3350177e-03,-2.4967426e-01,-8.3381374e-02,-2.4521633e-01,4.9270740e-02,-7.0847730e-03,-1.1331232e-03,2.2534716e-01,1.9966727e-01,-1.5131064e-01
3.1598568e+00,-7.3637005e-02,-1.6762232e-02,2.3481357e-03,-2.2612100e-01,-6.5312963e-02,-2.2195063e-01,5.0906320e-02,-5.8390465e-03,-1.9519255e-03,1.6355428e-01,1.2456980e-01,-8.1878355e-02
3.1698568e+00,-7.5777396e-02,-1.7478335e-02,2.3211537e-03,-2.1804060e-01,-5.8953537e-02,-2.1386088e-01,5.2966572e-02,-5.7316530e-03,-2.3869438e-03,2.0602543e-01,1.0739361e-02,-4.3501875e-02
