time, x, y, z, vx, vy, vz, yaw, pitch, roll, yaw_rate, pitch_rate, roll_rate
0.0000000e+00,0.0000000e+00,0.0000000e+00,0.0000000e+00,0.0000000e+00,0.0000000e+00,0.0000000e+00,0.0000000e+00,0.0000000e+00,0.0000000e+00,0.0000000e+00,0.0000000e+00,0.0000000e+00
1.0000229e-02,2.3118260e-04,3.9958156e-04,1.7209189e-04,2.3075247e-02,3.9900728e-02,2.3257362e-02,-3.6496798e-04,-2.7992685e-03,1.2060847e-03,-3.6495963e-02,-2.7992044e-01,1.2060571e-01
2.0000219e-02,1.7920745e-04,2.7138293e-04,7.0771850e-05,-5.1916776e-03,-1.2810679e-02,-5.2259533e-03,-1.2563604e-04,-1.8887893e-03,8.1387828e-04,2.3933217e-02,9.1048004e-02,-3.9220677e-02
3.0000210e-02,7.4508617e-05,-2.0746837e-04,7.0588867e-05,-1.0491035e-02,-4.7885216e-02,-1.0448525e-02,5.7776866e-04,5.8276802e-04,6.2281697e-04,7.0340537e-02,2.4715597e-01,-1.9106150e-02
4.0000200e-02,-2.0927211e-04,-9.8212346e-04,-4.2851400e-04,-2.8488665e-02,-7.7641933e-02,-2.7779053e-02,8.3143172e-04,7.1277102e-03,-1.6282088e-03,2.5366330e-02,6.5449484e-01,-2.2510279e-01
5.0000191e-02,-2.0419135e-04,-1.0050987e-03,-4.9123413e-04,5.0668348e-04,-2.2944528e-03,5.2312787e-04,1.0542609e-03,7.0016717e-03,-2.0279351e-03,2.2282943e-02,-1.2603860e-02,-3.9972667e-02
6.0000181e-02,-9.3922754e-05,-3.2653276e-04,5.7114397e-05,1.1062385e-02,6.7866140e-02,1.0932533e-02,4.8638312e-04,1.3530659e-03,-2.2784166e-04,-5.6787836e-02,-5.6486112e-01,1.8000952e-01
7.0000172e-02,-2.0209802e-04,-7.0193289e-04,-2.5409628e-04,-1.0853603e-02,-3.7591441e-02,-1.0600768e-02,6.0860455e-04,5.4177093e-03,-1.2229987e-03,1.2222155e-02,4.0646472e-01,-9.9515799e-02
8.0000162e-02,-2.0917035e-04,-6.1127083e-04,-2.6352083e-04,-7.0400480e-04,9.0631490e-03,-7.4854174e-04,4.4002180e-04,4.6403863e-03,-1.0754375e-03,-1.6858291e-02,-7.7732369e-02,1.4756136e-02
9.0000153e-02,5.5598530e-05,-3.9238110e-05,-1.6144022e-04,2.6474363e-02,5.7228625e-02,2.6424743e-02,-6.9007258e-05,8.8738446e-04,-5.2768391e-05,-5.0902954e-02,-3.7530054e-01,1.0226701e-01
1.0000014e-01,-8.3696463e-05,-3.1337666e-04,-2.2060581e-04,-1.3943933e-02,-2.7445967e-02,-1.3851684e-02,2.1209619e-04,2.5233941e-03,-6.1805128e-04,2.8110372e-02,1.6360112e-01,-5.6528342e-02
1.1000013e-01,7.1773644e-05,-2.7143076e-05,1.0692444e-05,1.5545992e-02,2.8620397e-02,1.5553560e-02,2.3613124e-05,-1.6857460e-04,1.0995179e-04,-1.8848325e-02,-2.6919713e-01,7.2800376e-02
1.2000012e-01,-7.4471790e-05,-3.2582184e-04,-2.5290391e-04,-1.4647139e-02,-2.9887384e-02,-1.4562028e-02,1.3809141e-04,1.4742001e-03,-1.2628488e-03,1.1447840e-02,1.6427763e-01,-1.3728019e-01
1.3000011e-01,-1.0462933e-04,-5.3748142e-04,-1.1311048e-04,-3.0294933e-03,-2.1173132e-02,-2.9510787e-03,5.7159984e-04,2.9776043e-03,-5.4347738e-04,4.3350884e-02,1.5034056e-01,7.1937214e-02
1.4000010e-01,-1.4039135e-04,-5.3394846e-04,-1.3355134e-04,-3.5781737e-03,3.4477568e-04,-3.5750681e-03,7.1868042e-04,3.1025748e-03,-6.2180758e-04,1.4708073e-02,1.2497063e-02,-7.8330270e-03
1.5000010e-01,-1.8722709e-04,-3.5126380e-04,1.2276500e-05,-4.6753924e-03,1.8263084e-02,-4.7127237e-03,5.3774023e-04,1.6850508e-03,-3.4988680e-04,-1.8094037e-02,-1.4175253e-01,2.7192104e-02
1.6000009e-01,1.5585538e-05,4.6742218e-05,2.7132557e-04,2.0275786e-02,3.9762587e-02,2.0361259e-02,1.9097240e-04,-1.6813613e-03,6.4555649e-04,-3.4676816e-02,-3.3664154e-01,9.9544424e-02
1.7000008e-01,-1.7734000e-04,-5.1321950e-04,-1.1708567e-04,-1.9341470e-02,-5.6043830e-02,-1.9104465e-02,6.6729486e-04,3.1517502e-03,-5.9815580e-04,4.7632292e-02,4.8331161e-01,-1.2437135e-01
1.8000007e-01,-1.9338816e-04,-3.7438015e-04,-3.5321909e-04,-1.6029381e-03,1.3880446e-02,-1.6366771e-03,3.4555201e-04,2.5049221e-03,-1.8201381e-03,-3.2174316e-02,-6.4682872e-02,-1.2219834e-01
1.9000006e-01,-2.1950109e-05,-4.1116297e-05,-1.5955605e-04,1.7149382e-02,3.3340358e-02,1.7111121e-02,1.0781557e-04,9.2195094e-04,-1.1482150e-04,-2.3773667e-02,-1.5829726e-01,1.7053182e-01
2.0000005e-01,-1.1056942e-04,-1.8134838e-04,-1.6246144e-04,-8.8672370e-03,-1.4035806e-02,-8.8366814e-03,2.2869267e-04,1.6513214e-03,-2.3598349e-04,1.2087722e-02,7.2937120e-02,-1.2116211e-02
2.1000004e-01,2.7777673e-05,7.4715008e-05,3.4119561e-05,1.3833608e-02,2.5601513e-02,1.3844810e-02,7.7328072e-05,-2.7314219e-04,2.2365586e-04,-1.5136474e-02,-1.9244655e-01,4.5963979e-02
2.2000003e-01,2.0048754e-04,3.1016592e-04,1.1955541e-04,1.7252205e-02,2.3512367e-02,1.7334289e-02,-1.6906323e-04,-2.0604785e-03,8.5759003e-04,-2.4639154e-02,-1.7873380e-01,6.3393477e-02
2.3000002e-01,-2.5394261e-04,-6.7487652e-04,-2.6462545e-04,-4.5548987e-02,-9.8695629e-02,-4.4918929e-02,5.8376871e-04,4.8240023e-03,-1.0663539e-03,7.5283266e-02,6.8844873e-01,-1.9239458e-01
2.4000001e-01,-2.6963038e-04,-9.7231619e-04,-3.9226517e-04,-1.5960904e-03,-2.9752446e-02,-1.3681556e-03,8.4399089e-04,6.6686388e-03,-1.4087219e-03,2.6022242e-02,1.8446383e-01,-3.4236825e-02
2.5000000e-01,-2.3899230e-04,-9.8781059e-04,-3.9811081e-04,3.0666198e-03,-1.5316399e-03,3.0699461e-03,8.4418967e-04,6.6520537e-03,-1.3448854e-03,1.9878640e-05,-1.6585149e-03,6.3836538e-03
2.6000023e-01,-2.6477848e-04,-9.9252787e-04,-4.5707388e-04,-2.5826431e-03,-4.8767673e-04,-2.5714940e-03,7.6508069e-04,6.9688219e-03,-1.4450586e-03,-7.9107170e-03,3.1676099e-02,-1.0017096e-02
2.7000022e-01,-2.7945080e-04,-9.8452015e-04,-4.1598713e-04,-1.4687994e-03,7.9141662e-04,-1.4707376e-03,6.5211054e-04,7.0255815e-03,-1.4249461e-03,-1.1297026e-02,5.6759594e-03,2.0112606e-03
2.8000021e-01,-1.4506652e-04,-4.6460026e-04,-8.7366123e-05,1.3471464e-02,5.2017547e-02,1.3306009e-02,5.8159506e-04,2.4929776e-03,-2.0745007e-04,-7.0515548e-03,-4.5326082e-01,1.2174971e-01
2.9000020e-01,1.4614053e-04,1.5406623e-04,9.6591348e-06,2.9109017e-02,6.1812929e-02,2.9246379e-02,-1.5017006e-05,-1.8574294e-03,3.7034932e-04,-5.9661264e-02,-4.3504111e-01,5.7779995e-02
3.0000019e-01,-1.8579567e-05,-1.2256086e-04,-1.3977361e-04,-1.6478613e-02,-2.7682653e-02,-1.6431925e-02,1.6998530e-04,1.3809699e-03,-1.1450530e-04,1.8500248e-02,3.2384023e-01,-4.8485508e-02
3.1000018e-01,-4.8050915e-05,1.1528941e-05,-5.2239889e-06,-2.9454775e-03,1.3410174e-02,-2.9434203e-03,8.3906002e-05,-3.1708378e-04,1.8151387e-04,-8.6079380e-03,-1.6980553e-01,2.9601945e-02
3.2000017e-01,-1.0443999e-04,6.7267177e-05,-4.0882009e-05,-5.6356275e-03,5.5786602e-03,-5.6374191e-03,7.6906181e-05,-7.7976566e-04,5.0643565e-04,-6.9998279e-04,-4.6268232e-02,3.2492209e-02
3.3000016e-01,9.6715301e-05,3.4727453e-04,7.3798851e-05,2.0093813e-02,2.7956708e-02,2.0198376e-02,-1.6617034e-04,-2.3503531e-03,8.4884689e-04,-2.4307675e-02,-1.5705890e-01,3.4241156e-02
3.4000015e-01,-2.3956252e-04,-1.6075416e-04,-1.4741884e-04,-3.3675160e-02,-5.0855154e-02,-3.3501241e-02,3.5172098e-05,1.5926173e-03,-1.3557082e-03,2.0134263e-02,3.9429742e-01,-2.2045572e-01
3.5000014e-01,-3.2558521e-04,-7.3942796e-04,-3.1353683e-04,-8.6599819e-03,-5.7910144e-02,-8.2497520e-03,7.6599910e-04,5.8573303e-03,-1.5566650e-03,7.3082770e-02,4.2647171e-01,-2.0095698e-02
3.6000013e-01,-1.4214922e-04,-3.1185757e-04,1.0591570e-05,1.8362167e-02,4.2769623e-02,1.8295756e-02,3.5062528e-04,1.0359703e-03,-1.9407262e-04,-4.1537421e-02,-4.8213646e-01,1.3625936e-01
3.7000012e-01,-4.9626303e-05,-2.5729551e-04,3.8656849e-05,9.2532556e-03,5.4566074e-03,9.2511110e-03,4.0390151e-04,4.4683122e-04,1.3485137e-04,5.3276274e-03,-5.8913960e-02,3.2892431e-02
3.8000011e-01,-1.4827530e-04,-7.7739645e-04,-3.9482439e-04,-9.9077271e-03,-5.2053706e-02,-9.5883523e-03,6.7100621e-04,5.1625513e-03,-8.0329498e-04,2.6710496e-02,4.7157245e-01,-9.3814725e-02
3.9000010e-01,-2.0064967e-04,-6.9228047e-04,-2.7667140e-04,-5.2373029e-03,8.4898993e-03,-5.2726947e-03,6.1507829e-04,4.7456676e-03,-9.7366096e-04,-5.5927974e-03,-4.1688404e-02,-1.7036614e-02
4.0000010e-01,6.4946243e-06,-1.1333437e-04,-1.8037707e-04,2.0716029e-02,5.7920445e-02,2.0640671e-02,1.1393560e-05,1.2581751e-03,-4.4441396e-05,-6.0368530e-02,-3.4874958e-01,9.2922045e-02
4.1000009e-01,1.2347425e-04,1.1778094e-04,5.5911613e-05,1.1686201e-02,2.3101875e-02,1.1728815e-02,-2.8499960e-04,-1.1104623e-03,4.4318620e-04,-2.9639344e-02,-2.3686397e-01,4.8762806e-02
4.2000008e-01,9.1650964e-05,5.7111506e-06,2.4975548e-05,-3.1795803e-03,-1.1206074e-02,-3.1882997e-03,-1.7761345e-04,-4.6478295e-04,2.3891156e-04,1.0738625e-02,6.4568000e-02,-2.0427484e-02
4.3000007e-01,5.0513006e-05,-9.8711940e-05,-2.3386374e-04,-4.1168137e-03,-1.0444143e-02,-4.1061482e-03,1.3207303e-04,5.7602107e-04,-3.9750406e-04,3.0968678e-02,1.0408050e-01,-6.3641623e-02
4.4000006e-01,-1.3928833e-04,-6.0540208e-04,-1.0032025e-04,-1.9035473e-02,-5.0723415e-02,-1.8778501e-02,8.0656861e-04,3.6921072e-03,-7.6213899e-04,6.7449622e-02,3.1160891e-01,-3.6463527e-02
4.5000005e-01,-1.6835004e-04,-5.9302664e-04,-9.8366020e-05,-2.9073527e-03,1.2294972e-03,-2.9084095e-03,8.4287357e-04,3.6120620e-03,-7.6528868e-04,3.6304995e-03,-8.0045255e-03,-3.1496940e-04
4.6000004e-01,-8.3978809e-05,-2.1099936e-04,1.6106125e-04,8.4531974e-03,3.8200181e-02,8.4327446e-03,4.0896255e-04,1.0317623e-04,-5.2616068e-05,-4.3391144e-02,-3.5088891e-01,7.1267329e-02
4.7000003e-01,-9.5820156e-05,-2.1180132e-04,1.3507641e-04,-1.1842045e-03,-7.9656844e-05,-1.1841037e-03,4.9179319e-04,3.6396942e-05,-2.4755768e-05,8.2830723e-03,-6.6779353e-03,2.7860326e-03
4.8000002e-01,-8.7441067e-05,-1.6746031e-04,1.5649687e-04,8.4017315e-04,4.4332816e-03,8.3999977e-04,5.4227355e-04,-4.3952841e-04,1.6824809e-04,5.0480409e-03,-4.7592580e-02,1.9300404e-02
4.9000001e-01,-1.0189387e-05,-2.8361491e-04,4.4909334e-05,7.7124560e-03,-1.1613238e-02,7.7412250e-03,7.5527422e-04,1.0425803e-03,5.1043725e-04,2.1300087e-02,1.4821101e-01,3.4218949e-02
5.0000000e-01,1.5754200e-04,2.5946685e-04,7.1586268e-05,1.6744893e-02,5.4278893e-02,1.6895896e-02,-2.9342206e-04,-2.0339910e-03,7.3453549e-04,-1.0486973e-01,-3.0765742e-01,2.2409845e-02
5.1000023e-01,4.2799340e-05,9.6136345e-06,-1.3111439e-05,-1.1474681e-02,-2.4980396e-02,-1.1482799e-02,1.1772071e-04,-2.6150309e-04,1.9719247e-04,4.1113337e-02,1.7724474e-01,-5.3733072e-02
5.2000022e-01,-7.8404450e-05,-2.1728367e-04,-2.0295339e-04,-1.2129113e-02,-2.2709229e-02,-1.2075103e-02,2.3438032e-04,1.8451218e-03,-2.8093843e-04,1.1665972e-02,2.1066269e-01,-4.7813135e-02
5.3000021e-01,4.7229883e-05,-6.6877976e-05,-1.3066968e-04,1.2562688e-02,1.5053675e-02,1.2548515e-02,-3.5708041e-05,1.0068937e-03,1.7543817e-05,-2.7008862e-02,-8.3822883e-02,2.9848253e-02
5.4000020e-01,-3.6429599e-05,-2.9724256e-04,-2.8193825e-04,-8.3795912e-03,-2.3051427e-02,-8.3109579e-03,2.8074155e-04,2.0752019e-03,-8.5718416e-04,3.1644990e-02,1.0683092e-01,-8.7472881e-02
5.5000019e-01,-2.2913299e-04,-9.3445484e-04,-3.7562522e-04,-1.9356789e-02,-6.3837442e-02,-1.8793396e-02,8.7864121e-04,6.9996375e-03,-1.5814105e-03,5.9790022e-02,4.9244403e-01,-7.2422708e-02
5.6000018e-01,-2.1113487e-04,-5.0226695e-04,-1.4952003e-04,1.8160318e-03,4.3223385e-02,1.6694194e-03,3.4259885e-04,2.9839894e-03,-7.8445465e-04,-5.3604287e-02,-4.0156519e-01,7.9695666e-02
5.7000017e-01,-2.3682679e-04,-5.2686078e-04,-1.4417064e-04,-2.5719398e-03,-2.4664782e-03,-2.5596286e-03,3.1078391e-04,3.0787213e-03,-7.7164972e-04,-3.1814961e-03,9.4731998e-03,1.2804945e-03
5.8000016e-01,-1.4962471e-04,-3.9999918e-04,2.5483187e-05,8.7288882e-03,1.2695411e-02,8.6980650e-03,4.8911389e-04,1.5509550e-03,-2.8313645e-04,1.7833014e-02,-1.5277677e-01,4.8851373e-02
5.9000015e-01,-1.3218290e-04,-5.9894468e-04,-1.1493156e-04,1.7254120e-03,-1.9890343e-02,1.8098135e-03,9.9183769e-04,3.3469842e-03,-5.5184542e-04,5.0272428e-02,1.7960309e-01,-2.6870922e-02
6.0000014e-01,1.6064871e-04,1.7406063e-05,-1.7320310e-05,2.9284340e-02,6.1601027e-02,2.9353719e-02,7.5080889e-05,-1.0882142e-03,1.1874134e-04,-9.1675767e-02,-4.4352026e-01,6.7058740e-02
6.1000013e-01,8.1584716e-05,-3.8359502e-05,7.6488147e-05,-7.9046760e-03,-5.5750590e-03,-7.9091975e-03,5.7018032e-05,-1.3301795e-04,2.5914072e-04,-1.8062875e-03,9.5519717e-02,1.4039952e-02
6.2000012e-01,7.9080593e-05,5.2126079e-05,3.8796320e-05,-2.4884413e-04,9.0488191e-03,-2.4273740e-04,1.5764848e-04,-8.6379032e-04,5.6662082e-04,1.0063054e-02,-7.3077307e-02,3.0748039e-02
6.3000011e-01,3.5891570e-05,3.8591858e-06,-1.5110069e-05,-4.3191442e-03,-4.8221935e-03,-4.3236931e-03,4.1793322e-04,-6.2351294e-04,4.1183799e-04,2.6028500e-02,2.4027761e-02,-1.5478298e-02
6.4000010e-01,1.6586892e-05,-4.1936985e-05,-2.2622704e-05,-1.9314692e-03,-4.5791024e-03,-1.9307012e-03,2.1814140e-04,-5.0666570e-05,-2.9480851e-07,-1.9979202e-02,5.7284692e-02,-4.1213319e-02
6.5000010e-01,-2.0614054e-04,-6.0060695e-04,-1.4235370e-04,-2.2337471e-02,-5.5923057e-02,-2.2066454e-02,8.1280770e-04,3.3451791e-03,-8.6714315e-04,5.9466687e-02,3.3958489e-01,-8.6684917e-02
6.6000009e-01,-1.9075807e-04,-5.6269514e-04,-1.1649650e-04,1.5431529e-03,3.7945012e-03,1.5251046e-03,1.0140292e-03,3.1856888e-03,-6.8966194e-04,2.0122170e-02,-1.5949046e-02,1.7748137e-02
6.7000008e-01,-1.9137470e-04,-3.9927077e-04,2.1524257e-05,-4.7965277e-05,1.6342384e-02,-8.6755549e-05,8.3948518e-04,1.5364331e-03,-3.4729567e-04,-1.7454419e-02,-1.6492573e-01,3.4236660e-02
6.8000007e-01,-2.6993213e-04,-8.5617483e-04,-3.1783246e-04,-7.9165308e-03,-4.5727656e-02,-7.5731652e-03,1.0623359e-03,5.9128217e-03,-1.5600184e-03,2.2285091e-02,4.3763928e-01,-1.2127239e-01
6.9000006e-01,-2.1103572e-04,-9.2779726e-04,-4.3048594e-04,5.8907029e-03,-7.1316112e-03,5.9256598e-03,1.0603342e-03,6.2472631e-03,-1.4704111e-03,-2.0016297e-04,3.3444169e-02,8.9607378e-03
7.0000005e-01,4.4761276e-05,-1.7680790e-04,-1.5970098e-04,2.5630040e-02,7.5090563e-02,2.5554138e-02,4.8016358e-04,1.5047985e-04,-5.5756897e-04,-5.8017122e-02,-6.0967891e-01,9.1284302e-02
7.1000004e-01,1.2901219e-04,-7.9539994e-06,5.5664170e-05,8.4242548e-03,1.6876102e-02,8.4445618e-03,2.0704390e-04,-8.9594265e-04,5.1498576e-04,-2.7311993e-02,-1.0464235e-01,1.0725558e-01
7.2000003e-01,5.1673060e-06,-1.9150266e-04,-1.3164340e-04,-1.2390135e-02,-1.8364665e-02,-1.2364346e-02,3.0096752e-04,1.0917133e-03,-9.0416578e-06,9.3923709e-03,1.9876579e-01,-5.2402792e-02
7.3000002e-01,1.0922648e-05,-1.8109041e-04,-1.4346746e-04,5.7579971e-04,1.0417098e-03,5.7439303e-04,2.2521819e-04,1.0669793e-03,-5.3009599e-05,-7.5749410e-03,-2.4734047e-03,-4.3967983e-03
7.4000001e-01,-7.9311061e-05,-3.5954943e-04,-2.1841717e-04,-9.0349692e-03,-1.7863959e-02,-8.9759622e-03,3.4595472e-04,2.3521588e-03,-6.0044199e-04,1.2073665e-02,1.2851807e-01,-5.4743292e-02
7.5000000e-01,-1.7505806e-04,-6.5473440e-04,-1.1579876e-04,-9.6099876e-03,-2.9541534e-02,-9.4678064e-03,9.7051186e-04,3.3951416e-03,-6.9322964e-04,6.2455773e-02,1.0429838e-01,-9.2787734e-03
7.6000023e-01,-3.7887750e-05,-2.2904527e-04,2.0351197e-04,1.3735016e-02,4.2552644e-02,1.3745831e-02,5.1816341e-04,-5.9574234e-04,2.7381421e-04,-4.5233809e-02,-3.9907926e-01,9.6702172e-02
7.7000022e-01,-1.4787106e-04,-4.4833021e-04,4.0383051e-05,-1.1015489e-02,-2.1938552e-02,-1.0961101e-02,6.3641182e-04,1.5522284e-03,-2.9048814e-04,1.1824853e-02,2.1479728e-01,-5.6430289e-02
7.8000021e-01,-1.5395705e-04,-5.0547744e-04,1.6106980e-05,-6.1393665e-04,-5.7154084e-03,-5.9673116e-04,8.8300878e-04,2.0255176e-03,-4.7792502e-04,2.4659719e-02,4.7328957e-02,-1.8743706e-02
7.9000020e-01,-1.9107694e-04,-6.9974755e-04,-1.2937482e-04,-3.7382905e-03,-1.9436710e-02,-3.6341087e-03,1.1806693e-03,3.8341916e-03,-9.0645356e-04,2.9766083e-02,1.8086758e-01,-4.2852895e-02
8.0000019e-01,2.6879611e-05,-2.9903488e-04,7.1777122e-05,2.1819655e-02,4.0057738e-02,2.1796621e-02,9.6730088e-04,3.4559728e-04,6.7750081e-04,-2.1336864e-02,-3.4885977e-01,1.5839559e-01
8.1000018e-01,1.3445698e-04,1.8306541e-04,7.3293876e-05,1.0762954e-02,4.8184457e-02,1.0866758e-02,2.9287606e-04,-2.0768466e-03,8.2807226e-04,-6.7442546e-02,-2.4224461e-01,1.5057160e-02
8.2000017e-01,-1.6021062e-05,-4.1703812e-05,-9.1374743e-06,-1.5057070e-02,-2.2466126e-02,-1.5054716e-02,5.2813871e-04,-1.9045194e-04,1.7389539e-04,2.3526287e-02,1.8863964e-01,-6.5417750e-02
8.3000016e-01,-1.5361414e-04,-3.4620014e-04,-2.0685946e-04,-1.3785605e-02,-3.0474873e-02,-1.3676948e-02,6.0221127e-04,2.4429517e-03,-5.7794462e-04,7.4072635e-03,2.6334061e-01,-7.5184072e-02
8.4000015e-01,-5.8904054e-05,-1.9111394e-04,-8.0318727e-05,9.4803356e-03,1.5510209e-02,9.4591091e-03,5.1641827e-04,6.8336292e-04,-1.3835510e-04,-8.5793082e-03,-1.7595904e-01,4.3958993e-02
8.5000014e-01,1.4478639e-04,6.3504725e-05,-3.1187003e-05,2.0367236e-02,2.5423140e-02,2.0419232e-02,1.1924638e-04,-1.7807556e-03,2.3877017e-04,-3.9717227e-02,-2.4641209e-01,3.7712563e-02
8.6000013e-01,-7.2698443e-05,-6.0374650e-04,-9.4070889e-05,-2.1823686e-02,-6.6760318e-02,-2.1564601e-02,9.7211080e-04,2.6005468e-03,-4.7497843e-04,8.5286524e-02,4.3813066e-01,-7.1374928e-02
8.7000012e-01,-2.2602026e-04,-8.3135660e-04,-2.9132366e-04,-1.5374298e-02,-2.2829235e-02,-1.5187958e-02,9.7943866e-04,5.4577255e-03,-1.2932347e-03,7.3278635e-04,2.8571814e-01,-8.1825703e-02
8.8000011e-01,-2.5173711e-04,-1.0229855e-03,-4.5173338e-04,-2.5959230e-03,-1.9177435e-02,-2.4354740e-03,1.0552586e-03,6.8944789e-03,-1.5626870e-03,7.5819991e-03,1.4367548e-01,-2.6945256e-02
8.9000010e-01,-2.2402437e-04,-1.0299022e-03,-4.2637797e-04,2.7744476e-03,-6.7623090e-04,2.7719141e-03,1.1374497e-03,6.7126683e-03,-1.4298332e-03,8.2191187e-03,-1.8181075e-02,1.3285387e-02
9.0000010e-01,-1.2178968e-04,-6.1487693e-04,-1.3023774e-04,1.0268115e-02,4.1521322e-02,1.0101887e-02,9.4304112e-04,2.7962792e-03,-5.3833901e-04,-1.9440876e-02,-3.9163929e-01,8.9149508e-02
9.1000009e-01,-2.6111208e-04,-1.1001297e-03,-3.7974279e-04,-1.4010115e-02,-4.8608616e-02,-1.3558820e-02,1.1538330e-03,7.2371640e-03,-1.5717506e-03,2.1079210e-02,4.4408890e-01,-1.0334126e-01
9.2000008e-01,6.5290579e-05,-1.8387774e-04,4.1873844e-05,3.2673279e-02,9.1623587e-02,3.2612050e-02,3.7825460e-04,3.2659985e-04,5.1280146e-05,-7.7557915e-02,-6.9105707e-01,1.6230323e-01
9.3000007e-01,7.6279854e-05,-4.4784689e-05,4.3510900e-05,1.1048569e-03,1.3908196e-02,1.1071590e-03,4.6150212e-04,-5.5630243e-04,4.4632690e-04,8.3247601e-03,-8.8290312e-02,3.9504713e-02
9.4000006e-01,1.3345181e-05,-3.1629499e-05,9.9803622e-07,-6.2902891e-03,1.3220191e-03,-6.2952944e-03,5.0677495e-04,-5.2570311e-04,3.9979615e-04,4.5272872e-03,3.0599353e-03,-4.6530795e-03
9.5000005e-01,-6.3686732e-05,-9.6808107e-05,-7.3776410e-05,-7.7052841e-03,-6.5125314e-03,-7.7056254e-03,4.5644676e-04,-2.3607266e-04,1.1537790e-04,-5.0328238e-03,2.8963072e-02,-2.8441852e-02
9.6000004e-01,-2.1391938e-04,-3.3585985e-04,-2.3206443e-04,-1.5050445e-02,-2.3928455e-02,-1.4958924e-02,4.0017899e-04,1.9537818e-03,-1.1722479e-03,-5.6267821e-03,2.1898565e-01,-1.2876270e-01
9.7000003e-01,-1.6584110e-04,-6.1180194e-04,-1.1886732e-04,4.7801775e-03,-2.7583855e-02,4.8941986e-03,1.1186755e-03,3.2460663e-03,-6.6934708e-04,7.1849723e-02,1.2922857e-01,5.0290132e-02
9.8000002e-01,-9.0378309e-05,-3.0072622e-04,1.5896913e-04,7.5741904e-03,3.1100270e-02,7.5485482e-03,8.9584849e-04,-7.4006231e-05,-5.2400242e-06,-2.2282727e-02,-3.3200757e-01,6.6410769e-02
9.9000001e-01,-1.8499649e-04,-4.7335788e-04,-1.1357320e-06,-9.4801917e-03,-1.7273440e-02,-9.4246507e-03,7.9799101e-04,1.8868708e-03,-4.8539617e-04,-9.7857570e-03,1.9608789e-01,-4.8015660e-02
1.0000000e+00,-1.9258308e-04,-6.6873934e-04,-1.5848983e-04,-7.7822336e-04,-1.9540044e-02,-6.8703909e-04,9.7022960e-04,3.6336226e-03,-8.0173317e-04,1.7223875e-02,1.7467535e-01,-3.1633730e-02
1.0100002e+00,2.3511385e-05,-3.2533415e-04,4.2103819e-05,2.1628454e-02,3.4340351e-02,2.1588448e-02,8.7346659e-04,9.0289229e-04,4.8502531e-04,-9.6760787e-03,-2.7306678e-01,1.2867290e-01
1.0200002e+00,1.4678355e-05,-2.5887243e-04,-1.5548579e-04,-8.8071599e-04,6.6452875e-03,-8.9254134e-04,4.0912717e-04,1.4096583e-03,-1.4872021e-04,-4.6433987e-02,5.0676649e-02,-6.3374612e-02
1.0300002e+00,-4.6267535e-05,-3.1962038e-04,-1.9424581e-04,-6.1000139e-03,-6.0819493e-03,-6.0820313e-03,5.7418073e-04,1.7493006e-03,-3.1705508e-04,1.6505372e-02,3.3964266e-02,-1.6833503e-02
1.0400002e+00,-6.0308773e-05,-2.7788404e-04,-1.7021562e-04,-1.4025834e-03,4.1718999e-03,-1.4108168e-03,4.6927104e-04,1.7033274e-03,-2.9697773e-04,-1.0490979e-02,-4.5973248e-03,2.0077372e-03
1.0500002e+00,2.3387242e-05,-1.0724877e-04,4.8580364e-05,8.3721011e-03,1.7061779e-02,8.3707151e-03,2.4091266e-04,3.0113284e-05,1.9340839e-04,-2.2835860e-02,-1.6732157e-01,4.9038659e-02
1.0600002e+00,-1.6952389e-04,-6.1093613e-04,-1.0806714e-04,-1.9347072e-02,-5.0402152e-02,-1.9147422e-02,8.9906852e-04,2.6403942e-03,-5.5293000e-04,6.5815649e-02,2.6102834e-01,-7.4633911e-02
1.0700002e+00,-2.6875774e-04,-1.1417309e-03,-4.2141268e-04,-1.0008102e-02,-5.3141579e-02,-9.4970609e-03,1.2697551e-03,7.6993247e-03,-1.7466080e-03,3.7068690e-02,5.0589353e-01,-1.1936792e-01
1.0800002e+00,-1.9424351e-04,-6.6871002e-04,-1.0294374e-04,7.4986623e-03,4.7320770e-02,7.2838250e-03,8.8496577e-04,3.4285197e-03,-7.2148427e-04,-3.8478966e-02,-4.2708091e-01,1.0251247e-01
1.0900002e+00,-2.6055265e-05,-2.5174300e-04,2.1270799e-04,1.6847679e-02,4.1673266e-02,1.6848136e-02,8.4897528e-04,-5.4537183e-04,3.8963341e-04,-3.5990526e-03,-3.9738953e-01,1.1111187e-01
1.1000001e+00,-1.1152643e-04,-3.6523609e-04,5.1778167e-05,-8.5535734e-03,-1.1349322e-02,-8.5406679e-03,6.8789922e-04,6.8866365e-04,1.5866386e-04,-1.6107621e-02,1.2340366e-01,-2.3096977e-02
1.1100001e+00,-1.9408050e-04,-6.5021959e-04,-1.3969287e-04,-8.2897365e-03,-2.8518516e-02,-8.1508165e-03,9.8581775e-04,3.4500589e-03,-7.5506522e-04,2.9791881e-02,2.7613979e-01,-9.1372995e-02
1.1200001e+00,1.3168649e-05,-1.2957312e-04,-8.1837733e-05,2.0746815e-02,5.2057599e-02,2.0720873e-02,4.5682777e-04,1.1461291e-04,9.1780101e-05,-5.2899048e-02,-3.3354492e-01,8.4684613e-02
1.1300001e+00,3.5643327e-05,5.9419308e-06,3.0685460e-05,2.2533071e-03,1.3548491e-02,2.2598443e-03,5.1603169e-04,-8.2777230e-04,5.1400111e-04,5.9203972e-03,-9.4238610e-02,4.2222142e-02
1.1400001e+00,1.3219930e-05,6.4016455e-06,5.6338765e-05,-2.2410646e-03,4.8842753e-05,-2.2435577e-03,4.8760427e-04,-7.9242353e-04,5.5931668e-04,-2.8427446e-03,3.5348796e-03,4.5315606e-03
1.1500001e+00,3.3706693e-05,2.3687004e-05,7.1183551e-06,2.0486694e-03,1.7263874e-03,2.0504993e-03,3.8093619e-04,-6.6809353e-04,3.2560590e-04,-1.0666818e-02,1.2433012e-02,-2.3371100e-02
1.1600001e+00,-1.4751740e-04,-4.5718261e-04,-2.3945445e-04,-1.8169269e-02,-4.8130762e-02,-1.7958627e-02,6.2695135e-04,3.0571204e-03,-9.2183574e-04,2.4601540e-02,3.7252175e-01,-1.2474428e-01
1.1700001e+00,-2.1844430e-04,-7.5818916e-04,-2.7910889e-04,-7.1348827e-03,-3.0124521e-02,-6.9477007e-03,1.1497695e-03,4.5624884e-03,-1.0694700e-03,5.2281868e-02,1.5053694e-01,-1.4763436e-02
1.1800001e+00,-2.4591867e-04,-1.0641516e-03,-4.0226014e-04,-2.7924375e-03,-3.0611765e-02,-2.5201024e-03,1.3209019e-03,7.2764714e-03,-1.6703527e-03,1.7113251e-02,2.7139856e-01,-6.0088334e-02
1.1900001e+00,-2.1545821e-04,-6.7623964e-04,-1.1779479e-04,3.0775159e-03,3.8800004e-02,2.8991767e-03,7.4268463e-04,3.7166896e-03,-8.7293097e-04,-5.7821780e-02,-3.5597852e-01,7.9742251e-02
1.2000000e+00,-2.1603131e-04,-1.0462485e-03,-4.2333129e-04,-9.7865690e-05,-3.7000340e-02,2.0057157e-04,1.0938528e-03,6.9658663e-03,-1.4286421e-03,3.5116854e-02,3.2491797e-01,-5.5571169e-02
1.2100000e+00,-2.4992527e-04,-1.0964354e-03,-5.4962304e-04,-3.3991015e-03,-5.0395944e-03,-3.3484162e-03,1.0432730e-03,7.2602426e-03,-1.3194514e-03,-5.0579836e-03,2.9437657e-02,1.0919088e-02
1.2200000e+00,-3.9378017e-05,-5.9952157e-04,-4.1730066e-04,2.1107956e-02,4.9741755e-02,2.0881922e-02,6.8018652e-04,3.0850579e-03,-9.2263164e-04,-3.6308687e-02,-4.1751886e-01,3.9682009e-02
1.2300000e+00,9.6515749e-05,-1.1187087e-04,-1.4160674e-05,1.3603252e-02,4.8754061e-02,1.3615159e-02,3.7409099e-04,-4.3862128e-04,3.2218262e-04,-3.0609583e-02,-3.5236826e-01,1.2448154e-01
1.2400000e+00,7.5226109e-05,-5.0327259e-05,5.6294501e-05,-2.1263905e-03,6.1563930e-03,-2.1256807e-03,2.7230002e-04,-6.7968381e-04,4.2250167e-04,-1.0179107e-02,-2.4106276e-02,1.0031915e-02
1.2500000e+00,-3.3739053e-05,-1.4564780e-04,-1.3151199e-05,-1.0900728e-02,-9.5311984e-03,-1.0893081e-02,4.7281859e-04,3.9359251e-04,2.7961610e-05,2.0051876e-02,1.0732773e-01,-3.9454044e-02
1.2600002e+00,1.5393477e-07,-6.4684976e-05,2.3861009e-05,3.3920729e-03,8.0942204e-03,3.3908509e-03,4.6125555e-04,-9.2230913e-05,2.6029878e-04,-1.1562774e-03,-4.8581230e-02,2.3233185e-02
1.2700002e+00,-2.0556325e-04,-6.0454365e-04,-9.1651163e-05,-2.0651417e-02,-5.4025721e-02,-2.0386582e-02,1.2310108e-03,3.1831599e-03,-6.4364688e-04,7.6975597e-02,3.2753939e-01,-9.0394652e-02
1.2800002e+00,-1.0726101e-05,6.6134651e-05,3.7054326e-04,1.9506792e-02,6.7002649e-02,1.9684113e-02,5.2123389e-04,-2.8116796e-03,6.1045707e-04,-7.0977757e-02,-5.9948452e-01,1.2541051e-01
1.2900002e+00,-5.5216361e-05,-1.9978715e-04,1.9946314e-04,-4.4707453e-03,-2.6585692e-02,-4.4661552e-03,8.2290921e-04,-6.3781702e-04,3.7408331e-05,3.0167561e-02,2.1738646e-01,-5.7304928e-02
1.3000002e+00,-1.1942684e-05,-1.1459779e-04,2.4246786e-04,4.3322025e-03,8.5111289e-03,4.3379031e-03,6.8205031e-04,-1.1219255e-03,2.2613211e-04,-1.4085904e-02,-4.8410897e-02,1.8872396e-02
1.3100002e+00,-1.8042086e-04,-6.5005932e-04,-1.6753442e-04,-1.6920311e-02,-5.3589904e-02,-1.6634909e-02,1.0423178e-03,3.6628263e-03,-9.9020637e-04,3.6026784e-02,4.7847564e-01,-1.2163396e-01
1.3200002e+00,3.2024928e-05,-2.1061116e-04,-1.5161859e-04,2.1265054e-02,4.3959897e-02,2.1192959e-02,4.4278722e-04,1.1522951e-03,-4.6989908e-05,-5.9953115e-02,-2.5105336e-01,9.4321736e-02
1.3300002e+00,-4.9194758e-05,-3.2166341e-04,-1.7970527e-04,-8.1298629e-03,-1.1114360e-02,-8.1015795e-03,5.7201468e-04,1.6979453e-03,-1.8907135e-04,1.2922757e-02,5.4565070e-02,-1.4208158e-02
1.3400002e+00,-6.1264635e-05,-3.1428388e-04,-1.9771811e-04,-1.2069130e-03,7.3622821e-04,-1.2081178e-03,4.2339446e-04,1.8521217e-03,-1.9610260e-04,-1.4862036e-02,1.5417658e-02,-7.0312562e-04
1.3500001e+00,-1.7497275e-05,-3.1236874e-04,-1.5217703e-04,4.3779303e-03,1.9740237e-04,4.3752880e-03,2.7436346e-04,1.6201128e-03,-2.5998480e-04,-1.4903114e-02,-2.3200919e-02,-6.3882261e-03
1.3600001e+00,1.4625979e-06,-1.8897604e-04,-2.0769141e-04,1.9009435e-03,1.2340453e-02,1.8833646e-03,3.7106694e-04,9.9255927e-04,-1.9823095e-04,9.6703573e-03,-6.2755409e-02,6.1753906e-03
1.3700001e+00,-2.3154719e-04,-9.9173094e-04,-3.7852119e-04,-2.3430687e-02,-8.0391441e-02,-2.2765304e-02,1.2235195e-03,6.2754073e-03,-1.3521085e-03,8.5245340e-02,5.2828531e-01,-1.1538786e-01
1.3800001e+00,-2.2622154e-04,-1.0525323e-03,-3.8622562e-04,5.2582144e-04,-6.0769789e-03,5.7379963e-04,1.2365690e-03,6.9088025e-03,-1.4549055e-03,1.3049527e-03,6.3339578e-02,-1.0279713e-02
1.3900001e+00,-1.4850561e-04,-5.0599481e-04,5.2246703e-05,7.8177094e-03,5.4660895e-02,7.6748744e-03,7.9244505e-04,1.7182115e-03,-3.6054634e-04,-4.4412442e-02,-5.1905959e-01,1.0943602e-01
1.4000001e+00,-1.5850933e-04,-4.7263586e-04,4.6085256e-05,-9.9795122e-04,3.3351996e-03,-1.0051092e-03,8.1945074e-04,1.5128427e-03,-3.1165798e-04,2.7005717e-03,-2.0536906e-02,4.8888408e-03
1.4100001e+00,-2.6451333e-04,-1.0884594e-03,-3.8064720e-04,-1.0707941e-02,-6.1641752e-02,-1.0137323e-02,1.4792924e-03,7.2474271e-03,-1.5525704e-03,6.5984226e-02,5.7345899e-01,-1.2409136e-01
1.4200001e+00,-2.6091270e-04,-1.0190547e-03,-3.7739824e-04,3.6950259e-04,6.9422347e-03,3.1357922e-04,1.2858714e-03,6.6205397e-03,-1.4333528e-03,-1.9342113e-02,-6.2688802e-02,1.1921778e-02
1.4300001e+00,7.4117189e-05,3.3643266e-05,4.1527818e-05,3.3507585e-02,1.0521929e-01,3.3657067e-02,2.5367995e-04,-1.2533521e-03,6.6061046e-04,-1.0321925e-01,-7.8738993e-01,2.0939652e-01
1.4400001e+00,7.6798158e-06,-2.1259913e-05,-9.7432757e-06,-6.6427195e-03,-5.4818514e-03,-6.6517583e-03,4.3353720e-04,-8.4079460e-04,5.1219309e-04,1.7985742e-02,4.1255785e-02,-1.4841752e-02
1.4500000e+00,5.2404351e-05,-7.2564782e-06,2.5423157e-05,4.4713154e-03,1.3949741e-03,4.4752776e-03,4.5110052e-04,-7.4932339e-04,3.9650690e-04,1.7563339e-03,9.1471299e-03,-1.1568630e-02
1.4600000e+00,1.6057890e-05,-1.3939191e-04,-1.0571175e-04,-3.6411238e-03,-1.3215601e-02,-3.6207061e-03,4.7140637e-04,1.0365951e-03,-6.7601479e-05,2.0305869e-03,1.7859202e-01,-4.6410882e-02
1.4700000e+00,-2.9938233e-05,-4.0212070e-04,-3.3710165e-04,-4.6194993e-03,-2.6283358e-02,-4.5192650e-03,6.3625266e-04,2.9368508e-03,-6.8884808e-04,1.6484645e-02,1.9002576e-01,-6.2124719e-02
1.4800000e+00,-1.3290699e-04,-6.0318565e-04,-1.3730474e-04,-1.0323280e-02,-2.0124704e-02,-1.0234737e-02,9.9526701e-04,2.7719107e-03,-6.2054213e-04,3.5901469e-02,-1.6494029e-02,6.8306020e-03
1.4900000e+00,-1.4427356e-04,-4.5889658e-04,-3.4658416e-05,-1.1261437e-03,1.4428389e-02,-1.1537538e-03,7.6348448e-04,1.2193990e-03,-4.4260969e-04,-2.3178275e-02,-1.5525131e-01,1.7793260e-02
1.5000000e+00,-2.5630696e-04,-1.0747557e-03,-4.4858389e-04,-1.1299891e-02,-6.1649189e-02,-1.0749504e-02,1.2558462e-03,7.0519518e-03,-1.7157602e-03,4.9236224e-02,5.8325583e-01,-1.2731517e-01
1.5100002e+00,-2.4616553e-04,-6.6281815e-04,-1.0492562e-04,1.0532956e-03,4.1195193e-02,8.6674043e-04,9.2836165e-04,3.5541912e-03,-9.2136654e-04,-3.2747710e-02,-3.4976806e-01,7.9437543e-02
1.5200002e+00,-1.7944483e-04,-9.4566342e-04,-3.7170384e-04,6.6464382e-03,-2.8251351e-02,6.8363150e-03,1.1900669e-03,6.0921121e-03,-1.2039088e-03,2.6170548e-02,2.5379234e-01,-2.8254256e-02
1.5300002e+00,-8.3671143e-05,-6.3447708e-04,-3.3628934e-04,9.6054031e-03,3.1149591e-02,9.4478976e-03,6.5130966e-04,3.9092479e-03,-8.1046377e-04,-5.3875774e-02,-2.1828664e-01,3.9344543e-02
1.5400002e+00,-6.1882945e-05,-5.1764565e-04,-3.5037786e-04,2.1876604e-03,1.1688798e-02,2.1393352e-03,6.4813881e-04,3.2703365e-03,-5.8155272e-04,-3.1708455e-04,-6.3891200e-02,2.2891127e-02
1.5500002e+00,1.2121238e-04,-2.6052182e-05,6.6272529e-05,1.8307825e-02,4.9136637e-02,1.8372254e-02,1.8053855e-04,-1.0601914e-03,5.7878928e-04,-4.6760071e-02,-4.3305320e-01,1.1603431e-01
1.5600002e+00,1.7517849e-04,3.1378673e-05,2.5019600e-05,5.3954180e-03,5.7324847e-03,5.4090753e-03,2.2674844e-04,-1.7361804e-03,4.6306400e-04,4.6209929e-03,-6.7598961e-02,-1.1572539e-02
1.5700002e+00,-1.8981170e-04,-9.9018713e-04,-3.4013369e-04,-3.6659515e-02,-1.0233880e-01,-3.5821762e-02,1.1927581e-03,6.2457730e-03,-1.0591929e-03,9.6601055e-02,7.9819610e-01,-1.5222584e-01
1.5800002e+00,-2.7515542e-04,-1.0926503e-03,-4.2193391e-04,-8.5616322e-03,-1.0297899e-02,-8.4445439e-03,1.3178466e-03,7.4061555e-03,-1.6132048e-03,1.2508869e-02,1.1603836e-01,-5.5401246e-02
1.5900002e+00,-1.7536447e-05,-1.7122696e-04,1.9241664e-04,2.5821372e-02,9.2086484e-02,2.5902047e-02,7.6292523e-04,-1.4034154e-03,4.2066721e-04,-5.5492193e-02,-8.8095792e-01,2.0338740e-01
1.6000001e+00,-1.7821817e-04,-5.9505286e-04,-1.1025988e-04,-1.6127205e-02,-4.2413939e-02,-1.5925819e-02,1.1915047e-03,3.1566870e-03,-5.3098076e-04,4.2857986e-02,4.5601067e-01,-9.5164887e-02
1.6100001e+00,-2.8942899e-05,3.9673636e-05,3.2095050e-04,1.4954349e-02,6.3432045e-02,1.5072856e-02,5.2684864e-04,-2.1855790e-03,4.4412079e-04,-6.6465668e-02,-5.3422711e-01,9.7510247e-02
1.6200001e+00,-2.9848659e-04,-6.2570777e-04,-4.1885628e-04,-2.7052258e-02,-6.6648181e-02,-2.6582075e-02,6.2554773e-04,4.7438657e-03,-2.0888650e-03,9.8699183e-03,6.9294513e-01,-2.5329882e-01
1.6300001e+00,-4.1438097e-05,-2.7749320e-04,-2.3630142e-04,2.5737087e-02,3.4848798e-02,2.5635539e-02,5.5919980e-04,1.6243715e-03,-4.9595703e-04,-6.6347995e-03,-3.1194972e-01,1.5929095e-01
1.6400001e+00,8.7032369e-05,-1.0902030e-04,-2.5761166e-05,1.2854445e-02,1.6839163e-02,1.2850346e-02,4.5713999e-04,-1.7651969e-04,2.4466716e-05,-1.0205990e-02,-1.8008929e-01,5.2042424e-02
1.6500001e+00,-8.8569454e-06,-3.2245076e-04,-1.7877268e-04,-9.6038194e-03,-2.1354864e-02,-9.5476938e-03,5.5955135e-04,1.7944307e-03,-3.0642101e-04,1.0241145e-02,1.9709522e-01,-3.3088804e-02
1.6600001e+00,1.6088629e-05,-2.0697549e-04,-1.6419820e-04,2.5000359e-03,1.1549400e-02,2.4804185e-03,4.5669299e-04,1.2069833e-03,-8.1276530e-05,-1.0285845e-02,-5.8744791e-02,2.2514469e-02
1.6700001e+00,-2.1419769e-04,-9.3105909e-04,-4.1108676e-04,-2.3134843e-02,-7.2522439e-02,-2.2558661e-02,1.0609807e-03,6.0794624e-03,-1.2765472e-03,6.0428826e-02,4.8724838e-01,-1.1952718e-01
1.6800001e+00,-2.1084026e-04,-1.0427952e-03,-3.9129754e-04,3.2466075e-04,-1.1171444e-02,4.1084693e-04,1.0313117e-03,6.7603327e-03,-1.3167005e-03,-2.9668998e-03,6.8087092e-02,-4.0153370e-03
1.6900001e+00,-7.4804443e-05,-4.3494990e-04,6.6999306e-05,1.3640959e-02,6.0788111e-02,1.3550350e-02,6.2285630e-04,8.8413266e-04,3.6225720e-05,-4.0845579e-02,-5.8762056e-01,1.3529275e-01
1.7000000e+00,-1.9464507e-04,-1.1201274e-03,-3.8066284e-04,-1.2085491e-02,-6.8587425e-02,-1.1473173e-02,1.2458651e-03,7.2171523e-03,-1.3412064e-03,6.2300944e-02,6.3330257e-01,-1.3774334e-01
1.7100000e+00,-2.1116429e-04,-1.0982994e-03,-3.8276700e-04,-1.6513587e-03,2.1730273e-03,-1.6653274e-03,1.3261369e-03,7.2206169e-03,-1.4121175e-03,8.0271824e-03,3.4646358e-04,-7.0911143e-03
1.7200000e+00,-1.7773795e-04,-6.7959335e-04,-1.1441217e-04,3.3907253e-03,4.1878554e-02,3.1917266e-03,1.0891442e-03,3.5437847e-03,-7.4423637e-04,-2.3699294e-02,-3.6768357e-01,6.6788173e-02
1.7300000e+00,1.8225479e-04,2.1978424e-04,1.5791519e-04,3.5966661e-02,8.9850944e-02,3.6248079e-02,-1.7751953e-05,-2.4222750e-03,8.6214686e-04,-1.1068972e-01,-5.9660654e-01,1.6063848e-01
1.7400000e+00,-4.7520258e-05,-1.9117582e-05,4.5036753e-05,-2.2985410e-02,-2.3854235e-02,-2.3006992e-02,5.0669258e-04,-1.0578353e-03,1.8355376e-04,5.2444503e-02,1.3644410e-01,-6.7859374e-02
1.7500000e+00,-4.0202137e-05,-1.2084312e-04,-3.8904050e-05,7.2444102e-04,-1.0173044e-02,7.3245987e-04,7.2655922e-04,6.5495770e-05,-2.6513125e-05,2.1986685e-02,1.1233321e-01,-2.1006709e-02
1.7600002e+00,9.9871107e-05,1.3329552e-04,1.3527251e-04,1.4006843e-02,2.5389841e-02,1.4049609e-02,2.7353418e-04,-1.3974013e-03,5.0762427e-04,-4.5301467e-02,-1.4628636e-01,5.3412517e-02
1.7700002e+00,-3.4226986e-06,-3.5189671e-04,4.3959482e-05,-1.0377466e-02,-4.8518857e-02,-1.0283032e-02,1.0739820e-03,1.0389626e-03,3.8977840e-04,8.0044857e-02,2.4363663e-01,-1.1784598e-02
1.7800002e+00,-1.4220161e-04,-4.0205431e-04,-1.4292303e-06,-1.3883927e-02,-5.0191694e-03,-1.3870647e-02,7.2558475e-04,9.7135084e-04,-1.7202189e-04,-3.4839758e-02,-6.7611854e-03,-5.6180083e-02
1.7900002e+00,-2.6851057e-04,-1.0517954e-03,-4.0683575e-04,-1.2729335e-02,-6.5046661e-02,-1.2149856e-02,1.2298197e-03,7.1131860e-03,-1.4681361e-03,5.0423542e-02,6.1418410e-01,-1.2961155e-01
1.8000002e+00,-1.9392872e-04,-9.9261110e-04,-3.8778924e-04,7.4742690e-03,5.9565653e-03,7.4115993e-03,1.1702483e-03,6.3063261e-03,-1.2284404e-03,-5.9571480e-03,-8.0686066e-02,2.3969597e-02
1.8100002e+00,-1.5617085e-04,-9.7284641e-04,-3.9955738e-04,3.7826112e-03,1.9961292e-03,3.7585842e-03,1.0438032e-03,6.2687776e-03,-1.2611983e-03,-1.2644517e-02,-3.7548471e-03,-3.2757968e-03
1.8200002e+00,-7.3855075e-05,-6.2028690e-04,-3.7704969e-04,8.2633441e-03,3.5283662e-02,8.0797745e-03,6.5588501e-04,4.0587326e-03,-1.0498161e-03,-3.8791858e-02,-2.2100471e-01,2.1138245e-02
1.8300002e+00,-2.5207660e-05,-2.9573923e-04,-1.9831853e-04,4.8858446e-03,3.2458859e-02,4.8162652e-03,6.0171666e-04,1.4451598e-03,-3.2295416e-04,-5.4168399e-03,-2.6135753e-01,7.2686262e-02
1.8400002e+00,-1.4526561e-05,-2.4507342e-04,-1.5181638e-04,1.0712453e-03,5.0673472e-03,1.0613381e-03,5.7723900e-04,1.2951684e-03,-1.9657364e-04,-2.4477682e-03,-1.4999147e-02,1.2638064e-02
1.8500001e+00,5.8009097e-05,-9.7799476e-05,4.1008650e-05,7.2593473e-03,1.4722944e-02,7.2568585e-03,4.2677305e-04,-1.8849621e-04,7.0304668e-05,-1.5046610e-02,-1.4836661e-01,2.6687856e-02
1.8600001e+00,-1.3107275e-04,-6.5329570e-04,-8.8904976e-05,-1.8985505e-02,-5.5587362e-02,-1.8719041e-02,1.1373236e-03,3.1492829e-03,-7.4792056e-04,7.1055126e-02,3.3377823e-01,-8.1822601e-02
1.8700001e+00,-1.4047663e-04,-5.0864909e-04,4.0875519e-05,-9.2879635e-04,1.4463826e-02,-9.6465677e-04,8.2738603e-04,1.7033939e-03,-3.9958667e-04,-3.0993789e-02,-1.4458903e-01,3.4833423e-02
1.8800001e+00,-2.7590671e-04,-1.0969454e-03,-4.0089072e-04,-1.3643785e-02,-5.8908834e-02,-1.3090279e-02,1.3452697e-03,7.3214907e-03,-1.5987983e-03,5.1788411e-02,5.6181021e-01,-1.1992128e-01
1.8900001e+00,-1.6364325e-04,-4.6794020e-04,-9.6533039e-06,1.1283231e-02,6.2908779e-02,1.1122928e-02,8.6722295e-04,1.6071119e-03,-2.0756784e-04,-4.7804716e-02,-5.7143842e-01,1.3912318e-01
1.9000001e+00,-9.9703873e-05,-5.6251954e-04,-1.3463209e-04,6.3851312e-03,-9.4489351e-03,6.4160306e-03,1.0617245e-03,2.4657589e-03,-1.9285232e-04,1.9450175e-02,8.5864782e-02,1.4715534e-03
1.9100001e+00,1.7406574e-04,6.7302398e-05,-6.2514870e-05,2.7388168e-02,6.2917026e-02,2.7515439e-02,3.5073287e-04,-2.0261990e-03,3.9835644e-04,-7.1099232e-02,-4.4919623e-01,5.9120933e-02
1.9200001e+00,1.6871739e-04,6.9957380e-05,6.1096808e-05,-5.3442665e-04,2.6642870e-04,-5.3478185e-04,2.4844845e-04,-1.4905197e-03,6.4111481e-04,-1.0228451e-02,5.3567982e-02,2.4275860e-02
1.9300001e+00,2.9251571e-05,-1.2389729e-04,-3.5943702e-05,-1.3956587e-02,-1.9372692e-02,-1.3954374e-02,6.1500188e-04,-3.0190048e-04,1.3825139e-04,3.6655377e-02,1.1886204e-01,-5.0286390e-02
1.9400001e+00,-3.8585517e-05,-1.8024251e-04,-4.4450739e-05,-6.7883942e-03,-5.6329286e-03,-6.7803620e-03,6.9293234e-04,4.5750686e-04,-1.1443700e-04,7.7930540e-03,7.5940806e-02,-2.5268863e-02
1.9500000e+00,4.9551779e-05,5.2573380e-06,7.3887199e-05,8.8191752e-03,1.8542503e-02,8.8240747e-03,3.2818234e-04,-5.2231921e-04,7.3752511e-05,-3.6475035e-02,-9.7982700e-02,1.8818969e-02
1.9600000e+00,-3.0921056e-04,-5.5080653e-04,-4.2792634e-04,-3.5979761e-02,-5.5744644e-02,-3.5556727e-02,5.4628506e-04,4.4229726e-03,-2.0402288e-03,2.1810292e-02,4.9452966e-01,-2.1139833e-01
1.9700000e+00,-2.5897359e-04,-8.1748034e-04,-3.1872333e-04,4.9981792e-03,-2.6645928e-02,5.1612461e-03,1.2363420e-03,5.4372913e-03,-1.4842753e-03,6.9005763e-02,1.0143197e-01,5.5595403e-02
1.9800000e+00,-2.0978342e-04,-1.0651739e-03,-4.0193960e-04,4.8953705e-03,-2.4739669e-02,5.0892162e-03,1.2961557e-03,7.2143670e-03,-1.7209307e-03,5.9813705e-03,1.7770774e-01,-2.3665562e-02
1.9900000e+00,-1.9001305e-04,-1.0285254e-03,-4.0160890e-04,1.9841176e-03,3.6754957e-03,1.9500198e-03,1.1942907e-03,6.6246877e-03,-1.3682944e-03,-1.0186508e-02,-5.8967984e-02,3.5263664e-02
2.0000000e+00,-2.0214296e-04,-1.0517361e-03,-4.2817370e-04,-1.2174060e-03,-2.3277937e-03,-1.1955631e-03,1.1564453e-03,6.7537445e-03,-1.4269242e-03,-3.7845469e-03,1.2905686e-02,-5.8629887e-03
2.0100002e+00,-1.5451614e-04,-8.7821205e-04,-4.1558362e-04,4.7833833e-03,1.7371250e-02,4.6706737e-03,9.7061664e-04,5.0642736e-03,-8.3391765e-04,-1.8582437e-02,-1.6894322e-01,5.9299301e-02
2.0200002e+00,1.4901298e-04,-4.0455297e-05,-5.3917307e-05,3.0365011e-02,8.3720475e-02,3.0493070e-02,2.4762441e-04,-1.5696868e-03,2.8573070e-04,-7.2299292e-02,-6.6339667e-01,1.1196494e-01
2.0300002e+00,1.4772591e-04,-4.5997602e-05,-2.2549198e-05,-1.2882169e-04,-5.5402563e-04,-1.2947365e-04,2.5395970e-04,-1.3373427e-03,2.0062810e-04,6.3352921e-04,2.3234433e-02,-8.5102680e-03
2.0400002e+00,8.2824961e-06,-2.4271568e-04,-1.9010359e-04,-1.3957030e-02,-1.9685154e-02,-1.3912830e-02,4.8122471e-04,1.4389393e-03,-2.3028795e-04,2.2726524e-02,2.7762846e-01,-4.3091646e-02
2.0500002e+00,-1.2476576e-04,-4.4141113e-04,-2.5059150e-04,-1.3331551e-02,-1.9901336e-02,-1.3230403e-02,6.8964874e-04,3.0882197e-03,-9.7849730e-04,2.0842423e-02,1.6492820e-01,-7.4821006e-02
2.0600002e+00,-3.3476210e-06,-2.7778534e-04,8.9014551e-05,1.2153950e-02,1.6356702e-02,1.2137633e-02,1.1068739e-03,6.2235090e-04,4.9231010e-04,4.1722552e-02,-2.4658711e-01,1.4708088e-01
2.0700002e+00,-5.2257599e-05,4.2854402e-05,3.5357126e-04,-4.8662095e-03,3.2081737e-02,-4.7985810e-03,6.6438908e-04,-2.9896883e-03,7.1309560e-04,-4.4248520e-02,-3.6120426e-01,2.2078571e-02
2.0800002e+00,-2.5710711e-05,-8.2794267e-06,3.4433382e-04,2.6504065e-03,-5.1212987e-03,2.6437004e-03,6.3373834e-04,-2.3510388e-03,3.9310138e-04,-3.0650770e-03,6.3865008e-02,-3.1999452e-02
2.0900002e+00,-2.6806736e-04,-8.7699672e-04,-2.9750704e-04,-2.4392672e-02,-8.6980011e-02,-2.3683838e-02,1.3529412e-03,5.8925562e-03,-1.6300759e-03,7.1920358e-02,8.2436029e-01,-2.0231792e-01
2.1000001e+00,-2.5505522e-04,-8.3668638e-04,-2.9901815e-04,1.3078886e-03,4.0366271e-03,1.2769728e-03,1.2056067e-03,5.5587489e-03,-1.3953866e-03,-1.4733468e-02,-3.3380766e-02,2.3468953e-02
2.1100001e+00,1.1224084e-04,-6.0808307e-05,-1.1804395e-04,3.6759505e-02,7.7534211e-02,3.6813002e-02,3.6692378e-04,-1.0929183e-03,-3.8064824e-05,-8.3868372e-02,-6.6516735e-01,1.3573230e-01
2.1200001e+00,1.2810567e-04,-5.2826294e-05,-7.7194392e-05,1.5865284e-03,7.9560343e-04,1.5877455e-03,3.1474895e-04,-1.3225868e-03,1.3066702e-04,-5.2174878e-03,-2.2966869e-02,1.6873200e-02
2.1300001e+00,4.2326694e-05,-3.7052092e-04,-3.0310384e-04,-8.5939453e-03,-3.1785264e-02,-8.5031023e-03,4.3155509e-04,2.2806294e-03,-2.7172006e-04,1.1680625e-02,3.6032196e-01,-4.0238746e-02
2.1400001e+00,-1.9626138e-04,-9.7339271e-04,-3.8064896e-04,-2.3953828e-02,-6.0407501e-02,-2.3456052e-02,1.0990778e-03,6.1973173e-03,-1.2058007e-03,6.6752338e-02,3.9166916e-01,-9.3408156e-02
2.1500001e+00,-2.2340440e-04,-7.3630305e-04,-5.3223979e-04,-2.7092745e-03,2.3695146e-02,-2.8374196e-03,4.2575543e-04,5.4074244e-03,-1.8676556e-03,-6.7332305e-02,-7.8989369e-02,-6.6185550e-02
2.1600001e+00,-2.7128686e-04,-1.1839833e-03,-5.2927059e-04,-4.8509694e-03,-4.4800212e-02,-4.4095390e-03,1.1987331e-03,8.2519692e-03,-1.8933503e-03,7.7297845e-02,2.8445476e-01,-2.5694689e-03
2.1700001e+00,-1.9943701e-04,-7.8370803e-04,-2.7067225e-04,7.2374403e-03,4.0052258e-02,6.9921838e-03,1.1207797e-03,4.6248717e-03,-1.0570954e-03,-7.7953497e-03,-3.6271010e-01,8.3625571e-02
2.1800001e+00,-2.3709871e-04,-1.0277527e-03,-3.8983051e-04,-3.8037183e-03,-2.4423953e-02,-3.5985317e-03,1.3009662e-03,6.6273307e-03,-1.5408389e-03,1.8018662e-02,2.0024609e-01,-4.8374403e-02
2.1900001e+00,-2.5905364e-04,-1.1016788e-03,-3.8852793e-04,-2.2092537e-03,-7.4055770e-03,-2.1372638e-03,1.3300135e-03,7.3371470e-03,-1.7909957e-03,2.9047383e-03,7.0981700e-02,-2.5015706e-02
2.2000000e+00,-1.6177294e-04,-7.0512808e-04,-1.2621406e-04,9.7868722e-03,3.9678334e-02,9.5731868e-03,1.2614324e-03,3.6827365e-03,-9.0286014e-04,-6.8581210e-03,-3.6544140e-01,8.8813646e-02
2.2100000e+00,-1.8056838e-04,-7.0695540e-04,-1.3024526e-04,-1.8814396e-03,-1.8764621e-04,-1.8771653e-03,1.2163475e-03,3.8353663e-03,-8.9046265e-04,-4.5084897e-03,1.5263003e-02,1.2397498e-03
2.2200000e+00,-3.7991900e-05,-4.6134921e-04,2.5446912e-05,1.4281095e-02,2.4567607e-02,1.4222164e-02,1.1334459e-03,1.6248810e-03,3.0825872e-04,-8.2901665e-03,-2.2104874e-01,1.1987225e-01
2.2300000e+00,1.1143553e-04,7.8763803e-05,3.8466492e-05,1.4937000e-02,5.3986844e-02,1.5036790e-02,7.7156564e-05,-1.5576532e-03,6.6396449e-04,-1.0562904e-01,-3.1825373e-01,3.5570611e-02
2.2400000e+00,5.9837758e-05,-1.0438542e-05,-1.1248918e-05,-5.1611559e-03,-8.9157015e-03,-5.1662545e-03,3.0795031e-04,-5.7172301e-04,2.6614692e-04,2.3079397e-02,9.8593116e-02,-3.9781795e-02
2.2500000e+00,-1.0768942e-04,-3.6699986e-04,-2.1505651e-04,-1.6784439e-02,-3.5684626e-02,-1.6660146e-02,6.5097079e-04,2.3573585e-03,-5.0732819e-04,3.4302081e-02,2.9290843e-01,-7.7347584e-02
2.2600002e+00,-1.5174378e-04,-4.1565107e-04,-2.4377110e-04,-4.4113095e-03,-4.8746825e-03,-4.3886314e-03,5.4890080e-04,2.7510299e-03,-7.5052335e-04,-1.0206765e-02,3.9366242e-02,-2.4318960e-02
2.2700002e+00,1.0689706e-04,1.8644258e-05,2.4017630e-05,2.5860523e-02,4.3398375e-02,2.5920002e-02,7.9675360e-05,-1.1252146e-03,2.7236497e-04,-4.6922589e-02,-3.8762482e-01,1.0228893e-01
2.2800002e+00,-1.5263890e-04,-4.6777905e-04,-3.4421317e-04,-2.6028654e-02,-4.8689388e-02,-2.5789811e-02,5.8725639e-04,2.4086912e-03,-1.7921833e-03,5.0758152e-02,3.5339091e-01,-2.0645502e-01
2.2900002e+00,-2.1561622e-04,-7.9020589e-04,-3.0040780e-04,-6.3443074e-03,-3.2264597e-02,-6.1368771e-03,1.2003595e-03,4.7420681e-03,-1.2506337e-03,6.1310372e-02,2.3333791e-01,5.4155009e-02
2.3000002e+00,-2.6022956e-04,-9.9005656e-04,-4.1822835e-04,-4.4935100e-03,-2.0007907e-02,-4.3246693e-03,1.2496748e-03,6.4727697e-03,-1.6154329e-03,4.9315276e-03,1.7307032e-01,-3.6479948e-02
2.3100002e+00,-1.5174722e-04,-4.6818607e-04,2.9978671e-05,1.0892372e-02,5.2195575e-02,1.0762912e-02,7.5055357e-04,1.5396611e-03,-4.5747908e-04,-4.9912167e-02,-4.9331133e-01,1.1579549e-01
2.3200002e+00,-1.3939296e-04,-7.0546798e-04,-1.1647035e-04,1.2119259e-03,-2.3724767e-02,1.3218636e-03,1.0303200e-03,3.6821411e-03,-7.6738714e-04,2.7976674e-02,2.1424821e-01,-3.0990836e-02
2.3300002e+00,-2.6262104e-04,-1.1737084e-03,-5.5058221e-04,-1.2398745e-02,-4.6908375e-02,-1.1919496e-02,1.1417915e-03,8.1246024e-03,-1.8251416e-03,1.1147161e-02,4.4424655e-01,-1.0577555e-01
2.3400002e+00,-2.4779300e-04,-1.2151524e-03,-5.5057186e-04,1.4800339e-03,-4.1340149e-03,1.5142324e-03,1.2884809e-03,8.2104629e-03,-1.7348324e-03,1.4668952e-02,8.5860639e-03,9.0309267e-03
2.3500001e+00,-1.5685885e-04,-7.9207302e-04,-4.8137328e-04,9.1336684e-03,4.2353571e-02,8.8372331e-03,6.7815761e-04,5.7783410e-03,-1.2715227e-03,-6.1032390e-02,-2.4321242e-01,4.6331015e-02
2.3600001e+00,1.1748950e-04,8.5575959e-05,4.6345148e-05,2.7419224e-02,8.7717002e-02,2.7603422e-02,5.7996425e-05,-1.6850355e-03,7.5522346e-04,-6.2016178e-02,-7.4633836e-01,2.0267481e-01
2.3700001e+00,2.5279153e-05,-4.6953438e-05,-2.2523349e-05,-9.2218507e-03,-1.3248174e-02,-9.2271015e-03,2.5579648e-04,-2.6223274e-04,2.8008086e-04,1.9780024e-02,1.4228041e-01,-4.7514306e-02
2.3800001e+00,-2.1499925e-04,-4.4670472e-04,-2.7268723e-04,-2.4082875e-02,-4.0029498e-02,-2.3881893e-02,5.0949794e-04,2.7813698e-03,-1.4429830e-03,2.5370170e-02,3.0436055e-01,-1.7230655e-01
2.3900001e+00,-1.8188005e-04,-6.8276664e-04,-1.2166843e-04,3.2851678e-03,-2.3598465e-02,3.3928142e-03,1.2631899e-03,3.5557335e-03,-9.2606653e-04,7.5369268e-02,7.7436440e-02,5.1691697e-02
2.4000001e+00,8.4868876e-05,-3.2180009e-04,1.0990263e-04,2.6702010e-02,3.6088609e-02,2.6658741e-02,1.1791230e-03,8.7712616e-04,5.7907051e-04,-8.4066973e-03,-2.6786099e-01,1.5051385e-01
2.4100001e+00,-1.7577329e-04,-6.2770854e-04,-1.0599680e-04,-2.6121523e-02,-3.0641348e-02,-2.5947347e-02,1.3115938e-03,3.2574917e-03,-6.5940452e-04,1.3247090e-02,2.3803678e-01,-1.2384762e-01
2.4200001e+00,-1.5066840e-04,-5.6173867e-04,-1.4315460e-04,2.5200670e-03,6.6009407e-03,2.4904421e-03,1.1880353e-03,2.7744607e-03,-6.9294838e-04,-1.2355856e-02,-4.8303145e-02,-3.3543884e-03
2.4300001e+00,-2.8225557e-04,-8.1633621e-04,-3.2017210e-04,-1.3211091e-02,-2.5511545e-02,-1.3005107e-02,1.3153037e-03,5.2856329e-03,-1.4362421e-03,1.2726847e-02,2.5111746e-01,-7.4329446e-02
2.4400001e+00,1.0726586e-04,-7.9458405e-05,-1.0815690e-04,3.8974746e-02,7.3683540e-02,3.8937759e-02,3.6861780e-04,2.5811463e-04,1.1794102e-04,-9.4668679e-02,-5.0275231e-01,1.5541846e-01
2.4500000e+00,1.8284487e-04,-5.6916244e-05,8.7579957e-05,7.5564336e-03,2.2486419e-03,7.5610433e-03,2.9905303e-04,-4.3860019e-04,2.8422942e-04,-6.9564833e-03,-6.9671548e-02,1.6628856e-02
2.4600000e+00,1.3503332e-04,-1.3035837e-04,-6.8857285e-05,-4.7823253e-03,-7.3454488e-03,-4.7781045e-03,3.4410469e-04,6.0129018e-04,2.8458739e-04,4.5051704e-03,1.0398914e-01,3.5796646e-05
2.4700000e+00,-1.2574677e-05,-4.1968109e-04,-3.3472357e-04,-1.4781290e-02,-2.8967448e-02,-1.4671114e-02,4.5635486e-04,2.8471645e-03,-4.9295776e-04,1.1225027e-02,2.2458764e-01,-7.7754589e-02
2.4800000e+00,-1.8211657e-05,-7.5983566e-04,-2.3666096e-04,-6.0065115e-04,-3.4016842e-02,-4.2751664e-04,1.0861251e-03,4.0032299e-03,-1.4015655e-05,6.2977085e-02,1.1560666e-01,4.7894256e-02
2.4900000e+00,-7.1926804e-05,-9.7409153e-04,-3.0253399e-04,-5.4013762e-03,-2.1449661e-02,-5.2440722e-03,1.2966041e-03,5.8483976e-03,-3.8736586e-04,2.1047919e-02,1.8451694e-01,-3.7335056e-02
2.5000000e+00,-2.6787109e-04,-1.2039315e-03,-3.6234042e-04,-1.9646439e-02,-2.3102181e-02,-1.9402488e-02,1.6051607e-03,7.6775505e-03,-7.7216052e-04,3.0855687e-02,1.8291547e-01,-3.8479502e-02
2.5100002e+00,-6.0972333e-04,-1.2312904e-03,-3.3881935e-04,-3.4228645e-02,-2.9648706e-03,-3.4121051e-02,1.6540552e-03,8.3669897e-03,-1.1627802e-03,4.8893412e-03,6.8942335e-02,-3.9061079e-02
2.5200002e+00,-5.8804401e-04,1.5619559e-04,3.7937086e-04,2.2394534e-03,1.3873997e-01,2.6106928e-03,5.3204778e-04,-3.1740673e-03,1.0607561e-03,-1.1220085e-01,-1.1541068e+00,2.2235385e-01
2.5300002e+00,-1.2298418e-03,2.3396041e-04,1.6525686e-04,-6.4208816e-02,8.0377054e-03,-6.4118641e-02,2.5983181e-04,-3.8129575e-03,-4.8314944e-04,-2.7221624e-02,-6.3889083e-02,-1.5439070e-01
2.5400002e+00,-1.7572453e-03,-5.2799441e-04,-2.7772382e-04,-5.2933694e-02,-7.6267168e-02,-5.2442399e-02,1.2137052e-03,2.5823889e-03,-1.9141062e-03,9.5387431e-02,6.3953525e-01,-1.4309581e-01
2.5500002e+00,-1.6850288e-03,-3.9989869e-04,-3.3956243e-05,7.2408405e-03,1.2802069e-02,7.2157669e-03,1.4317614e-03,3.9313101e-04,-1.1813009e-04,2.1805642e-02,-2.1892600e-01,1.7959778e-01
2.5600002e+00,-1.5981707e-03,-2.3508953e-04,2.3961924e-04,8.6943325e-03,1.6457315e-02,8.7220036e-03,1.2433709e-03,-1.4700257e-03,1.3772985e-03,-1.8839067e-02,-1.8631585e-01,1.4954300e-01
2.5700002e+00,-1.7387001e-03,-4.1908581e-04,2.4120923e-04,-1.4056410e-02,-1.8372090e-02,-1.4085509e-02,1.4817162e-03,-4.7673670e-04,1.6914683e-03,2.3834545e-02,9.9328994e-02,3.1417004e-02
2.5800002e+00,-2.4925704e-03,-1.1774092e-03,-1.4597254e-04,-7.5591443e-02,-7.6020561e-02,-7.4991949e-02,2.4049458e-03,4.9172074e-03,-2.9437967e-04,9.2323057e-02,5.3939493e-01,-1.9858498e-01
2.5900002e+00,-3.2349211e-03,-1.7576873e-03,-2.7989461e-04,-7.4535380e-02,-5.8340564e-02,-7.3687188e-02,3.6364405e-03,7.8876947e-03,-1.2092533e-03,1.2314958e-01,2.9704900e-01,-9.1487446e-02
2.6000001e+00,-3.7989532e-03,-9.8143361e-04,3.3034671e-04,-5.6145128e-02,7.7839244e-02,-5.6366150e-02,3.2841613e-03,-5.1392038e-04,5.1343870e-05,-3.5227948e-02,-8.4016231e-01,1.2605983e-01
2.6100001e+00,-4.3962395e-03,-1.1084938e-03,4.1514405e-04,-5.9780317e-02,-1.2442130e-02,-5.9732610e-02,3.5619590e-03,-8.5511216e-04,-1.1287773e-04,2.7779795e-02,-3.4119211e-02,-1.6422176e-02
2.6200001e+00,-4.7133148e-03,-9.8069325e-04,6.3475695e-04,-3.1642517e-02,1.3001231e-02,-3.1682604e-02,3.5746631e-03,-3.4032324e-03,6.0380156e-04,1.2704152e-03,-2.5481227e-01,7.1667997e-02
2.6300001e+00,-4.7222658e-03,-8.4551552e-04,7.1671068e-04,-8.4503144e-04,1.3525021e-02,-8.3226843e-04,3.5822159e-03,-4.7616891e-03,1.8372457e-03,7.5527522e-04,-1.3584580e-01,1.2334453e-01
2.6400001e+00,-4.6248697e-03,-8.2384434e-05,8.0551341e-04,9.8781406e-03,7.6197612e-02,1.0477052e-02,2.2850158e-03,-9.1950987e-03,3.6728008e-03,-1.2972013e-01,-4.4334139e-01,1.8355569e-01
2.6500001e+00,-4.9800701e-03,-1.2643101e-04,7.7763051e-04,-3.5369830e-02,-4.0215906e-03,-3.5714921e-02,2.7332620e-03,-8.0106920e-03,4.5549282e-03,4.4824667e-02,1.1844079e-01,8.8212823e-02
2.6600001e+00,-5.7152369e-03,-2.5307473e-04,8.1209020e-04,-7.3339937e-02,-1.1888930e-02,-7.3822207e-02,2.3848899e-03,-8.1342587e-03,2.8091001e-03,-3.4837243e-02,-1.2356678e-02,-1.7458298e-01
2.6700001e+00,-6.8315918e-03,-1.2274174e-03,3.3928624e-04,-1.1207636e-01,-9.6836553e-02,-1.1171410e-01,3.9085753e-03,-1.4396519e-03,-5.4464526e-04,1.5236868e-01,6.6946132e-01,-3.3537486e-01
2.6800001e+00,-7.3889553e-03,-1.8413369e-03,4.7527519e-04,-5.6082024e-02,-6.1133002e-02,-5.5674343e-02,5.3772109e-03,7.4672141e-04,-2.9281385e-04,1.4686370e-01,2.1863754e-01,2.5183165e-02
2.6900001e+00,-7.7705606e-03,-2.0560196e-03,5.7178433e-04,-3.8265034e-02,-2.1325782e-02,-3.8135867e-02,5.6301166e-03,1.9046280e-03,4.1396675e-04,2.5290601e-02,1.1579077e-01,7.0678127e-02
2.7000000e+00,-8.0363585e-03,-1.9391791e-03,6.6365001e-04,-2.6482434e-02,1.1835145e-02,-2.6610159e-02,5.7032780e-03,1.2160750e-05,1.1397438e-03,7.3161436e-03,-1.8924691e-01,7.2577770e-02
2.7100000e+00,-8.4439352e-03,-2.3094000e-03,4.1331009e-04,-4.0961527e-02,-3.6910557e-02,-4.0654438e-02,6.4021263e-03,3.6865015e-03,7.9373983e-04,6.9884901e-02,3.6743442e-01,-3.4600426e-02
2.7200000e+00,-8.8795640e-03,-2.2769024e-03,4.7740137e-04,-4.3513501e-02,3.4441649e-03,-4.3597371e-02,6.7488588e-03,2.2828858e-03,6.0813338e-04,3.4673277e-02,-1.4036170e-01,-1.8560662e-02
2.7300000e+00,-9.6537456e-03,-2.3131117e-03,3.3424179e-04,-7.7495057e-02,-3.3116805e-03,-7.7355187e-02,6.3043352e-03,2.3124907e-03,-7.1762596e-04,-4.4452397e-02,2.9604926e-03,-1.3257606e-01
2.7400000e+00,-1.0116107e-02,-2.3296044e-03,5.7686454e-04,-4.6240931e-02,-1.3621559e-03,-4.6240750e-02,6.9030679e-03,6.9396319e-04,1.1933218e-04,5.9873326e-02,-1.6185291e-01,8.3695893e-02
2.7500000e+00,-1.0514317e-02,-2.4221777e-03,6.7397921e-04,-3.9878301e-02,-8.9793977e-03,-3.9827491e-02,7.1976162e-03,2.2365954e-04,2.1071788e-04,2.9454855e-02,-4.7030410e-02,9.1385792e-03
2.7600002e+00,-1.0967710e-02,-2.8368676e-03,4.3637187e-04,-4.5646186e-02,-4.1303855e-02,-4.5178905e-02,7.4185706e-03,3.8292148e-03,-3.3720924e-05,2.2094933e-02,3.6054727e-01,-2.4443321e-02
2.7700002e+00,-1.1534706e-02,-3.1799857e-03,8.8613655e-05,-5.7066719e-02,-3.4197464e-02,-5.6399658e-02,7.9997377e-03,6.0226410e-03,-1.6667099e-03,5.8116773e-02,2.1934283e-01,-1.6329906e-01
2.7800002e+00,-1.1880520e-02,-3.2802411e-03,2.7078139e-05,-3.4718611e-02,-9.9824160e-03,-3.4456200e-02,7.9220145e-03,6.7015281e-03,-1.7034926e-03,-7.7723303e-03,6.7888770e-02,-3.6782728e-03
2.7900002e+00,-1.2159134e-02,-2.7922778e-03,8.9799198e-04,-2.7423621e-02,4.9015961e-02,-2.7910240e-02,8.2559042e-03,3.1453260e-04,1.2183500e-03,3.3389001e-02,-6.3870015e-01,2.9218454e-01
2.8000002e+00,-1.2991260e-02,-3.5098775e-03,6.5295264e-04,-8.3863657e-02,-7.1238031e-02,-8.3007449e-02,9.5996501e-03,3.3695516e-03,4.0923396e-04,1.3437472e-01,3.0550219e-01,-8.0911686e-02
2.8100002e+00,-1.3710911e-02,-3.8055195e-03,6.2371425e-04,-7.2233506e-02,-2.9158093e-02,-7.1862044e-02,1.0205622e-02,4.5856100e-03,4.1224816e-04,6.0597247e-02,1.2160595e-01,3.0142058e-04
2.8200002e+00,-1.4231363e-02,-3.2910079e-03,1.0117679e-03,-5.1453955e-02,5.2052685e-02,-5.2035156e-02,1.0116528e-02,-1.4901358e-03,1.3087875e-03,-8.9093920e-03,-6.0757515e-01,8.9654023e-02
2.8300002e+00,-1.4783979e-02,-3.0877651e-03,1.1991030e-03,-5.4929185e-02,2.1079569e-02,-5.5310140e-02,9.8104160e-03,-3.8684638e-03,2.3571276e-03,-3.0611248e-02,-2.3783303e-01,1.0483411e-01
2.8400002e+00,-1.5452995e-02,-3.1036442e-03,1.1024234e-03,-6.6804650e-02,-7.1303734e-04,-6.7013454e-02,9.4821247e-03,-3.5879209e-03,1.6280906e-03,-3.2829162e-02,2.8054318e-02,-7.2903774e-02
2.8500001e+00,-1.6058502e-02,-3.2587988e-03,1.1787418e-03,-6.0602925e-02,-1.4735464e-02,-6.0693272e-02,9.8835046e-03,-2.9801440e-03,1.6210171e-03,4.0138030e-02,6.0777748e-02,-7.0734564e-04
2.8600001e+00,-1.6653248e-02,-3.7520855e-03,1.0029575e-03,-5.9959224e-02,-4.8679085e-02,-5.9523442e-02,1.0889964e-02,1.6097621e-05,8.2566274e-04,1.0064605e-01,2.9962445e-01,-7.9535514e-02
2.8700001e+00,-1.7025757e-02,-3.7945710e-03,1.0987645e-03,-3.7230603e-02,-3.8258236e-03,-3.7316981e-02,1.0995435e-02,-3.4569230e-04,1.7373801e-03,1.0547105e-02,-3.6179027e-02,9.1171826e-02
2.8800001e+00,-1.7679608e-02,-4.4409452e-03,7.2252217e-04,-6.6112394e-02,-6.4149577e-02,-6.5133949e-02,1.1645624e-02,4.2578911e-03,3.2238342e-04,6.5018941e-02,4.6035878e-01,-1.4149981e-01
2.8900001e+00,-1.8304558e-02,-4.6220838e-03,1.0720475e-03,-6.2641800e-02,-1.7518816e-02,-6.2517623e-02,1.2584842e-02,3.0833206e-03,1.2182998e-03,9.3921881e-02,-1.1745716e-01,8.9591725e-02
2.9000001e+00,-1.8953299e-02,-4.7031016e-03,1.1235182e-03,-6.4894427e-02,-7.4358525e-03,-6.4933588e-02,1.2828708e-02,2.5708404e-03,1.2064810e-03,2.4386685e-02,-5.1248061e-02,-1.1818856e-03
2.9100001e+00,-1.9673004e-02,-4.5654611e-03,1.3220476e-03,-7.1658982e-02,1.4700016e-02,-7.2096331e-02,1.2815232e-02,-2.0505210e-04,1.7951372e-03,-1.3476596e-03,-2.7758952e-01,5.8865673e-02
2.9200001e+00,-2.0453083e-02,-5.0330377e-03,9.5729006e-04,-7.8634038e-02,-4.5843908e-02,-7.7921702e-02,1.3819457e-02,2.1630998e-03,1.6178005e-04,1.0042266e-01,2.3681541e-01,-1.6333587e-01
2.9300001e+00,-2.1271778e-02,-5.4366272e-03,9.0324590e-04,-8.2436556e-02,-3.9531524e-02,-8.1704200e-02,1.4515129e-02,4.4636000e-03,1.2447657e-04,6.9567234e-02,2.3005024e-01,-3.7303516e-03
2.9400001e+00,-2.1989354e-02,-5.4974795e-03,1.0112960e-03,-7.1798955e-02,-5.3530540e-03,-7.1774860e-02,1.4718437e-02,4.5217775e-03,5.6522947e-04,2.0330854e-02,5.8177584e-03,4.4075332e-02
2.9500000e+00,-2.2752713e-02,-5.5032085e-03,1.1833239e-03,-7.6215530e-02,2.9472728e-04,-7.6457665e-02,1.4762025e-02,3.3910077e-03,1.5774733e-03,4.3587317e-03,-1.1307709e-01,1.0122448e-01
2.9600000e+00,-2.3576852e-02,-5.4934508e-03,1.3294263e-03,-8.2251685e-02,2.1548710e-03,-8.2553659e-02,1.5269372e-02,9.5881531e-04,1.6708597e-03,5.0734769e-02,-2.4321947e-01,9.3386507e-03
2.9700000e+00,-2.4459246e-02,-5.6152276e-03,1.4705502e-03,-8.8316302e-02,-1.0806471e-02,-8.8341263e-02,1.5667114e-02,1.4349039e-04,1.1687081e-03,3.9774282e-02,-8.1532569e-02,-5.0215211e-02
2.9800000e+00,-2.5129847e-02,-5.8050562e-03,1.8143212e-03,-6.7232244e-02,-1.7785342e-02,-6.7215925e-02,1.6530455e-02,-1.2865586e-03,1.9740583e-03,8.6334100e-02,-1.4300503e-01,8.0535097e-02
2.9900000e+00,-2.5926230e-02,-6.1789503e-03,1.8082719e-03,-8.0138984e-02,-3.6033945e-02,-7.9760859e-02,1.7300333e-02,3.4844567e-04,1.6842163e-03,7.6987949e-02,1.6350058e-01,-2.8984222e-02
3.0000000e+00,-2.6653730e-02,-6.4543904e-03,1.6813078e-03,-7.3114591e-02,-2.6366426e-02,-7.2821040e-02,1.8105789e-02,1.9772431e-03,1.6795587e-03,8.0545624e-02,1.6287990e-01,-4.6575883e-04
3.0100002e+00,-2.7366021e-02,-6.4240193e-03,1.6452371e-03,-7.1028190e-02,4.2828270e-03,-7.1362357e-02,1.8186776e-02,6.8715413e-04,1.8554720e-03,8.0985361e-03,-1.2900594e-01,1.7590925e-02
3.0200002e+00,-2.8204088e-02,-6.3506566e-03,1.5789229e-03,-8.3553058e-02,8.9617733e-03,-8.3901941e-02,1.8084161e-02,-1.3252628e-03,1.2797704e-03,-1.0261558e-02,-2.0124188e-01,-5.7570217e-02
3.0300002e+00,-2.9065366e-02,-7.0703663e-03,1.4855682e-03,-8.7428213e-02,-7.0542532e-02,-8.5999575e-02,1.9248069e-02,2.8166674e-03,8.0045176e-04,1.1639099e-01,4.1419342e-01,-4.7931908e-02
3.0399930e+00,-2.9973801e-02,-7.3412825e-03,1.6921665e-03,-9.1287892e-02,-2.5571551e-02,-9.0974568e-02,2.0069258e-02,3.1897668e-03,1.6097900e-03,8.2177712e-02,3.7336681e-02,8.0991835e-02
3.0499930e+00,-3.0906857e-02,-7.7039507e-03,1.6194830e-03,-9.3924533e-02,-3.4766452e-02,-9.3255918e-02,2.0734385e-02,4.7343122e-03,1.2105880e-03,6.6512792e-02,1.5445468e-01,-3.9920242e-02
3.0599930e+00,-3.1932940e-02,-7.4611151e-03,1.8790692e-03,-1.0195236e-01,2.6222360e-02,-1.0278502e-01,2.0287895e-02,1.3408701e-03,1.3857045e-03,-4.4649112e-02,-3.3934453e-01,1.7511666e-02
3.0699930e+00,-3.2947955e-02,-7.6139145e-03,1.8352615e-03,-1.0173680e-01,-1.3238535e-02,-1.0155284e-01,2.0603301e-02,5.2133367e-04,5.7144799e-04,3.1540702e-02,-8.1953724e-02,-8.1425728e-02
3.0799930e+00,-3.3566702e-02,-7.6875029e-03,2.0032796e-03,-6.1919399e-02,-5.9164690e-03,-6.1984670e-02,2.1594101e-02,-1.6883204e-03,1.6115640e-03,9.9080093e-02,-2.2096562e-01,1.0401170e-01
3.0899930e+00,-3.4294804e-02,-7.8529832e-03,2.3373387e-03,-7.2984164e-02,-1.4687846e-02,-7.3034972e-02,2.2282982e-02,-3.2021703e-03,2.4253637e-03,6.8888109e-02,-1.5138513e-01,8.1380043e-02
3.0999930e+00,-3.5108655e-02,-8.2660369e-03,2.6399950e-03,-8.2037619e-02,-3.9263963e-02,-8.1739794e-02,2.3252860e-02,-1.6891289e-03,3.5069198e-03,9.6987972e-02,1.5130428e-01,1.0815572e-01
3.1099930e+00,-3.6001104e-02,-8.1933881e-03,2.8182976e-03,-8.8682653e-02,9.6655803e-03,-8.9577110e-02,2.3212728e-02,-3.6968333e-03,4.1330757e-03,-4.0132512e-03,-2.0077063e-01,6.2615645e-02
3.1199930e+00,-3.7441934e-02,-9.1497899e-03,2.3874395e-03,-1.4603270e-01,-9.2346230e-02,-1.4426914e-01,2.4544787e-02,1.8766528e-03,2.4557450e-03,1.3320607e-01,5.5734915e-01,-1.6773323e-01
3.1299930e+00,-3.8937476e-02,-9.8282409e-03,2.1562614e-03,-1.5099704e-01,-6.4726750e-02,-1.4948696e-01,2.5364959e-02,4.6542241e-03,1.5365027e-03,8.2017211e-02,2.7775739e-01,-9.1924315e-02
3.1399930e+00,-4.0441791e-02,-9.9684104e-03,2.1465116e-03,-1.5071244e-01,-1.0768069e-02,-1.5041823e-01,2.5744186e-02,4.1747776e-03,2.0056814e-04,3.7922785e-02,-4.7944687e-02,-1.3359359e-01
3.1499929e+00,-4.1725220e-02,-1.0150065e-02,2.3761162e-03,-1.2876780e-01,-1.5117264e-02,-1.2831278e-01,2.6377562e-02,2.6737113e-03,7.5454038e-05,6.3337650e-02,-1.5010678e-01,-1.2511422e-02
3.1599929e+00,-4.2930503e-02,-1.0210572e-02,2.5117573e-03,-1.2049099e-01,-2.8528217e-03,-1.2068382e-01,2.7447370e-02,9.2899972e-04,1.3105669e-03,1.0698086e-01,-1.7447132e-01,1.2351141e-01
3.1699929e+00,-4.4045619e-02,-1.0344558e-02,2.6434572e-03,-1.1155830e-01,-1.0164339e-02,-1.1180648e-01,2.8211778e-02,-7.4598628e-04,2.5705168e-03,7.6440945e-02,-1.6749876e-01,1.2599511e-01
