time, x, y, z, vx, vy, vz, yaw, pitch, roll, yaw_rate, pitch_rate, roll_rate
0.0000000e+00,0.0000000e+00,-0.0000000e+00,0.0000000e+00,0.0000000e+00,0.0000000e+00,0.0000000e+00,0.0000000e+00,0.0000000e+00,0.0000000e+00,0.0000000e+00,0.0000000e+00,0.0000000e+00
9.9999905e-03,5.6571007e-05,6.8702064e-05,5.4297130e-06,5.6554065e-03,6.8672325e-03,5.6624217e-03,-1.1277632e-04,-6.3927868e-04,1.6345226e-04,-1.1277642e-02,-6.3927929e-02,1.6345242e-02
1.9999981e-02,6.4660485e-05,2.8751326e-05,1.4701492e-06,8.0870122e-04,-3.9955557e-03,8.0683178e-04,4.1723416e-05,-5.5000562e-04,9.9726292e-05,1.5449988e-02,8.9273145e-03,-6.3726030e-03
2.9999971e-02,6.5010952e-05,-3.6068294e-05,-7.3612295e-06,3.4732413e-05,-6.4819713e-03,3.4790409e-05,4.8385000e-05,-3.9666603e-05,2.1267850e-05,6.6615903e-04,5.1033950e-02,-7.8458517e-03
3.9999962e-02,5.4563549e-05,-6.8202132e-05,-2.3202427e-05,-1.0448739e-03,-3.2134169e-03,-1.0445162e-03,3.1821639e-05,6.0596788e-05,-2.9075595e-05,-1.6563376e-03,1.0026349e-02,-5.0343492e-03
4.9999952e-02,1.0141672e-04,1.8249344e-04,6.7637688e-05,4.6772492e-03,2.5060835e-02,4.7398566e-03,-2.6382946e-04,-2.1176138e-03,3.1111812e-04,-2.9565138e-02,-2.1782126e-01,3.4019404e-02
5.9999943e-02,6.1118529e-05,4.9093387e-05,2.5108077e-06,-4.0281561e-03,-1.3336458e-02,-4.0432475e-03,-1.0379937e-04,-9.8533412e-04,6.9975450e-05,1.6003024e-02,1.1322807e-01,-2.4114290e-02
6.9999933e-02,3.1323618e-05,6.0802663e-05,3.3935197e-05,-2.9793422e-03,1.1738721e-03,-2.9784872e-03,9.1641837e-05,-8.9640800e-04,1.4882651e-05,1.9544139e-02,8.8926205e-03,-5.5092852e-03
7.9999924e-02,1.8954275e-07,-1.2644694e-04,-4.5843839e-05,-3.1180225e-03,-1.8726670e-02,-3.0985788e-03,2.2278518e-04,7.6850509e-04,-1.4147802e-04,1.3114347e-02,1.6649147e-01,-1.5636082e-02
8.9999914e-02,5.5994176e-05,2.1675928e-04,1.0910987e-04,5.5756239e-03,3.4308901e-02,5.6570625e-03,-8.8190529e-05,-2.1791475e-03,3.2571581e-04,-3.1097601e-02,-2.9476554e-01,4.6719427e-02
9.9999905e-02,1.3905446e-04,2.5919831e-04,1.0902606e-04,8.3013274e-03,4.2236534e-03,8.3210538e-03,-6.8994253e-05,-2.5044196e-03,5.3153127e-04,1.9196295e-03,-3.2527241e-02,2.0581566e-02
1.0999990e-01,8.3782190e-05,9.8466735e-05,3.6170882e-06,-5.5265258e-03,-1.6067745e-02,-5.5436952e-03,6.1234245e-06,-9.7435199e-04,1.4560449e-04,7.5117749e-03,1.5300691e-01,-3.8592714e-02
1.1999989e-01,3.8043717e-05,-4.2064991e-05,-5.1341088e-05,-4.5764364e-03,-1.4055033e-02,-4.5655832e-03,1.5854186e-04,5.6294522e-04,-7.8007402e-05,1.5241858e-02,1.5372987e-01,-2.2361211e-02
1.2999988e-01,5.9095632e-05,2.7727949e-04,9.7304010e-05,2.0990805e-03,3.1929967e-02,2.1784659e-03,-1.6797565e-04,-2.2712312e-03,3.5557301e-04,-3.2651783e-02,-2.8341791e-01,4.3358083e-02
1.3999987e-01,1.1485956e-04,2.5044624e-04,1.1206126e-04,5.5739004e-03,-2.6958109e-03,5.5728735e-03,-6.5665756e-05,-2.3042938e-03,4.7937625e-04,1.0230999e-02,-3.3062642e-03,1.2380335e-02
1.4999986e-01,6.6417548e-05,5.1417874e-05,3.6998027e-05,-4.8437535e-03,-1.9899353e-02,-4.8590242e-03,8.9943155e-07,-7.2098710e-04,9.7042786e-05,6.6565251e-03,1.5833082e-01,-3.8233383e-02
1.5999985e-01,8.5954078e-05,-2.5960624e-05,4.1531520e-07,1.9535936e-03,-7.7379988e-03,1.9531551e-03,3.7284455e-07,-7.2119417e-05,2.9850706e-05,-5.2658750e-05,6.4886830e-02,-6.7192144e-03
1.6999984e-01,4.8841670e-05,-4.4402145e-05,-2.9476583e-05,-3.7119210e-03,-1.8438309e-03,-3.7107281e-03,7.1688258e-05,-1.5342984e-05,-1.4672111e-04,7.1315482e-03,5.6776487e-03,-1.7657198e-02
1.7999983e-01,5.1301251e-05,4.2754281e-05,1.0345843e-05,2.4635520e-04,8.7154228e-03,2.5353039e-04,4.6006436e-05,-8.6831870e-04,1.6876630e-05,-2.5681846e-03,-8.5297653e-02,1.6359789e-02
1.8999982e-01,2.3628855e-05,-1.7664055e-05,-1.9261051e-05,-2.7671686e-03,-6.0412696e-03,-2.7685594e-03,-2.1570754e-05,-2.2741170e-04,-2.0497087e-05,-6.7577254e-03,6.4090761e-02,-3.7373752e-03
2.0000005e-01,1.1782024e-05,-6.6651737e-05,-2.7059991e-05,-1.1849897e-03,-4.8985861e-03,-1.1846120e-03,6.2683983e-05,3.5693141e-06,-2.2435747e-05,8.4252808e-03,2.3097573e-02,-1.9386156e-04
2.1000004e-01,4.3330022e-05,-1.1082881e-04,-7.5249937e-05,3.1546062e-03,-4.4161683e-03,3.1571593e-03,8.7806171e-05,5.7682761e-04,-6.0657696e-05,2.5122211e-03,5.7325884e-02,-3.8221986e-03
2.2000003e-01,1.0888572e-04,2.1434087e-04,5.3337495e-05,6.5524032e-03,3.2502715e-02,6.6291719e-03,-3.9083339e-05,-2.2053296e-03,2.9005027e-04,-1.2688963e-02,-2.7821599e-01,3.5070831e-02
2.3000002e-01,2.8705272e-05,6.0189241e-05,-3.7922534e-06,-8.0187434e-03,-1.5406857e-02,-8.0333383e-03,7.7696797e-05,-9.5904538e-04,6.3166136e-05,1.1678025e-02,1.2462854e-01,-2.2688436e-02
2.4000001e-01,9.2508335e-06,7.2523362e-05,1.9166274e-05,-1.9452109e-03,1.2350230e-03,-1.9446591e-03,-5.8412113e-05,-8.8599178e-04,1.5773990e-04,-1.3610904e-02,7.3053668e-03,9.4573858e-03
2.5000000e-01,1.1853854e-05,1.8195065e-04,6.6001376e-05,2.5845766e-04,1.0942375e-02,2.7695293e-04,-1.6207866e-04,-1.5151889e-03,2.7293247e-04,-1.0366664e-02,-6.2919776e-02,1.1519267e-02
2.5999999e-01,1.7600190e-05,1.5834624e-04,5.0508648e-05,5.7461077e-04,-2.3612145e-03,5.7148073e-04,-1.3179483e-05,-1.3587759e-03,9.4757295e-05,1.4889932e-02,1.5641315e-02,-1.7817534e-02
2.6999998e-01,2.1741205e-05,2.0380153e-04,8.8656301e-05,4.1466367e-04,4.5447364e-03,4.2220747e-04,1.3127304e-04,-1.7756543e-03,8.4404831e-05,1.4445266e-02,-4.1687876e-02,-1.0352473e-03
2.7999997e-01,5.1392173e-05,9.0351901e-05,3.6254311e-05,2.9649265e-03,-1.1348182e-02,2.9529726e-03,-9.2105606e-06,-1.0932375e-03,9.3599986e-05,-1.4048373e-02,6.8241749e-02,9.1951631e-04
2.8999996e-01,4.9054512e-05,9.1702641e-05,5.1450051e-05,-2.3373144e-04,1.3533780e-04,-2.3364859e-04,-4.6704922e-06,-1.1327503e-03,1.5170409e-04,4.5400727e-04,-3.9512921e-03,5.8104162e-03
2.9999995e-01,4.0455578e-05,1.8263829e-04,9.9387260e-05,-8.6019822e-04,9.0950525e-03,-8.4379670e-04,-4.9183324e-05,-1.7858159e-03,1.6652577e-04,-4.4512874e-03,-6.5306617e-02,1.4821695e-03
3.0999994e-01,6.8260350e-06,-8.8490215e-05,-3.7109280e-05,-3.3681380e-03,-2.7114076e-02,-3.3480652e-03,1.7260065e-04,5.3076749e-04,-1.4893631e-04,2.2178419e-02,2.3165856e-01,-3.1546239e-02
3.1999993e-01,4.2419066e-05,-6.6868562e-05,-3.5217474e-05,3.5600463e-03,2.1629837e-03,3.5580704e-03,1.6936781e-04,3.9881726e-04,-1.0499528e-04,-3.2328479e-04,-1.3195035e-02,4.3941074e-03
3.2999992e-01,5.3199953e-05,3.6545501e-05,-1.4840043e-05,1.0784682e-03,1.0340608e-02,1.0854387e-03,4.8104071e-05,-6.9915031e-04,1.1037919e-04,-1.2126385e-02,-1.0979686e-01,2.1537468e-02
3.3999991e-01,9.2486331e-05,2.0030280e-04,9.3470352e-05,3.9255286e-03,1.6367772e-02,3.9648135e-03,-1.2164605e-04,-2.1409629e-03,2.8527991e-04,-1.6975029e-02,-1.4418140e-01,1.7490089e-02
3.4999990e-01,-1.9394848e-06,-1.1039212e-04,-7.3808760e-06,-9.4482002e-03,-3.1064887e-02,-9.4522238e-03,3.2186343e-04,-1.6869370e-04,4.6481281e-04,4.4350991e-02,1.9722711e-01,1.7953307e-02
3.5999990e-01,7.9072246e-05,-6.8351822e-05,-3.6532646e-05,8.1028683e-03,4.2047159e-03,8.0991387e-03,1.7334718e-04,2.5761933e-04,-1.1837601e-04,-1.4851640e-02,4.2631344e-02,-5.8318937e-02
3.6999989e-01,2.9617768e-05,-9.6704781e-05,-6.8062271e-05,-4.9473318e-03,-2.8365450e-03,-4.9428574e-03,2.3241255e-04,4.8463870e-04,-2.4681934e-04,5.9065425e-03,2.2701958e-02,-1.2844346e-02
3.7999988e-01,5.5811174e-05,1.6348782e-04,3.4882317e-05,2.6175600e-03,2.6014902e-02,2.6642758e-03,-5.5261652e-05,-1.7137750e-03,1.3181427e-04,-2.8767447e-02,-2.1984158e-01,3.7863397e-02
3.8999987e-01,1.4702967e-04,3.1306893e-04,1.0557272e-04,9.1116403e-03,1.4936346e-02,9.1676425e-03,-3.2551541e-04,-2.7053678e-03,5.8615508e-04,-2.7025401e-02,-9.9159372e-02,4.5434125e-02
3.9999986e-01,2.7257122e-05,-1.1674111e-05,1.8421422e-05,-1.1980117e-02,-3.2470161e-02,-1.1985729e-02,7.4416221e-05,-2.7397325e-04,-3.6224724e-05,3.9993201e-02,2.4313968e-01,-6.2238040e-02
4.0999985e-01,5.0989116e-05,-7.5389040e-06,3.8644024e-05,2.3735306e-03,4.1261619e-04,2.3730303e-03,2.2213108e-04,-1.5918427e-04,-9.9912836e-05,1.4771500e-02,1.1478909e-02,-6.3688173e-03
4.1999984e-01,5.2234779e-05,1.9160022e-04,9.7968654e-05,1.2589173e-04,1.9913612e-02,1.6707368e-04,6.8060954e-05,-2.1330390e-03,2.4133286e-04,-1.5407027e-02,-1.9738566e-01,3.4124603e-02
4.2999983e-01,6.5765177e-05,2.0965443e-04,5.9102166e-05,1.3524535e-03,1.8022225e-03,1.3578855e-03,-4.5379262e-06,-2.3645469e-03,4.2815486e-04,-7.2598950e-03,-2.3150816e-02,1.8682218e-02
4.3999982e-01,-9.5469263e-05,-1.6811734e-04,-1.3639101e-04,-1.6147562e-02,-3.7781123e-02,-1.6090143e-02,4.4103583e-04,6.8463023e-04,-4.6175424e-04,4.4557419e-02,3.0491800e-01,-8.8990995e-02
4.5000005e-01,4.1386734e-06,1.5403536e-05,-2.7544744e-05,9.9628052e-03,1.8347642e-02,9.9657414e-03,1.3542101e-04,-2.6867786e-04,2.4660456e-05,-3.0560783e-02,-9.5328626e-02,4.8640356e-02
4.6000004e-01,3.2717472e-05,-9.8622427e-06,2.9554878e-05,2.8576013e-03,-2.5272164e-03,2.8576015e-03,1.9802090e-04,-2.4573689e-05,-7.6635389e-05,6.2599954e-03,2.4410440e-02,-1.0129594e-02
4.7000003e-01,8.7907369e-05,1.8621962e-04,1.1700783e-04,5.5171494e-03,1.9597217e-02,5.5597188e-03,1.6146815e-08,-1.9833337e-03,3.3439403e-04,-1.9800495e-02,-1.9587619e-01,4.1102982e-02
4.8000002e-01,4.0762640e-05,2.4474659e-05,2.1177894e-05,-4.7142436e-03,-1.6170631e-02,-4.7280036e-03,2.5741394e-05,-7.9617371e-04,1.3789962e-04,2.5725272e-03,1.1871611e-01,-1.9649461e-02
4.9000001e-01,5.4782950e-06,-3.3401185e-05,-4.4497460e-05,-3.5291185e-03,-5.7862888e-03,-3.5298909e-03,9.8125059e-05,-2.7058023e-04,-3.1952155e-05,7.2383733e-03,5.2559398e-02,-1.6985193e-02
5.0000000e-01,-1.2701593e-05,-1.2211553e-04,-6.5280193e-05,-1.8208259e-03,-8.8720181e-03,-1.8123373e-03,2.7233428e-04,5.8988922e-04,-2.3072926e-04,1.7420939e-02,8.6047028e-02,-1.9877729e-02
5.0999999e-01,9.0882493e-06,-1.1434791e-04,-6.7407377e-05,2.1795747e-03,7.7761807e-04,2.1780927e-03,2.2386316e-04,6.1650009e-04,-1.9024878e-04,-4.8471167e-03,2.6610891e-03,4.0480518e-03
5.1999998e-01,5.7004981e-05,1.4040393e-04,9.4317583e-05,4.7905721e-03,2.5468030e-02,4.8307816e-03,-1.7016130e-05,-1.5088095e-03,1.4026359e-04,-2.4087952e-02,-2.1253117e-01,3.3051269e-02
5.2999997e-01,4.6569654e-05,7.1219011e-05,3.7062811e-05,-1.0429368e-03,-6.9174047e-03,-1.0513513e-03,-6.6839907e-05,-1.1106431e-03,1.2875528e-04,-4.9823825e-03,3.9816685e-02,-1.1508319e-03
5.3999996e-01,4.2581523e-05,4.8179029e-05,-1.2580138e-06,-3.9875088e-04,-2.3036212e-03,-4.0106042e-04,-9.2888909e-08,-9.4819664e-04,1.5654553e-04,6.6747082e-03,1.6244659e-02,2.7790274e-03
5.4999995e-01,6.0084024e-05,1.0318645e-04,4.2340386e-05,1.7502692e-03,5.4983884e-03,1.7576299e-03,4.3874919e-05,-1.3008736e-03,1.2792958e-04,4.3967850e-03,-3.5267728e-02,-2.8615978e-03
5.5999994e-01,-1.0961701e-05,-1.0899296e-04,-6.2044122e-05,-7.1151164e-03,-2.1219148e-02,-7.0904745e-03,4.0559972e-04,5.7360422e-04,-2.7192519e-04,3.6172515e-02,1.8744796e-01,-3.9985515e-02
5.6999993e-01,-4.3802102e-05,1.3518402e-05,-2.0425861e-05,-3.2810390e-03,1.2254500e-02,-3.2745242e-03,2.9422551e-04,-7.2788323e-04,-1.8287633e-04,-1.1137432e-02,-1.3014887e-01,8.9048947e-03
5.7999992e-01,2.9766522e-05,-2.4578736e-05,-3.3252847e-05,7.3553869e-03,-3.8149315e-03,7.3556498e-03,2.5967601e-04,-4.4909135e-04,6.7007913e-05,-3.4549532e-03,2.7879214e-02,2.4988448e-02
5.8999991e-01,8.4019240e-05,2.0530591e-04,1.0099996e-04,5.4205622e-03,2.2977094e-02,5.4779943e-03,-1.2926528e-04,-2.2179612e-03,3.2123997e-04,-3.8894166e-02,-1.7688716e-01,2.5423230e-02
5.9999990e-01,9.9420335e-05,5.0383666e-05,3.1685128e-05,1.5373975e-03,-1.5494060e-02,1.5244323e-03,1.5843132e-04,-1.0286518e-03,1.6814818e-04,2.8769688e-02,1.1893106e-01,-1.5309194e-02
6.0999990e-01,7.4787706e-05,2.0097635e-05,2.0563101e-05,-2.4636592e-03,-3.0260538e-03,-2.4660062e-03,2.2215284e-04,-8.1337385e-04,1.1318359e-04,6.3721574e-03,2.1527817e-02,-5.4964644e-03
6.1999989e-01,2.3601674e-05,-5.4717156e-05,-2.6114991e-05,-5.1204226e-03,-7.4795892e-03,-5.1195655e-03,2.3643341e-04,-1.3412307e-04,-8.9450842e-06,1.4280590e-03,6.7925143e-02,-1.2212879e-02
6.2999988e-01,3.5080043e-05,-2.3016794e-05,-1.9312682e-05,1.1485383e-03,3.1691349e-03,1.1496332e-03,2.3068040e-04,-5.5658775e-04,2.7006917e-05,-5.7530153e-04,-4.2246508e-02,3.5952035e-03
6.3999987e-01,4.9071341e-05,-4.4318937e-05,-1.8421335e-05,1.3980685e-03,-2.1317760e-03,1.3978173e-03,4.3764047e-04,-6.7751536e-04,9.3078201e-05,2.0696026e-02,-1.2092773e-02,6.6071347e-03
6.4999986e-01,7.9323981e-05,-1.8713140e-04,-5.8768854e-05,3.0150570e-03,-1.4282291e-02,3.0305882e-03,7.5219684e-04,4.0977554e-04,-1.7630004e-04,3.1455667e-02,1.0872919e-01,-2.6937850e-02
6.5999985e-01,1.1208945e-04,-1.9280477e-04,-3.3704807e-05,3.2763163e-03,-5.6752498e-04,3.2767508e-03,5.7223234e-04,5.1508830e-04,-2.7988087e-05,-1.7996467e-02,1.0531287e-02,1.4831210e-02
6.6999984e-01,6.9159942e-05,-1.0564456e-04,-7.2037397e-06,-4.2899803e-03,8.7191780e-03,-4.2895336e-03,2.9742915e-04,-4.3617212e-04,8.8927021e-05,-2.7480345e-02,-9.5126133e-02,1.1691522e-02
6.7999983e-01,5.1853949e-05,-5.3022719e-05,-9.0548295e-06,-1.7296935e-03,5.2639551e-03,-1.7261308e-03,1.4862974e-04,-8.7310401e-04,7.2380844e-05,-1.4879955e-02,-4.3693230e-02,-1.6546192e-03
6.8999982e-01,9.7074308e-06,-2.5592579e-04,-1.1462419e-04,-4.2249548e-03,-2.0291929e-02,-4.1965906e-03,4.3596360e-04,8.1852993e-04,-3.4494045e-04,2.8733413e-02,1.6916355e-01,-4.1732169e-02
7.0000005e-01,6.9289950e-05,-2.1055577e-04,-1.0924372e-04,5.9608712e-03,4.5377337e-03,5.9547220e-03,4.2862551e-04,5.6913996e-04,-1.3621864e-04,-7.3379149e-04,-2.4938426e-02,2.0871703e-02
7.1000004e-01,7.2744458e-05,-1.4201210e-04,-2.7826359e-05,3.4946233e-04,6.8541127e-03,3.4659956e-04,5.7663354e-04,-1.7622031e-04,-1.7012216e-04,1.4800817e-02,-7.4536098e-02,-3.3903551e-03
7.2000003e-01,9.9836819e-05,1.2909899e-04,1.2635028e-04,2.7209769e-03,2.7102818e-02,2.7797675e-03,4.5162824e-04,-2.5831939e-03,1.8661589e-04,-1.2500542e-02,-2.4069758e-01,3.5673839e-02
7.3000002e-01,-2.5077240e-05,-2.3204419e-04,-3.4788784e-05,-1.2526474e-02,-3.6104731e-02,-1.2484121e-02,8.2660182e-04,5.7422548e-05,-4.1707416e-04,3.7497393e-02,2.6406189e-01,-6.0369063e-02
7.4000001e-01,5.6786244e-05,-5.4663504e-05,3.3124486e-05,8.1937783e-03,1.7726480e-02,8.2040489e-03,4.7630243e-04,-9.3998212e-04,1.2527318e-04,-3.5029972e-02,-9.9740562e-02,5.4234786e-02
7.5000000e-01,3.8970360e-05,-1.2726169e-04,-2.6799399e-05,-1.7868481e-03,-7.2585907e-03,-1.7813555e-03,6.7684552e-04,-1.5297597e-05,-1.9345214e-04,2.0054328e-02,9.2468541e-02,-3.1872562e-02
7.5999999e-01,2.3913690e-05,1.1478922e-05,3.8144128e-07,-1.4973239e-03,1.3876814e-02,-1.4886441e-03,5.9565998e-04,-1.2326385e-03,5.3156825e-05,-8.1185620e-03,-1.2173421e-01,2.4660920e-02
7.6999998e-01,-2.0661135e-05,-1.6198397e-04,-4.3028328e-05,-4.4683026e-03,-1.7344091e-02,-4.4552727e-03,5.8388147e-04,8.7863338e-05,-1.5445754e-04,-1.1778519e-03,1.3205031e-01,-2.0761456e-02
7.7999997e-01,-5.7694228e-06,-1.1425705e-04,2.8479473e-05,1.4914597e-03,4.7710719e-03,1.4920844e-03,4.9637672e-04,-5.9306034e-04,5.4952781e-05,-8.7504834e-03,-6.8092432e-02,2.0941052e-02
7.8999996e-01,4.1968837e-05,-1.6072552e-04,6.7242773e-06,4.7708491e-03,-4.6516702e-03,4.7721175e-03,6.3432131e-04,-3.7540263e-04,6.8903319e-06,1.3794472e-02,2.1765792e-02,-4.8062494e-03
7.9999995e-01,8.4456962e-05,-2.3286612e-04,-2.0699733e-05,4.2436797e-03,-7.2158351e-03,4.2509462e-03,8.2366484e-04,4.0673756e-04,-1.8986125e-04,1.8934372e-02,7.8214094e-02,-1.9675177e-02
8.0999994e-01,6.4433605e-05,-2.2877816e-04,-6.2065197e-05,-2.0022669e-03,4.0945887e-04,-2.0022728e-03,7.1435615e-04,3.8352205e-04,-1.1083758e-04,-1.0930880e-02,-2.3215537e-03,7.9023744e-03
8.1999993e-01,8.8924837e-06,-2.1749810e-04,-6.0389188e-05,-5.5538780e-03,1.1309138e-03,-5.5537657e-03,5.9687920e-04,7.3405659e-05,-7.8284362e-05,-1.1747706e-02,-3.1011669e-02,3.2553253e-03
8.2999992e-01,5.4343455e-05,-1.1319975e-04,-8.9047659e-06,4.5503804e-03,1.0424373e-02,4.5523694e-03,5.1546034e-04,-6.8782136e-04,2.1255357e-05,-8.1418943e-03,-7.6122775e-02,9.9539814e-03
8.3999991e-01,5.5139569e-05,-1.0360122e-04,1.0332313e-05,8.0135838e-05,9.5973065e-04,8.0557283e-05,5.5097602e-04,-9.8066935e-04,5.6788325e-05,3.5515715e-03,-2.9284826e-02,3.5533002e-03
8.4999990e-01,3.1394851e-05,-1.9346191e-04,-7.6835600e-06,-2.3801864e-03,-8.9840331e-03,-2.3764885e-03,6.0141932e-04,-2.5861207e-04,-1.2984471e-04,5.0443352e-03,7.2205797e-02,-1.8663321e-02
8.5999990e-01,3.9321144e-05,-2.1075495e-04,-4.8093329e-05,7.9162282e-04,-1.7299286e-03,7.9227690e-04,6.4127687e-04,-1.4524537e-04,-1.2864297e-04,3.9857587e-03,1.1336681e-02,1.2017466e-04
8.6999989e-01,5.4618381e-05,-1.0451606e-04,-3.6616484e-05,1.5357174e-03,1.0621809e-02,1.5382126e-03,5.6536439e-04,-7.9769061e-04,9.1217939e-06,-7.5912553e-03,-6.5244586e-02,1.3776489e-02
8.7999988e-01,2.7871678e-05,-6.5460543e-05,-8.1847693e-06,-2.6722991e-03,3.9095179e-03,-2.6712543e-03,5.5703507e-04,-9.2524071e-04,7.3935436e-05,-8.3293290e-04,-1.2755022e-02,6.4813704e-03
8.8999987e-01,3.4043519e-05,-7.1816159e-05,-1.1471441e-05,6.1678148e-04,-6.3634038e-04,6.1678579e-04,5.0019758e-04,-7.6091241e-04,1.3803930e-04,-5.6837538e-03,1.6432846e-02,6.4103920e-03
8.9999723e-01,1.7476983e-05,-2.0092834e-04,-3.1835488e-05,-1.6664213e-03,-1.2913713e-02,-1.6547826e-03,7.1308927e-04,1.6910850e-04,-7.4041125e-05,2.1294774e-02,9.3026577e-02,-2.1213626e-02
9.0999722e-01,4.2374898e-05,-1.1652713e-04,-1.7063722e-05,2.4946011e-03,8.4368795e-03,2.4959868e-03,6.0376376e-04,-6.9971181e-04,1.1578383e-04,-1.0932562e-02,-8.6882114e-02,1.8982513e-02
9.1999722e-01,2.0737754e-05,5.4434972e-05,8.1541127e-05,-2.1536874e-03,1.7102339e-02,-2.1250781e-03,5.5775918e-04,-2.2882864e-03,2.2794200e-04,-4.6004628e-03,-1.5885761e-01,1.1215828e-02
9.2999721e-01,2.8296962e-05,9.1030219e-05,1.0762574e-04,7.5751642e-04,3.6573853e-03,7.6464581e-04,4.8401778e-04,-2.3364996e-03,2.3322911e-04,-7.3741463e-03,-4.8213253e-03,5.2871200e-04
9.3999720e-01,5.0224041e-05,1.1260249e-04,1.1299181e-04,2.1930349e-03,2.1508501e-03,2.1986436e-03,4.5367404e-04,-2.4517784e-03,2.9800554e-04,-3.0343771e-03,-1.1527891e-02,6.4776486e-03
9.4999743e-01,4.9363654e-05,-6.6618042e-06,8.9358086e-05,-9.2434950e-05,-1.1925975e-02,-1.0290111e-04,5.3723321e-04,-1.4132804e-03,1.0327782e-04,8.3557252e-03,1.0384742e-01,-1.9472327e-02
9.5999742e-01,4.8784478e-05,-1.8962917e-04,-2.4025820e-05,-6.8298155e-05,-1.8296720e-02,-5.7226224e-05,5.6711979e-04,3.7523006e-05,-7.0849996e-05,2.9886617e-03,1.4508048e-01,-1.7412798e-02
9.6999741e-01,6.4701220e-05,-1.0197975e-04,-1.2954826e-05,1.5956823e-03,8.7626547e-03,1.6002793e-03,4.7705569e-04,-9.6179819e-04,1.0966876e-04,-9.0064187e-03,-9.9932215e-02,1.8051893e-02
9.7999740e-01,9.1474484e-05,7.0708578e-05,9.1426706e-05,2.6841941e-03,1.7261029e-02,2.7205379e-03,4.3071961e-04,-2.4695277e-03,2.1384337e-04,-4.6336124e-03,-1.5077309e-01,1.0417471e-02
9.8999739e-01,5.2893575e-05,-1.1906166e-04,-7.8633922e-06,-3.8689787e-03,-1.8971953e-02,-3.8721966e-03,5.8049178e-04,-7.3631676e-04,3.4009794e-05,1.4977231e-02,1.7332126e-01,-1.7983375e-02
9.9999738e-01,5.4410662e-05,-2.2596175e-04,-4.7963124e-05,1.4437830e-04,-1.0690072e-02,1.5510228e-04,6.8636286e-04,3.1802580e-04,-4.3968187e-05,1.0587117e-02,1.0543436e-01,-7.7978055e-03
1.0099974e+00,3.5073133e-05,-2.1706646e-04,-6.4020267e-05,-1.9332053e-03,8.9019306e-04,-1.9339988e-03,6.3255041e-04,2.8938344e-04,-7.0504912e-06,-5.3812499e-03,-2.8642393e-03,3.6917731e-03
1.0199974e+00,4.1411538e-05,-1.0942675e-04,-3.9254755e-05,6.4033035e-04,1.0763190e-02,6.4071771e-04,6.0175790e-04,-6.4001945e-04,-1.9013112e-05,-3.0792542e-03,-9.2940377e-02,-1.1962633e-03
1.0299973e+00,7.0251831e-05,4.6651119e-05,4.8997291e-05,2.8926044e-03,1.5599772e-02,2.9186832e-03,5.7589555e-04,-2.1940936e-03,1.4409510e-04,-2.5862374e-03,-1.5540757e-01,1.6310837e-02
1.0399146e+00,4.4892469e-05,-2.0011029e-04,-3.9649108e-05,-2.5727473e-03,-2.4880519e-02,-2.5559622e-03,6.2245292e-04,3.8765295e-05,-6.4954212e-05,4.6945809e-03,2.2514879e-01,-2.1079343e-02
1.0499146e+00,3.0771776e-05,-2.3945907e-04,-4.9820649e-05,-1.4148332e-03,-3.9342018e-03,-1.4111992e-03,6.7754765e-04,1.9683595e-04,-6.8580609e-05,5.5094782e-03,1.5807081e-02,-3.6263999e-04
1.0599146e+00,8.2688642e-05,5.8545099e-05,9.7690125e-05,5.2041282e-03,2.9787169e-02,5.2550432e-03,4.6552515e-04,-2.0781208e-03,2.7648033e-04,-2.1202271e-02,-2.2749590e-01,3.4506127e-02
1.0699146e+00,6.5918140e-05,7.2761646e-05,1.0250014e-04,-1.6755952e-03,1.4264477e-03,-1.6744368e-03,6.1929144e-04,-2.2394656e-03,3.4328072e-04,1.5376643e-02,-1.6134489e-02,6.6800452e-03
1.0799146e+00,-2.3109068e-05,3.1186854e-05,7.4538630e-05,-8.9044083e-03,-4.1368997e-03,-8.9106351e-03,5.8535306e-04,-1.7257606e-03,8.4586899e-05,-3.3938409e-03,5.1370548e-02,-2.5869407e-02
1.0899146e+00,1.7689131e-06,-1.3209324e-04,5.7620295e-06,2.4784980e-03,-1.6330333e-02,2.4819341e-03,5.6738014e-04,-3.6155286e-04,1.5214372e-05,-1.7972937e-03,1.3642090e-01,-6.9372593e-03
1.0999146e+00,4.8893768e-05,-7.4682232e-05,4.4486025e-06,4.7150801e-03,5.7336224e-03,4.7190065e-03,5.8584540e-04,-1.0013335e-03,1.6390749e-04,1.8465278e-03,-6.3978120e-02,1.4869326e-02
1.1099145e+00,9.7505013e-05,9.5132635e-05,1.1564314e-04,4.8672903e-03,1.6967588e-02,4.9033715e-03,4.4271460e-04,-2.4087130e-03,2.7898399e-04,-1.4313094e-02,-1.4073809e-01,1.1507661e-02
1.1199145e+00,1.1742536e-04,1.0829175e-04,9.9756797e-05,1.9921328e-03,1.3100376e-03,1.9958084e-03,4.5908649e-04,-2.4872914e-03,2.5470787e-04,1.6371910e-03,-7.8578389e-03,-2.4276144e-03
1.1299145e+00,3.0245496e-05,-2.0075011e-04,-4.1005852e-05,-8.7389470e-03,-3.0899357e-02,-8.7142356e-03,6.4309509e-04,8.6612490e-05,-1.2389327e-04,1.8400877e-02,2.5739063e-01,-3.7860149e-02
1.1399145e+00,2.5522074e-05,-1.9951938e-04,-3.3397968e-05,-4.7229235e-04,1.2331507e-04,-4.7232981e-04,6.3523458e-04,1.2272866e-04,-5.9233971e-05,-7.8605162e-04,3.6116201e-03,6.4659358e-03
1.1499145e+00,2.5751049e-05,-1.8408976e-04,-1.2991591e-05,2.3854737e-05,1.5429484e-03,2.2913499e-05,6.1856029e-04,-1.2312009e-05,-1.2457626e-04,-1.6674306e-03,-1.3504079e-02,-6.5342355e-03
1.1599145e+00,3.5507027e-05,-1.9289884e-04,-1.8874365e-05,9.7510735e-04,-8.8157005e-04,9.7549315e-04,6.4144279e-04,-3.6119310e-05,-7.5673542e-05,2.2882519e-03,-2.3807324e-03,4.8902769e-03
1.1699145e+00,4.5133577e-05,-2.1683033e-04,-6.4517220e-05,9.6127305e-04,-2.3936610e-03,9.6276819e-04,6.1985417e-04,8.8971221e-05,-1.0469733e-04,-2.1588644e-03,1.2509065e-02,-2.9023820e-03
1.1799145e+00,2.3827437e-05,-2.8011797e-04,-1.0506910e-04,-2.1356897e-03,-6.3284043e-03,-2.1266198e-03,7.3236572e-04,5.6195107e-04,-2.0617679e-04,1.1251166e-02,4.7298030e-02,-1.0147955e-02
1.1899145e+00,5.9803852e-05,-9.4024675e-05,-1.9692367e-05,3.6082747e-03,1.8603780e-02,3.6157484e-03,5.8395935e-04,-9.6024750e-04,6.5808142e-05,-1.4840652e-02,-1.5222000e-01,2.7198519e-02
1.1999147e+00,8.8005757e-05,7.7774473e-05,1.0500641e-04,2.8270979e-03,1.7171774e-02,2.8600475e-03,4.5595307e-04,-2.2741568e-03,3.0518270e-04,-1.2800334e-02,-1.3138792e-01,2.3936908e-02
1.2099147e+00,2.8455950e-05,-5.2737439e-05,7.1449099e-05,-5.9619946e-03,-1.3039639e-02,-5.9732798e-03,5.6742587e-04,-1.3720472e-03,6.6560197e-05,1.1147290e-02,9.0211046e-02,-2.3862273e-02
1.2199147e+00,3.1432545e-05,-4.4620169e-05,4.4097260e-05,2.9811522e-04,8.1114480e-04,2.9879117e-04,5.5994734e-04,-1.3956338e-03,-3.2146011e-06,-7.4785394e-04,-2.3586632e-03,-6.9774864e-03
1.2299147e+00,1.9746112e-05,2.9747569e-05,4.6847370e-05,-1.1644867e-03,7.4398488e-03,-1.1531653e-03,5.4724413e-04,-2.0926712e-03,7.5126445e-05,-1.2703218e-03,-6.9703805e-02,7.8341121e-03
1.2399147e+00,1.1340704e-06,-1.0035897e-04,-2.7058705e-06,-1.8701735e-03,-1.3007670e-02,-1.8731247e-03,6.8293672e-04,-9.2259710e-04,-4.4324832e-05,1.3569272e-02,1.1700752e-01,-1.1945139e-02
1.2499146e+00,4.6893088e-05,-4.6092146e-05,3.8354880e-05,4.5780612e-03,5.4190610e-03,4.5827837e-03,5.4854454e-04,-1.1170528e-03,1.7940300e-04,-1.3439231e-02,-1.9445589e-02,2.2372805e-02
1.2599146e+00,-3.8721370e-05,-1.3274084e-04,5.8418454e-05,-8.5708139e-03,-8.6563513e-03,-8.5607140e-03,8.6615763e-04,-1.2939198e-04,-2.1704953e-04,3.1761340e-02,9.8766176e-02,-3.9645291e-02
1.2698913e+00,4.1700980e-05,5.6993466e-05,1.0038547e-04,8.0694623e-03,1.8996173e-02,8.1037672e-03,5.5470491e-04,-2.1323174e-03,2.6832502e-04,-3.1218243e-02,-2.0076181e-01,4.8651174e-02
1.2798913e+00,6.1009529e-05,7.4579026e-05,7.8091816e-05,1.9311521e-03,1.7533278e-03,1.9353123e-03,4.3706386e-04,-2.2685781e-03,2.4491950e-04,-1.1764116e-02,-1.3626085e-02,-2.3405536e-03
1.2898912e+00,2.1669947e-05,-2.2375621e-04,-3.5826669e-05,-3.9571560e-03,-2.9830636e-02,-3.9328109e-03,7.6520508e-04,2.6229888e-05,-9.3144844e-05,3.2814153e-02,2.2948102e-01,-3.3806467e-02
1.2998912e+00,7.2446522e-05,-2.3087812e-04,-4.8967475e-05,5.0776176e-03,-7.1448640e-04,5.0773847e-03,7.3871219e-04,2.8672580e-04,-9.5078211e-05,-2.6492911e-03,2.6049616e-02,-1.9333685e-04
1.3098912e+00,5.3723789e-05,-2.0651833e-04,-1.9225909e-05,-1.8708848e-03,2.4366267e-03,-1.8728251e-03,6.1314184e-04,2.6821172e-04,-5.5357516e-05,-1.2557047e-02,-1.8514097e-03,3.9720733e-03
1.3198912e+00,-2.1040215e-05,-1.5499919e-04,3.7989694e-05,-7.4741863e-03,5.1583386e-03,-7.4742016e-03,6.7281712e-04,-1.8601098e-04,-1.6678620e-04,5.9675335e-03,-4.5422314e-02,-1.1142879e-02
1.3298912e+00,4.2482313e-05,-1.1794023e-04,-2.1723070e-05,6.3539803e-03,3.6971768e-03,6.3556187e-03,4.8504709e-04,-8.8768927e-04,1.1858363e-05,-1.8777021e-02,-7.0167896e-02,1.7864473e-02
1.3398912e+00,7.3454609e-05,-1.8312713e-04,-2.9826328e-05,3.0937214e-03,-6.5216792e-03,3.0944595e-03,5.9312086e-04,-3.7072724e-04,-1.1489547e-04,1.0807388e-02,5.1696253e-02,-1.2675396e-02
1.3498912e+00,1.1525877e-04,-2.4138666e-05,5.2656909e-05,4.1881882e-03,1.5889899e-02,4.2066368e-03,5.1884913e-04,-1.6192530e-03,1.1493333e-04,-7.4271803e-03,-1.2485270e-01,2.2982902e-02
1.3598912e+00,6.6852995e-05,-5.8707113e-05,6.3296060e-05,-4.8420765e-03,-3.4478658e-03,-4.8454913e-03,5.7792281e-04,-1.2768422e-03,1.0382885e-04,5.9073737e-03,3.4241116e-02,-1.1104487e-03
1.3698912e+00,5.6299375e-05,5.1380213e-05,8.2849737e-05,-1.0501092e-03,1.1011343e-02,-1.0332476e-03,4.5212451e-04,-2.0335981e-03,2.6190050e-04,-1.2579842e-02,-7.5675663e-02,1.5807180e-02
1.3798912e+00,4.1677998e-05,7.9088692e-05,8.8886247e-05,-1.4603550e-03,2.7749630e-03,-1.4561104e-03,5.0609449e-04,-2.3112488e-03,2.6092859e-04,5.3970028e-03,-2.7765098e-02,-9.7190811e-05
1.3898911e+00,2.7414174e-05,-1.0921840e-04,-4.2388655e-05,-1.4390670e-03,-1.8828525e-02,-1.4426108e-03,6.7654112e-04,-8.5879786e-04,3.9342953e-05,1.7044679e-02,1.4524523e-01,-2.2158585e-02
1.3998911e+00,1.1136414e-05,-9.8873819e-05,-1.9656290e-05,-1.6271260e-03,1.0367926e-03,-1.6269439e-03,6.8232329e-04,-7.5185447e-04,-3.3589888e-05,5.7821754e-04,1.0694349e-02,-7.2932910e-03
1.4098911e+00,-3.9230031e-05,-1.0083421e-04,3.5157651e-05,-5.0377164e-03,-1.8840276e-04,-5.0358736e-03,8.4146478e-04,-6.7473591e-04,-1.7946489e-04,1.5914165e-02,7.7118637e-03,-1.4587514e-02
1.4198911e+00,3.5830622e-05,7.4703560e-05,1.3053384e-04,7.5138797e-03,1.7532421e-02,7.5480941e-03,5.5870291e-04,-2.2815417e-03,2.6627514e-04,-2.8276215e-02,-1.6068073e-01,4.4574046e-02
1.4298911e+00,5.5264651e-05,8.5027530e-05,1.3970067e-04,1.9434188e-03,1.0271496e-03,1.9461697e-03,5.1967473e-04,-2.1790025e-03,2.6866311e-04,-3.9028217e-03,1.0253928e-02,2.3879644e-04
1.4398911e+00,3.7555226e-05,-2.6138782e-05,6.3402101e-05,-1.7775175e-03,-1.1113061e-02,-1.7867643e-03,6.0670927e-04,-1.4079554e-03,9.6532567e-05,8.7034628e-03,7.7104781e-02,-1.7213070e-02
1.4498913e+00,4.3046714e-05,-4.7370246e-05,1.6228957e-05,5.4785951e-04,-2.1241819e-03,5.4621128e-04,5.9256308e-04,-1.3859123e-03,3.3730783e-05,-1.4145870e-03,2.2042608e-03,-6.2800346e-03
1.4598913e+00,4.6622400e-05,-1.4615440e-04,-5.3847281e-05,3.5075862e-04,-9.8789436e-03,3.4990427e-04,6.9039276e-04,-7.7489958e-04,-2.7321134e-05,9.7829774e-03,6.1101330e-02,-6.1051976e-03
1.4698913e+00,2.8939864e-05,-2.4184936e-04,-2.0012296e-05,-1.7758829e-03,-9.5681990e-03,-1.7676800e-03,7.7411004e-04,3.6981633e-05,-1.2465143e-04,8.3717361e-03,8.1188199e-02,-9.7330394e-03
1.4798913e+00,1.7804011e-05,-2.5269444e-04,-2.3450398e-05,-1.1144573e-03,-1.0839758e-03,-1.1132340e-03,6.9242422e-04,2.1400010e-04,-1.0800806e-04,-8.1685893e-03,1.7701863e-02,1.6643386e-03
1.4898913e+00,7.2565979e-05,-6.2272278e-05,4.4646877e-05,5.4869002e-03,1.9032087e-02,5.5007132e-03,5.7998950e-04,-1.2694864e-03,6.3031703e-05,-1.1243483e-02,-1.4834879e-01,1.7103993e-02
1.4998913e+00,-3.2817994e-06,-2.9934257e-04,-1.1691289e-04,-7.6082811e-03,-2.3705105e-02,-7.5673186e-03,8.8127472e-04,6.2658343e-04,-3.4372171e-04,3.0128551e-02,1.8960716e-01,-4.0675380e-02
1.5098913e+00,2.8108805e-05,-2.2689781e-04,-7.0956746e-05,3.1455829e-03,7.2422289e-03,3.1377385e-03,7.8766516e-04,7.0283689e-05,-2.5941689e-04,-9.3609651e-03,-5.5630027e-02,8.4304898e-03
1.5198913e+00,5.2860327e-05,-5.4993693e-05,4.6516608e-05,2.4850306e-03,1.7185547e-02,2.4990387e-03,5.8720830e-04,-1.3769181e-03,8.8005760e-05,-2.0045705e-02,-1.4472032e-01,3.4742299e-02
1.5298913e+00,6.5311308e-05,6.0526754e-06,8.5344300e-05,1.2480144e-03,6.1016889e-03,1.2566061e-03,5.2120830e-04,-1.8417025e-03,2.1404064e-04,-6.6000066e-03,-4.6478479e-02,1.2603500e-02
1.5398912e+00,5.3443754e-05,2.1177086e-05,8.5231012e-05,-1.1856884e-03,1.5155080e-03,-1.1839100e-03,5.9129035e-04,-1.9942053e-03,1.4620836e-04,7.0082126e-03,-1.5250294e-02,-6.7832342e-03
1.5498912e+00,3.6546561e-05,-1.1093370e-04,-3.3350554e-05,-1.6972532e-03,-1.3208786e-02,-1.7001618e-03,5.7428745e-04,-7.8627850e-04,3.2170989e-05,-1.7002921e-03,1.2079279e-01,-1.1403748e-02
1.5598912e+00,6.3349767e-05,6.9734983e-05,3.9090745e-05,2.6873038e-03,1.8059972e-02,2.7196375e-03,4.2322041e-04,-2.1395970e-03,2.4820249e-04,-1.5106718e-02,-1.3533198e-01,2.1603170e-02
1.5698912e+00,3.6062109e-05,5.9075124e-05,6.6191179e-05,-2.7287085e-03,-1.0587152e-03,-2.7316579e-03,5.1407817e-04,-2.1493418e-03,2.2265327e-04,9.0857844e-03,-9.7447544e-04,-2.5549236e-03
1.5798912e+00,1.5225782e-05,4.1284739e-05,1.0797357e-04,-2.0844564e-03,-1.7733100e-03,-2.0876936e-03,6.2607354e-04,-2.1216410e-03,1.4000377e-04,1.1199547e-02,2.7700772e-03,-8.2649580e-03
1.5898912e+00,4.7031915e-05,2.9250333e-05,1.0794181e-04,3.1792933e-03,-1.2115453e-03,3.1788622e-03,5.5595323e-04,-1.9922176e-03,2.0543093e-04,-7.0120378e-03,1.2942357e-02,6.5427221e-03
1.5998912e+00,-3.6397604e-05,-3.1697603e-04,-5.7923883e-05,-8.3756276e-03,-3.4621740e-02,-8.3140348e-03,8.7932765e-04,7.7097549e-04,-2.6688387e-04,3.2337473e-02,2.7631957e-01,-4.7231525e-02
1.6098912e+00,9.9846477e-05,5.5904750e-05,5.6586470e-05,1.3636394e-02,3.7250142e-02,1.3716005e-02,4.3909437e-04,-2.3394214e-03,3.2280455e-04,-4.4023370e-02,-3.1103998e-01,5.8968898e-02
1.6198912e+00,1.1598795e-04,4.0420928e-05,3.7092424e-05,1.6130282e-03,-1.5526056e-03,1.6112103e-03,4.7316257e-04,-2.1442268e-03,2.4002264e-04,3.4068235e-03,1.9519471e-02,-8.2781990e-03
1.6298912e+00,6.4196165e-06,-2.6037387e-04,-8.0691163e-05,-1.0983340e-02,-3.0075217e-02,-1.0942087e-02,7.8141080e-04,3.9083121e-04,-2.7342824e-04,3.0824852e-02,2.5350605e-01,-5.1345136e-02
1.6398911e+00,8.4107761e-06,-3.3168725e-04,-1.0223746e-04,1.9400523e-04,-7.1312566e-03,2.0714806e-04,7.2454855e-04,1.1339481e-03,-2.8195131e-04,-5.6862313e-03,7.4311756e-02,-8.5230832e-04
1.6498911e+00,3.7646796e-05,-2.6434598e-04,-3.5774272e-05,2.9295898e-03,6.7326327e-03,2.9210694e-03,7.9887159e-04,2.8637564e-04,-2.0738558e-04,7.4323114e-03,-8.4757322e-02,7.4565809e-03
1.6598911e+00,1.0341410e-04,-2.0188975e-05,4.3532846e-05,6.5871695e-03,2.4400969e-02,6.6209076e-03,4.7768771e-04,-1.7592979e-03,1.8698783e-04,-3.2118418e-02,-2.0456755e-01,3.9437378e-02
1.6698911e+00,3.7909896e-05,-2.3763614e-04,-7.0466064e-05,-6.5666904e-03,-2.1739307e-02,-6.5521654e-03,7.0370465e-04,-1.2437109e-04,-1.4703433e-04,2.2601715e-02,1.6349284e-01,-3.3402247e-02
1.6798911e+00,3.8710096e-05,-1.7869214e-04,-4.8152440e-05,8.3814288e-05,5.8943313e-03,8.1585996e-05,6.4218102e-04,-2.6722769e-04,-1.1088294e-04,-6.1523691e-03,-1.4285674e-02,3.6151417e-03
1.6898911e+00,8.7056808e-05,6.3877703e-05,5.2991361e-05,4.8447733e-03,2.4244205e-02,4.8884837e-03,4.6275186e-04,-2.1723577e-03,2.3308183e-04,-1.7942933e-02,-1.9051318e-01,3.4396510e-02
1.6998913e+00,4.5962662e-05,-1.1642760e-05,3.6613771e-05,-4.1127235e-03,-7.5435154e-03,-4.1212503e-03,5.2211959e-04,-1.5092676e-03,1.3125551e-04,5.9366377e-03,6.6307491e-02,-1.0182399e-02
1.7098913e+00,3.5353509e-05,3.3308556e-05,6.8309595e-05,-1.0585623e-03,4.4977957e-03,-1.0519574e-03,4.7309720e-04,-2.0427788e-03,2.1423484e-04,-4.9022435e-03,-5.3351171e-02,8.2979406e-03
1.7198913e+00,4.3374531e-05,3.9356889e-05,6.9565247e-05,8.0223866e-04,6.0267824e-04,8.0358850e-04,5.1307712e-04,-2.1720140e-03,2.1759863e-04,3.9979954e-03,-1.2923537e-02,3.3637945e-04
1.7298913e+00,5.6087663e-05,4.9905903e-05,6.0548392e-05,1.2716361e-03,1.0512655e-03,1.2740024e-03,5.4720100e-04,-2.3107219e-03,2.0082838e-04,3.4123913e-03,-1.3870802e-02,-1.6770260e-03
1.7398913e+00,1.5537150e-05,-9.9660809e-05,4.9378228e-05,-4.0672660e-03,-1.4951155e-02,-4.0632123e-03,7.7224583e-04,-5.8993297e-04,-1.6320888e-04,2.2504505e-02,1.7207906e-01,-3.6403761e-02
1.7498913e+00,5.8298668e-05,9.0492691e-05,8.6814981e-05,4.2836015e-03,1.9003450e-02,4.3214437e-03,4.6464906e-04,-2.3092971e-03,3.2484832e-04,-3.0759706e-02,-1.7193657e-01,4.8805767e-02
1.7598913e+00,4.8906648e-05,7.6405154e-05,9.5834785e-05,-9.3964112e-04,-1.4061359e-03,-9.4268315e-04,4.8428945e-04,-2.2997111e-03,2.5968094e-04,1.9640406e-03,9.5860255e-04,-6.5167448e-03
1.7698913e+00,7.4957373e-05,5.6495956e-05,7.8785902e-05,2.6035283e-03,-1.9979235e-03,2.6012579e-03,5.0196698e-04,-2.1872591e-03,2.0994652e-04,1.7677551e-03,1.1245205e-02,-4.9734467e-03
1.7798913e+00,-1.2170289e-05,-3.6324283e-04,-1.1206061e-04,-8.7552580e-03,-4.1975056e-02,-8.6645773e-03,9.3186872e-04,1.0676034e-03,-3.8720914e-04,4.2990214e-02,3.2548656e-01,-5.9715623e-02
1.7898912e+00,2.9266522e-05,-2.5471513e-04,-5.5843859e-05,4.1531675e-03,1.0850485e-02,4.1402027e-03,8.1456889e-04,2.6152132e-04,-1.5529663e-04,-1.1729994e-02,-8.0608286e-02,2.3191273e-02
1.7998912e+00,3.2723760e-05,-1.8232283e-04,-1.8156695e-05,3.5107193e-04,7.2389110e-03,3.4715678e-04,7.3159844e-04,-2.0516919e-04,-1.4961028e-04,-8.2970523e-03,-4.6669095e-02,5.6863614e-04
1.8098912e+00,3.9879700e-05,-1.5900404e-04,-4.9231076e-05,7.1718462e-04,2.3309243e-03,7.1711994e-04,6.5841986e-04,-6.7784619e-04,-7.6531477e-05,-7.3178655e-03,-4.7267745e-02,7.3078871e-03
1.8198912e+00,2.8361746e-05,-7.5205939e-05,1.8813582e-05,-1.1473967e-03,8.3819569e-03,-1.1405693e-03,5.1257895e-04,-1.3519668e-03,9.0547872e-05,-1.4584104e-02,-6.7412130e-02,1.6707951e-02
1.8298912e+00,2.5760807e-05,-1.3520796e-04,-1.3673673e-05,-2.6415711e-04,-5.9998160e-03,-2.6498324e-04,6.7785270e-04,-8.1414522e-04,1.6249591e-05,1.6527390e-02,5.3782214e-02,-7.4298351e-03
1.8398912e+00,8.4951114e-05,4.4684585e-07,4.8088609e-05,5.9263272e-03,1.3551342e-02,5.9441038e-03,6.2500505e-04,-1.7614747e-03,2.0042929e-04,-5.2847701e-03,-9.4733042e-02,1.8417988e-02
1.8498912e+00,5.3307647e-05,-1.6090899e-05,3.7172166e-05,-3.1649114e-03,-1.6465960e-03,-3.1675307e-03,6.1718990e-04,-1.6508247e-03,1.4483984e-04,-7.8151507e-04,1.1065009e-02,-5.5589509e-03
1.8598912e+00,7.0538009e-06,-1.9077056e-04,-7.2919611e-05,-4.6360375e-03,-1.7464739e-02,-4.6269765e-03,6.0264336e-04,-9.7914862e-05,-2.6452740e-05,-1.4546554e-03,1.5529114e-01,-1.7129274e-02
1.8698912e+00,1.3206070e-06,-2.1826643e-04,-7.0021230e-05,-5.7552429e-04,-2.7491650e-03,-5.7314704e-04,7.6229079e-04,2.3266057e-05,-1.8931399e-04,1.5964757e-02,1.2118103e-02,-1.6286140e-02
1.8798912e+00,8.5325448e-05,6.6841333e-05,5.2131166e-05,8.4151738e-03,2.8486094e-02,8.4693414e-03,5.8791720e-04,-2.3430268e-03,2.4743489e-04,-1.7437375e-02,-2.3662951e-01,4.3674930e-02
1.8898911e+00,3.0400519e-05,3.5071128e-05,5.9437382e-05,-5.4938639e-03,-3.1614694e-03,-5.5001018e-03,6.3037263e-04,-2.1997448e-03,1.1574945e-04,4.2455470e-03,1.4328216e-02,-1.3168557e-02
1.8998911e+00,2.0800488e-05,2.3445341e-05,7.9742476e-05,-9.6039974e-04,-1.1601162e-03,-9.6258508e-04,4.9712413e-04,-2.0660119e-03,1.8968412e-04,-1.3324863e-02,1.3373304e-02,7.3934738e-03
1.9098911e+00,3.2054757e-05,4.2362037e-05,9.3638208e-05,1.1261600e-03,1.8886802e-03,1.1297113e-03,5.2009694e-04,-2.1331897e-03,2.2363652e-04,2.2972835e-03,-6.7177917e-03,3.3952434e-03
1.9198911e+00,3.6533965e-05,-1.1109756e-04,-2.0618627e-05,4.3805948e-04,-1.5346601e-02,4.3604932e-04,6.4280699e-04,-7.7341718e-04,-6.2729466e-06,1.2271017e-02,1.3597738e-01,-2.2990968e-02
1.9298911e+00,7.5942059e-05,4.2850071e-05,2.9543019e-05,3.9478458e-03,1.5384702e-02,3.9729895e-03,5.0715563e-04,-2.0404882e-03,1.9649877e-04,-1.3565149e-02,-1.2670723e-01,2.0277191e-02
1.9398911e+00,3.3864266e-05,-1.9595056e-04,-3.7974658e-05,-4.2259036e-03,-2.3876127e-02,-4.2120855e-03,7.3576112e-04,-2.0337437e-04,-1.3103442e-04,2.2860571e-02,1.8371156e-01,-3.2753351e-02
1.9498913e+00,3.1052851e-05,6.9597221e-06,5.4706956e-05,-2.7024211e-04,2.0291230e-02,-2.4083510e-04,5.3402125e-04,-1.9888194e-03,2.0391078e-04,-2.0173525e-02,-1.7854041e-01,3.3493753e-02
1.9598913e+00,-6.0914070e-06,-5.4414706e-05,2.8856026e-05,-3.7176700e-03,-6.1297491e-03,-3.7238894e-03,5.8054419e-04,-1.4901067e-03,8.6610191e-05,4.6522986e-03,4.9871320e-02,-1.1730070e-02
1.9698913e+00,4.0683860e-05,-7.4923032e-05,4.6452395e-05,4.6759017e-03,-2.0590651e-03,4.6755442e-03,5.2475339e-04,-1.2350751e-03,1.1815215e-04,-5.5790854e-03,2.5503183e-02,3.1541991e-03
1.9798913e+00,6.3928092e-05,-2.3583267e-04,-9.1918520e-05,2.3131340e-03,-1.6092016e-02,2.3285092e-03,7.1721594e-04,2.6922965e-04,-1.0752461e-04,1.9246273e-02,1.5043062e-01,-2.2567698e-02
1.9898913e+00,5.7903570e-05,-2.1722784e-04,-7.9503833e-05,-6.0100171e-04,1.8608874e-03,-6.0266024e-04,8.5962248e-04,1.9113878e-04,-2.4657575e-04,1.4240667e-02,-7.8090953e-03,-1.3905126e-02
1.9998913e+00,8.2564313e-05,6.8399041e-05,4.0833281e-05,2.4800127e-03,2.8555732e-02,2.5320858e-03,5.0474737e-04,-2.2944375e-03,1.9483469e-04,-3.5487545e-02,-2.4855787e-01,4.4141086e-02
2.0098913e+00,2.5476474e-05,-1.0921144e-05,3.5923399e-05,-5.7108125e-03,-7.9198245e-03,-5.7236866e-03,4.0851802e-04,-1.7262513e-03,2.1311454e-04,-9.6229437e-03,5.6818676e-02,1.8279862e-03
2.0198913e+00,6.4924013e-05,5.7534944e-06,6.7345910e-05,3.9443228e-03,1.6568320e-03,3.9496699e-03,5.1212829e-04,-2.1816642e-03,3.2653585e-04,1.0361037e-02,-4.5541337e-02,1.1342141e-02
2.0298913e+00,8.5845733e-05,-2.1040555e-05,5.9085038e-05,2.0902938e-03,-2.6842363e-03,2.0878590e-03,6.5109922e-04,-1.6588731e-03,6.4576078e-05,1.3897106e-02,5.2279167e-02,-2.6196002e-02
2.0398912e+00,7.5465558e-05,1.7344732e-05,2.5900136e-05,-1.0353020e-03,3.8413507e-03,-1.0302770e-03,6.6697282e-04,-2.0564030e-03,1.5039348e-04,1.5873615e-03,-3.9753037e-02,8.5817482e-03
2.0498912e+00,-8.7799654e-06,-7.0664854e-05,-3.6106766e-06,-8.4326846e-03,-8.7811732e-03,-8.4370779e-03,7.8048620e-04,-1.5676863e-03,-1.4930455e-04,1.1351349e-02,4.8871720e-02,-2.9969832e-02
2.0598912e+00,7.5191511e-05,7.2387496e-05,6.9376136e-05,8.4025799e-03,1.4281034e-02,8.4328705e-03,5.6406017e-04,-2.3140535e-03,3.1475620e-04,-2.1642623e-02,-7.4636792e-02,4.6406120e-02
2.0698912e+00,2.8524039e-05,4.2845299e-05,8.0244306e-05,-4.6676180e-03,-2.9423418e-03,-4.6733864e-03,6.0165872e-04,-1.9424810e-03,1.9503419e-04,3.7598587e-03,3.7157289e-02,-1.1972213e-02
2.0798912e+00,3.4787895e-06,-1.1718829e-04,1.0584959e-05,-2.5169798e-03,-1.6000245e-02,-2.5120305e-03,7.5637146e-04,-4.9082098e-04,-1.3923796e-04,1.5471288e-02,1.4516614e-01,-3.3427247e-02
2.0898912e+00,-1.4948083e-05,-1.4551909e-04,-2.7980715e-05,-1.8451534e-03,-2.8304316e-03,-1.8442959e-03,7.8119084e-04,-6.5665530e-04,-1.3664881e-04,2.4819407e-03,-1.6583447e-02,2.5891534e-04
2.0998912e+00,2.2706432e-05,-1.5913491e-04,-6.8038822e-05,3.7647247e-03,-1.3669718e-03,3.7642329e-03,7.2331209e-04,-7.0792530e-04,-6.7845427e-05,-5.7878809e-03,-5.1270055e-03,6.8803450e-03
2.1098912e+00,4.6964282e-05,-1.3756874e-04,-1.9183371e-05,2.4269765e-03,2.1536051e-03,2.4272753e-03,6.0827323e-04,-6.3396645e-04,5.0354146e-05,-1.1503896e-02,7.3958918e-03,1.1819969e-02
2.1198912e+00,2.3644483e-05,-1.9778389e-04,9.6636930e-06,-2.3363537e-03,-6.0198402e-03,-2.3319463e-03,7.1909468e-04,-1.0572934e-06,-1.8066057e-05,1.1082155e-02,6.3290976e-02,-6.8420268e-03
2.1298912e+00,-5.6217822e-07,-1.4720713e-04,2.4573532e-05,-2.4175465e-03,5.0595625e-03,-2.4198576e-03,7.0446073e-04,-7.3069257e-05,-1.8246803e-04,-1.4633959e-03,-7.2012032e-03,-1.6440213e-02
2.1398911e+00,-1.4537553e-05,-1.8039925e-04,-7.0220591e-06,-1.4005810e-03,-3.3178164e-03,-1.3978161e-03,8.1346488e-04,-1.8704231e-04,-2.4516096e-04,1.0900426e-02,-1.1397317e-02,-6.2692997e-03
2.1498911e+00,-1.1529963e-05,-2.1104199e-04,-9.8424853e-05,2.9858857e-04,-3.0645796e-03,2.9983659e-04,7.2501363e-04,-2.8460031e-04,-1.6940730e-04,-8.8451335e-03,-9.7558090e-03,7.5753737e-03
2.1598911e+00,5.1807354e-06,-2.2608541e-04,-7.1509823e-05,1.6703333e-03,-1.5059170e-03,1.6703920e-03,7.1628649e-04,-2.2561417e-04,-2.0339892e-04,-8.7271508e-04,5.8986198e-03,-3.3991657e-03
2.1698911e+00,4.8186817e-05,-2.3056163e-04,-4.8436299e-05,4.3006628e-03,-4.5048826e-04,4.3002625e-03,6.9508924e-04,2.8561395e-05,-8.4338752e-05,-2.1197273e-03,2.5417581e-02,1.1906029e-02
2.1798911e+00,5.0673566e-05,-1.1012139e-04,5.3390500e-05,2.5795105e-04,1.2043707e-02,2.5502568e-04,7.6779488e-04,-5.2976078e-04,-1.1529913e-04,7.2705712e-03,-5.5832271e-02,-3.0960409e-03
2.1898911e+00,1.2819666e-05,-1.1101915e-04,4.9816386e-05,-3.7860740e-03,-8.4808201e-05,-3.7848278e-03,8.2703365e-04,-4.8528314e-04,-1.6045950e-04,5.9238827e-03,4.4477682e-03,-4.5160412e-03
2.1998913e+00,6.7551755e-06,-1.0196396e-04,-3.6731795e-05,-6.0586058e-04,9.0641356e-04,-6.0564077e-04,6.3242720e-04,-8.7856495e-04,2.8954575e-06,-1.9460200e-02,-3.9327281e-02,1.6335122e-02
2.2098913e+00,8.7090037e-06,-9.6562355e-05,-4.0861774e-05,1.9571287e-04,5.3983299e-04,1.9595883e-04,6.1368396e-04,-1.0635070e-03,8.1490987e-06,-1.8743257e-03,-1.8494225e-02,5.2536462e-04
2.2198913e+00,1.8124936e-06,-4.0476718e-05,2.3639904e-05,-6.8529818e-04,5.6100430e-03,-6.8196021e-04,7.7629798e-04,-1.3710173e-03,-9.2278292e-07,1.6261418e-02,-3.0751061e-02,-9.0718903e-04
2.2298913e+00,1.4968722e-05,-2.2555861e-05,5.5809966e-05,1.3169092e-03,1.7890630e-03,1.3184516e-03,7.7976310e-04,-1.5169981e-03,8.5019972e-05,3.4651295e-04,-1.4598090e-02,8.5942837e-03
2.2398913e+00,3.6716067e-05,-1.2656714e-04,5.8646566e-06,2.1680513e-03,-1.0404288e-02,2.1663256e-03,6.2685396e-04,-8.2428655e-04,7.5828405e-05,-1.5290929e-02,6.9271220e-02,-9.1915755e-04
2.2498913e+00,2.8499330e-05,-1.4119517e-04,2.8291030e-06,-8.2247945e-04,-1.4618382e-03,-8.2258928e-04,5.5180481e-04,-6.2425520e-04,2.5307780e-06,-7.5049223e-03,2.0003154e-02,-7.3297697e-03
2.2598913e+00,7.5114105e-05,5.2571022e-05,7.6651604e-05,4.6707625e-03,1.9363383e-02,4.7070478e-03,5.3404162e-04,-2.2973627e-03,2.2880039e-04,-1.7763199e-03,-1.6731091e-01,2.2626983e-02
2.2698913e+00,4.4892430e-05,-1.0264797e-04,1.1017812e-05,-3.0348798e-03,-1.5516731e-02,-3.0360225e-03,8.0855839e-04,-9.0299326e-04,-5.2935319e-05,2.7451702e-02,1.3943708e-01,-2.8173598e-02
2.2798913e+00,-7.9118403e-06,-4.0918253e-04,-1.2053924e-04,-5.3133213e-03,-3.0655297e-02,-5.2367396e-03,1.0449171e-03,1.3971633e-03,-1.6321062e-04,2.3635895e-02,2.3001587e-01,-1.1027541e-02
2.2898912e+00,-1.1248098e-04,-6.0454506e-04,-1.6623136e-04,-1.0482468e-02,-1.9548375e-02,-1.0408619e-02,1.2202838e-03,2.3847197e-03,-1.6378665e-04,1.7536689e-02,9.8755736e-02,-5.7602860e-05
2.2998912e+00,-1.3084468e-04,-3.9402151e-04,-5.1504903e-05,-1.8166568e-03,2.1052671e-02,-1.8525272e-03,8.9309361e-04,7.2445863e-04,4.9691384e-04,-3.2719054e-02,-1.6602626e-01,6.6070113e-02
2.3098912e+00,-3.5011203e-04,-3.9582338e-04,-4.9542075e-05,-2.1919084e-02,-1.6886087e-04,-2.1934515e-02,1.0363206e-03,5.1960789e-04,3.5779838e-04,1.4322712e-02,-2.0485094e-02,-1.3911560e-02
2.3198912e+00,-8.3378646e-04,-7.4022961e-04,-2.7350598e-04,-4.8465725e-02,-3.4478485e-02,-4.8242039e-02,1.8943452e-03,2.6821359e-03,-6.8416946e-04,8.5802543e-02,2.1625301e-01,-1.0419688e-01
2.3298912e+00,-1.3248251e-03,-1.1996996e-03,-4.4807020e-04,-4.9318453e-02,-4.6106236e-02,-4.8738320e-02,2.6118553e-03,5.8846438e-03,-1.9304961e-03,7.1751077e-02,3.2025109e-01,-1.2463278e-01
2.3398912e+00,-1.5369829e-03,-1.0894779e-03,-3.0870232e-04,-2.1219908e-02,1.0973067e-02,-2.1237146e-02,2.7568378e-03,5.0713632e-03,-1.6308411e-03,1.4498262e-02,-8.1328130e-02,2.9965528e-02
2.3498912e+00,-1.6227590e-03,-9.0801832e-04,-8.0890696e-05,-8.5366680e-03,1.8145993e-02,-8.6183312e-03,2.7364970e-03,2.7212116e-03,-1.0193310e-03,-2.0340796e-03,-2.3501539e-01,6.1151071e-02
2.3598912e+00,-1.6156406e-03,-7.6272500e-04,-1.3959569e-05,7.4697832e-04,1.4529006e-02,6.8216847e-04,2.4069842e-03,2.0311853e-03,-2.2648240e-04,-3.2951311e-02,-6.9002700e-02,7.9284932e-02
2.3698912e+00,-1.7526432e-03,-7.4194514e-04,4.5205859e-06,-1.3691607e-02,2.0848376e-03,-1.3707911e-02,2.3404074e-03,1.8393189e-03,2.7544645e-04,-6.6576850e-03,-1.9186655e-02,5.0192933e-02
2.3798912e+00,-2.0599887e-03,-7.1968536e-04,-3.3226681e-06,-3.0733784e-02,2.2432952e-03,-3.0734115e-02,2.1677117e-03,1.6042761e-03,-1.3349401e-04,-1.7269585e-02,-2.3504297e-02,-4.0894086e-02
2.3898911e+00,-2.7108375e-03,-9.1582258e-04,5.4614346e-05,-6.5180789e-02,-1.9552183e-02,-6.5007488e-02,2.8526204e-03,1.9097666e-03,-6.1734284e-04,6.8490932e-02,3.0549078e-02,-4.8384929e-02
2.3998911e+00,-3.1952920e-03,-8.7945331e-04,2.0509261e-04,-4.8427096e-02,3.7743706e-03,-4.8453386e-02,2.5351194e-03,-3.0208769e-04,1.8633373e-04,-3.1750132e-02,-2.2118564e-01,8.0367733e-02
2.4098911e+00,-3.9317850e-03,-1.9882956e-03,-3.6623333e-04,-7.4304435e-02,-1.1116545e-01,-7.2559552e-02,4.4227403e-03,8.3253688e-03,-2.2479845e-03,1.8876227e-01,8.6274647e-01,-2.4343205e-01
2.4198911e+00,-4.3470573e-03,-1.3867851e-03,-1.0540531e-04,-4.1340967e-02,6.0183233e-02,-4.1666367e-02,4.0403123e-03,3.2515964e-03,-1.3751617e-03,-3.8242831e-02,-5.0737772e-01,8.7282363e-02
2.4298911e+00,-4.8044563e-03,-1.4060427e-03,1.5412734e-04,-4.5772625e-02,-1.5780637e-03,-4.5720569e-02,5.8796152e-03,-1.7222187e-03,-4.8430759e-04,1.8393046e-01,-4.9738198e-01,8.9085495e-02
2.4398911e+00,-5.5077212e-03,-1.3433087e-03,-7.8720306e-06,-7.0389715e-02,6.4513647e-03,-7.0247230e-02,3.7897842e-03,1.2602847e-03,-1.2440650e-03,-2.0898331e-01,2.9825063e-01,-7.5975809e-02
2.4498913e+00,-6.1222624e-03,-1.5629900e-03,-5.3134850e-05,-6.1658216e-02,-2.1797518e-02,-6.1307273e-02,4.3378689e-03,1.5764022e-03,-1.8044183e-03,5.4807218e-02,3.1611020e-02,-5.6034050e-02
2.4598913e+00,-6.4323272e-03,-1.0695170e-03,3.2102461e-04,-3.0833788e-02,4.9581815e-02,-3.0804045e-02,4.1647869e-03,-3.4239803e-03,-1.0669527e-03,-1.7308218e-02,-5.0003873e-01,7.3746624e-02
2.4698913e+00,-6.9674396e-03,-2.0966572e-03,1.2565389e-04,-5.4359787e-02,-1.0227710e-01,-5.3493132e-02,7.2942038e-03,-8.2262481e-04,-1.8838515e-03,3.1294199e-01,2.6013580e-01,-8.1689957e-02
2.4798913e+00,-7.4393855e-03,-2.3737969e-03,1.0273704e-04,-4.7448613e-02,-2.7372603e-02,-4.7139174e-02,7.4293010e-03,2.1194764e-04,-1.0470758e-03,1.3509734e-02,1.0345734e-01,8.3677658e-02
2.4898913e+00,-7.7865101e-03,-2.2278963e-03,2.6817067e-04,-3.4609232e-02,1.4878973e-02,-3.4692960e-02,7.1813026e-03,-1.1526128e-03,-6.9456358e-05,-2.4799862e-02,-1.3645618e-01,9.7762033e-02
2.4998913e+00,-8.4432744e-03,-1.6076695e-03,4.2039177e-04,-6.5342822e-02,6.2522962e-02,-6.5534884e-02,5.1198675e-03,-2.5113064e-03,2.3247278e-04,-2.0614371e-01,-1.3586949e-01,3.0192942e-02
2.5098913e+00,-9.4352529e-03,-2.0013296e-03,3.4408392e-04,-9.9447979e-02,-3.8708304e-02,-9.9206438e-02,6.1706702e-03,-4.5244475e-04,-9.0819435e-05,1.0508037e-01,2.0588636e-01,-3.2329252e-02
2.5198913e+00,-1.0373889e-02,-2.0006589e-03,3.8623287e-04,-9.3904476e-02,7.8661968e-04,-9.3819544e-02,6.2564625e-03,-1.4101338e-03,-4.5903713e-04,8.5792466e-03,-9.5769000e-02,-3.6821805e-02
2.5298309e+00,-1.1347495e-02,-2.4441886e-03,3.4645845e-04,-9.8370228e-02,-4.4020768e-02,-9.7804086e-02,7.0669693e-03,9.3964435e-04,-1.0800653e-03,8.1542622e-02,2.3640403e-01,-6.2479753e-02
2.5398309e+00,-1.2332139e-02,-3.3012169e-03,3.5338680e-04,-9.9555039e-02,-8.4757960e-02,-9.8185428e-02,1.0224027e-02,6.7414536e-04,-2.2316921e-03,3.1570610e-01,-2.6549924e-02,-1.1516279e-01
2.5498309e+00,-1.2987761e-02,-3.5474313e-03,2.9497062e-04,-6.5951780e-02,-2.3975640e-02,-6.5410858e-02,1.0801318e-02,9.7464794e-04,-1.9444232e-03,5.7729111e-02,3.0050286e-02,2.8726914e-02
2.5598309e+00,-1.3567520e-02,-3.7425237e-03,4.8071009e-05,-5.8302318e-02,-1.9215402e-02,-5.7746305e-02,1.0199147e-02,5.1638953e-03,-2.2522989e-03,-6.0217165e-02,4.1892514e-01,-3.0787593e-02
2.5698309e+00,-1.4029874e-02,-3.8466414e-03,1.4832943e-04,-4.6400680e-02,-1.0192816e-02,-4.6118531e-02,1.0392677e-02,5.6797227e-03,-1.2885949e-03,1.9352988e-02,5.1582784e-02,9.6370485e-02
2.5798309e+00,-1.4575066e-02,-3.6660501e-03,5.5230640e-04,-5.4287131e-02,1.8729235e-02,-5.4524681e-02,-6.2711483e+00,-2.7804287e-04,1.9695374e-04,-6.2815469e+02,-5.9577712e-01,1.4855501e-01
2.5898309e+00,-1.5417377e-02,-3.2327073e-03,6.2836039e-04,-8.3825551e-02,4.4241487e-02,-8.4164337e-02,9.9538887e-03,-8.4223731e-04,-3.5406151e-04,6.2811081e+02,-5.6419499e-02,-5.5101577e-02
2.5998309e+00,-1.6415647e-02,-3.3804250e-03,7.0312321e-04,-1.0002691e-01,-1.3628031e-02,-9.9789762e-02,1.0386606e-02,-1.0633933e-03,-5.1879626e-04,4.3271809e-02,-2.2115616e-02,-1.6473491e-02
2.6098309e+00,-1.7654731e-02,-4.2548165e-03,5.4660947e-04,-1.2529740e-01,-8.5780388e-02,-1.2367112e-01,-6.2697684e+00,9.2564433e-05,-1.8329319e-03,-6.2801609e+02,1.1559588e-01,-1.3141369e-01
2.6198308e+00,-1.8583522e-02,-4.1970848e-03,3.9493120e-04,-9.3034269e-02,6.6437886e-03,-9.2665527e-02,-6.2710365e+00,2.7770154e-03,-2.5018125e-03,-1.2680984e-01,2.6844536e-01,-6.6888129e-02
2.6298308e+00,-1.9337134e-02,-4.3387157e-03,3.4820707e-04,-7.5710387e-02,-1.3411480e-02,-7.5148632e-02,-6.2708181e+00,2.4140746e-03,-2.3871885e-03,2.1839244e-02,-3.6294118e-02,1.1462412e-02
2.6398308e+00,-2.0027074e-02,-4.4735490e-03,3.7301639e-04,-6.9303806e-02,-1.2773681e-02,-6.8818361e-02,-6.2706581e+00,2.2616003e-03,-2.1226100e-03,1.5997614e-02,-1.5247442e-02,2.6457875e-02
2.6498308e+00,-2.0551733e-02,-4.5842014e-03,5.0158722e-04,-5.2687357e-02,-1.0458583e-02,-5.2368354e-02,-6.2700947e+00,1.5479522e-03,-1.5467935e-03,5.6342768e-02,-7.1364878e-02,5.7581708e-02
2.6598308e+00,-2.1175660e-02,-4.6884199e-03,5.4488525e-04,-6.2576099e-02,-9.6726434e-03,-6.2329776e-02,-6.2698443e+00,1.3485707e-03,-7.9935000e-04,2.5036386e-02,-1.9938176e-02,7.4744421e-02
2.6698308e+00,-2.2099376e-02,-4.8601851e-03,5.4699029e-04,-9.2682839e-02,-1.6082733e-02,-9.2256840e-02,-6.2692338e+00,2.1301432e-03,-8.7206008e-04,6.1050788e-02,7.8157331e-02,-7.2710145e-03
2.6798308e+00,-2.2967510e-02,-5.1109939e-03,6.2947206e-04,-8.7239390e-02,-2.4078561e-02,-8.6670247e-02,-6.2686292e+00,3.0439514e-03,-8.0687043e-04,6.0454322e-02,9.1380904e-02,6.5189709e-03
2.6898308e+00,-2.3861712e-02,-5.0443812e-03,7.4478424e-04,-8.9417616e-02,7.9289011e-03,-8.9319512e-02,-6.2683427e+00,6.5862680e-04,-1.1864821e-03,2.8654751e-02,-2.3853269e-01,-3.7961201e-02
2.6998310e+00,-2.4957510e-02,-5.7224340e-03,5.8380845e-04,-1.1096463e-01,-6.6350860e-02,-1.0906934e-01,-6.2666261e+00,3.3966931e-03,-2.5553543e-03,1.7165344e-01,2.7380036e-01,-1.3688409e-01
2.7098310e+00,-2.5871899e-02,-5.9101195e-03,7.3721952e-04,-9.1969667e-02,-1.7247048e-02,-9.1206173e-02,-6.2654777e+00,1.1017739e-03,-2.3284079e-03,1.1483911e-01,-2.2949213e-01,2.2694664e-02
2.7198310e+00,-2.6590181e-02,-6.3921122e-03,7.3655433e-04,-7.2828627e-02,-4.7081256e-02,-7.1561948e-02,-6.2645643e+00,3.1790657e-03,-1.6075031e-03,9.1346079e-02,2.0772938e-01,7.2090547e-02
2.7298310e+00,-2.7120948e-02,-6.0679650e-03,9.4396744e-04,-5.2478135e-02,3.3370413e-02,-5.3079845e-02,-6.2647697e+00,3.0571369e-04,-1.3639731e-04,-2.0545916e-02,-2.8733548e-01,1.4711072e-01
2.7398310e+00,-2.8014127e-02,-5.9757050e-03,9.5589088e-04,-8.9122341e-02,1.1013674e-02,-8.9310833e-02,-6.2648094e+00,-1.6572131e-03,1.2336821e-04,-3.9712452e-03,-1.9629286e-01,2.5976576e-02
2.7498310e+00,-2.9220628e-02,-6.1841259e-03,8.3221609e-04,-1.2113008e-01,-1.8201449e-02,-1.2059657e-01,-6.2641128e+00,-2.7859875e-03,-8.6540230e-04,6.9663510e-02,-1.1287755e-01,-9.8877145e-02
2.7598310e+00,-3.0500551e-02,-6.7944017e-03,7.6691822e-04,-1.2949025e-01,-5.8230220e-02,-1.2778899e-01,-6.2624524e+00,-1.0241183e-03,-2.0343721e-03,1.6604330e-01,1.7618709e-01,-1.1689709e-01
2.7698309e+00,-3.1629363e-02,-7.2778746e-03,8.3421048e-04,-1.1416669e-01,-4.5926191e-02,-1.1259926e-01,-6.2613622e+00,4.7593373e-04,-2.2816800e-03,1.0901964e-01,1.5000534e-01,-2.4730821e-02
2.7798309e+00,-3.2600146e-02,-7.3593674e-03,9.4802657e-04,-9.7400685e-02,-6.1241308e-03,-9.6904327e-02,-6.2615443e+00,7.9936735e-04,-1.7388704e-03,-1.8208461e-02,3.2343392e-02,5.4281018e-02
2.7898309e+00,-3.3399931e-02,-7.4239386e-03,1.0100813e-03,-8.0159535e-02,-4.9138044e-03,-7.9907051e-02,-6.2619400e+00,1.9669010e-03,-7.7368892e-04,-3.9572201e-02,1.1675348e-01,9.6518236e-02
2.7998309e+00,-3.4436600e-02,-7.4582371e-03,1.0831958e-03,-1.0375468e-01,-1.2678293e-03,-1.0362820e-01,-6.2613454e+00,9.9095526e-04,-3.6207825e-04,5.9459764e-02,-9.7594669e-02,4.1161106e-02
2.8098309e+00,-3.5748953e-02,-7.6852282e-03,1.1846885e-03,-1.3179113e-01,-1.9841662e-02,-1.3114163e-01,-6.2604964e+00,9.5856139e-04,-5.6796172e-04,8.4901653e-02,-3.2393894e-03,-2.0588367e-02
2.8198309e+00,-3.7369449e-02,-8.1974093e-03,1.0673662e-03,-1.6344992e-01,-4.7748327e-02,-1.6170274e-01,-6.2593048e+00,2.5607138e-03,-1.3792709e-03,1.1915509e-01,1.6021539e-01,-8.1130991e-02
2.8298309e+00,-3.8965533e-02,-8.2016706e-03,1.0833999e-03,-1.5987990e-01,3.6619885e-03,-1.5929531e-01,-6.2588274e+00,-1.2595612e-03,-1.9333064e-03,4.7744578e-02,-3.8202787e-01,-5.5403603e-02
2.8398309e+00,-4.0791184e-02,-9.5585392e-03,6.4352115e-04,-1.8690973e-01,-1.3154782e-01,-1.8119328e-01,-6.2555926e+00,5.2293088e-03,-3.6796011e-03,3.2348142e-01,6.4888762e-01,-1.7462964e-01
2.8498309e+00,-4.2058270e-02,-8.8946330e-03,1.1712088e-03,-1.2517177e-01,7.0111826e-02,-1.2623119e-01,-6.2561070e+00,-2.4924525e-03,-2.4255290e-03,-5.1444230e-02,-7.7217686e-01,1.2540733e-01
2.8598309e+00,-4.3388086e-02,-9.1980409e-03,1.2149907e-03,-1.3406000e-01,-2.6375724e-02,-1.3274445e-01,-6.2554741e+00,-2.0255382e-03,-2.1728944e-03,6.3296009e-02,4.6691475e-02,2.5263488e-02
2.8698308e+00,-4.4667368e-02,-9.7297165e-03,1.2439032e-03,-1.2977118e-01,-4.9257466e-02,-1.2763705e-01,-6.2542300e+00,-1.4433000e-03,-2.7967207e-03,1.2440955e-01,5.8223876e-02,-6.2382694e-02
2.8798308e+00,-4.5918820e-02,-1.0292763e-02,1.2663194e-03,-1.2708733e-01,-5.2742246e-02,-1.2473968e-01,-6.2534394e+00,1.4785719e-03,-2.5826145e-03,7.9058775e-02,2.9218747e-01,2.1410637e-02
2.8898308e+00,-4.7062355e-02,-1.0414894e-02,1.4921988e-03,-1.1488625e-01,-8.6509563e-03,-1.1414449e-01,-6.2529044e+00,-8.2676363e-04,-1.8845028e-03,5.3501585e-02,-2.3053378e-01,6.9811243e-02
2.8998308e+00,-4.8439889e-02,-1.0979383e-02,1.4121277e-03,-1.3966570e-01,-5.2311017e-02,-1.3746139e-01,-6.2521099e+00,1.2318194e-03,-1.6327719e-03,7.9449342e-02,2.0585850e-01,2.5173115e-02
2.9098308e+00,-4.9812484e-02,-1.0945013e-02,1.5447938e-03,-1.3720068e-01,7.8354924e-03,-1.3713782e-01,-6.2523467e+00,-1.2240134e-03,-8.1872742e-04,-2.3682865e-02,-2.4558351e-01,8.1404522e-02
2.9198308e+00,-5.1389517e-02,-1.1224608e-02,1.5722722e-03,-1.5876923e-01,-2.2548842e-02,-1.5750051e-01,-6.2512363e+00,-2.2788636e-03,-1.6060326e-03,1.1104014e-01,-1.0548512e-01,-7.8730593e-02
2.9298308e+00,-5.3170694e-02,-1.2283506e-02,1.4696298e-03,-1.8228023e-01,-9.9290555e-02,-1.7770733e-01,-6.2479328e+00,-1.4394935e-03,-3.0417343e-03,3.3034753e-01,8.3937098e-02,-1.4357031e-01
2.9398308e+00,-5.4876106e-02,-1.2807131e-02,1.2787192e-03,-1.7276296e-01,-4.7111652e-02,-1.6983515e-01,-6.2490513e+00,3.5291613e-03,-3.1360696e-03,-1.1184629e-01,4.9686595e-01,-9.4335406e-03
2.9498310e+00,-5.6494314e-02,-1.3600468e-02,1.1460718e-03,-1.6526632e-01,-7.4451026e-02,-1.6064617e-01,-6.2471855e+00,6.1833599e-03,-4.3274737e-03,1.8657421e-01,2.6541379e-01,-1.1913769e-01
2.9598310e+00,-5.7978246e-02,-1.4132149e-02,1.1203135e-03,-1.5095328e-01,-4.8720226e-02,-1.4733447e-01,-6.2458740e+00,7.6227150e-03,-4.5927724e-03,1.3115339e-01,1.4393565e-01,-2.6529894e-02
2.9698310e+00,-5.9304927e-02,-1.3959584e-02,1.5679329e-03,-1.3235545e-01,2.2284505e-02,-1.3223063e-01,-6.2447198e+00,4.6223214e-04,-3.3899209e-03,1.1542061e-01,-7.1604897e-01,1.2028526e-01
2.9798310e+00,-6.0832592e-02,-1.3759063e-02,1.7835585e-03,-1.5233261e-01,2.5691982e-02,-1.5235514e-01,-6.2465368e+00,-3.6672785e-04,-2.6431390e-03,-1.8170658e-01,-8.2896079e-02,7.4678261e-02
2.9898310e+00,-6.2487655e-02,-1.4135698e-02,1.9294040e-03,-1.6722734e-01,-3.1169391e-02,-1.6512659e-01,-6.2454255e+00,-1.3278915e-03,-2.5230112e-03,1.1113631e-01,-9.6116454e-02,1.2012796e-02
2.9998310e+00,-6.4384836e-02,-1.5245892e-02,1.6608243e-03,-1.9482172e-01,-1.0404186e-01,-1.8849711e-01,-6.2430558e+00,3.8315904e-03,-4.2376984e-03,2.3696942e-01,5.1594868e-01,-1.7146888e-01
3.0098310e+00,-6.6043080e-02,-1.5308300e-02,1.8736812e-03,-1.6656619e-01,4.2266301e-04,-1.6519698e-01,-6.2424406e+00,5.8268941e-04,-3.7764559e-03,6.1517749e-02,-3.2489041e-01,4.6124298e-02
3.0198309e+00,-6.7847264e-02,-1.5751048e-02,1.8570375e-03,-1.8282239e-01,-3.6973268e-02,-1.7964116e-01,-6.2420734e+00,8.4122628e-04,-4.0908265e-03,3.6715306e-02,2.5853712e-02,-3.1437094e-02
3.0298309e+00,-6.9512967e-02,-1.6404514e-02,1.9019280e-03,-1.6988435e-01,-5.8713415e-02,-1.6569161e-01,-6.2408823e+00,2.8325543e-03,-4.2072820e-03,1.1911226e-01,1.9913299e-01,-1.1645558e-02
3.0398309e+00,-7.1297326e-02,-1.6964203e-02,1.9130935e-03,-1.8149680e-01,-4.8629575e-02,-1.7749778e-01,-6.2395164e+00,2.8358003e-03,-4.4233659e-03,1.3659563e-01,3.2459712e-04,-2.1608418e-02
3.0498309e+00,-7.3193593e-02,-1.7647946e-02,2.0882217e-03,-1.9323613e-01,-6.0470133e-02,-1.8866610e-01,-6.2383045e+00,3.5621476e-03,-3.8707653e-03,1.2118541e-01,7.2634801e-02,5.5260122e-02
3.0598309e+00,-7.5098555e-02,-1.8109757e-02,2.2157183e-03,-1.9322553e-01,-3.8027265e-02,-1.8954747e-01,-6.2377939e+00,2.8355578e-03,-4.3660469e-03,5.1063464e-02,-7.2659054e-02,-4.9528213e-02
3.0698309e+00,-7.7151916e-02,-1.9437015e-02,1.8701551e-03,-2.1282000e-01,-1.2402063e-01,-2.0314705e-01,-6.2354456e+00,6.1162508e-03,-6.7625156e-03,2.3482450e-01,3.2806962e-01,-2.3964709e-01
3.0798309e+00,-7.8686220e-02,-1.9729796e-02,2.3308571e-03,-1.5540990e-01,-2.1881089e-02,-1.5266978e-01,-6.2335454e+00,1.6516929e-03,-4.6748580e-03,1.9002161e-01,-4.4645621e-01,2.0876595e-01
3.0898309e+00,-8.0360169e-02,-1.9629828e-02,2.3894609e-03,-1.6749349e-01,1.7092103e-02,-1.6672114e-01,-6.2363765e+00,4.3582254e-03,-4.4877549e-03,-2.8310469e-01,2.7065351e-01,1.8710327e-02
3.0998309e+00,-8.2383787e-02,-2.0642292e-02,2.3627791e-03,-2.0795322e-01,-9.2687156e-02,-2.0078884e-01,-6.2348051e+00,6.6918102e-03,-4.6144134e-03,1.5713610e-01,2.3335870e-01,-1.2665854e-02
3.1098309e+00,-8.4308983e-02,-2.0969028e-02,2.6625217e-03,-1.9471059e-01,-2.2705293e-02,-1.9174850e-01,-6.2308513e+00,7.6703859e-04,-3.8789665e-03,3.9537635e-01,-5.9247772e-01,7.3544761e-02
3.1198308e+00,-8.6563659e-02,-2.1936834e-02,2.5752282e-03,-2.3126769e-01,-8.4979045e-02,-2.2434765e-01,-6.2292156e+00,2.2359669e-03,-4.0327372e-03,1.6357826e-01,1.4689297e-01,-1.5377086e-02
3.1298308e+00,-8.8811581e-02,-2.2455083e-02,2.6507392e-03,-2.2806430e-01,-3.9060131e-02,-2.2407600e-01,-6.2272656e+00,-5.3616335e-04,-3.2382981e-03,1.9499566e-01,-2.7721329e-01,7.9443986e-02
3.1398308e+00,-9.1145995e-02,-2.3357636e-02,2.5976340e-03,-2.3940512e-01,-7.7135602e-02,-2.3210187e-01,-6.2255713e+00,2.0331551e-03,-4.9549199e-03,1.6943410e-01,2.5693209e-01,-1.7166234e-01
3.1498308e+00,-9.3409850e-02,-2.4070564e-02,2.6535693e-03,-2.3134283e-01,-5.8209654e-02,-2.2511273e-01,-6.2236229e+00,2.3064851e-03,-4.9365412e-03,1.9483927e-01,2.7333027e-02,1.8378649e-03
3.1598308e+00,-9.5739604e-02,-2.4427864e-02,2.4936381e-03,-2.3578420e-01,-2.3094783e-02,-2.3174213e-01,-6.2244120e+00,4.7940703e-03,-4.7846721e-03,-7.8910886e-02,2.4875875e-01,1.5186929e-02
3.1697869e+00,-9.7911942e-02,-2.4574181e-02,2.6877851e-03,-2.1957391e-01,-2.4144885e-03,-2.1728369e-01,-6.2238716e+00,3.1218633e-03,-4.1116944e-03,5.4279955e-02,-1.6795767e-01,6.7594358e-02
