time, x, y, z, vx, vy, vz, yaw, pitch, roll, yaw_rate, pitch_rate, roll_rate
0.0000000e+00,0.0000000e+00,0.0000000e+00,0.0000000e+00,0.0000000e+00,0.0000000e+00,0.0000000e+00,0.0000000e+00,0.0000000e+00,0.0000000e+00,0.0000000e+00,0.0000000e+00,0.0000000e+00
9.9999905e-03,1.0077362e-05,-9.7146942e-07,2.7205581e-05,1.0078791e-03,-9.7203525e-05,1.0075898e-03,-1.3163826e-04,-1.8772089e-04,-1.2815282e-04,-1.3163838e-02,-1.8772107e-02,-1.2815294e-02
1.9999981e-02,1.1053234e-04,-2.5936858e-05,1.5808510e-05,1.0042972e-02,-2.4940272e-03,1.0048667e-02,-1.2799891e-04,1.2222898e-04,2.8420114e-04,3.6393534e-04,3.0995017e-02,4.1235435e-02
2.9999971e-02,1.1073037e-04,-7.5846834e-05,1.9203066e-05,2.0147482e-05,-4.9909935e-03,2.1610344e-05,-7.0449572e-05,3.6095724e-04,3.2383648e-04,5.7549389e-03,2.3872849e-02,3.9635371e-03
3.9999962e-02,4.5769319e-05,-2.7966352e-05,5.2226639e-05,-6.4956818e-03,4.7872830e-03,-6.4971073e-03,-7.8343124e-05,4.0146859e-05,1.2379078e-04,-7.8935599e-04,-3.2081069e-02,-2.0004588e-02
4.9999952e-02,1.8280797e-05,-1.4118713e-06,6.8153806e-05,-2.7490211e-03,2.6554397e-03,-2.7486991e-03,-9.5870091e-05,-9.1931203e-05,3.2144762e-05,-1.7526983e-03,-1.3207819e-02,-9.1646110e-03
5.9999943e-02,5.6173696e-05,6.7235617e-05,7.6571729e-05,3.7868970e-03,6.8631861e-03,3.7945284e-03,-1.7807873e-04,-5.9168772e-04,3.0977575e-04,-8.2208721e-03,-4.9975699e-02,2.7763126e-02
6.9999933e-02,1.2566608e-04,1.3562895e-04,9.3824958e-05,6.9437765e-03,6.8338586e-03,6.9600944e-03,-2.0162583e-04,-9.8931259e-04,5.8821950e-04,-2.3547118e-03,-3.9762525e-02,2.7844401e-02
7.9999924e-02,4.2458920e-05,7.8047919e-05,1.0181666e-04,-8.3191016e-03,-5.7528411e-03,-8.3259871e-03,-2.1779986e-04,-8.5056022e-04,4.4168249e-05,-1.6174046e-03,1.3875250e-02,-5.4405177e-02
8.9999914e-02,3.7800358e-05,1.8323218e-04,1.6121282e-04,-4.6728491e-04,1.0519142e-02,-4.4815370e-04,-1.3272072e-04,-1.6799161e-03,-6.9189802e-05,8.5079216e-03,-8.2935671e-02,-1.1335816e-02
9.9999905e-02,2.8688739e-05,9.5267399e-05,9.6207795e-05,-9.1076611e-04,-8.7958857e-03,-9.1733987e-04,-7.2831003e-06,-6.6445684e-04,3.6493504e-04,1.2543774e-02,1.0154603e-01,4.3412525e-02
1.0999990e-01,5.7315689e-05,1.2320677e-04,8.1168148e-05,2.8611794e-03,2.7920207e-03,2.8660861e-03,-9.1851157e-05,-7.6169594e-04,4.4060925e-04,-8.4568137e-03,-9.7239198e-03,7.5674291e-03
1.1998010e-01,5.3799979e-05,1.0621041e-04,8.5225062e-05,-3.5238582e-04,-1.7027106e-03,-3.5358731e-04,1.6094803e-04,-6.8252443e-04,4.4460196e-04,2.5330068e-02,7.9328571e-03,4.0006308e-04
1.2998009e-01,3.7160080e-05,9.1378896e-05,1.0000408e-04,-1.6638943e-03,-1.4820007e-03,-1.6651146e-03,1.8040807e-04,-5.1154873e-04,2.1917842e-04,1.9460058e-03,1.7097586e-02,-2.2542376e-02
1.3998008e-01,5.3201787e-05,2.3158138e-05,8.8645136e-05,1.6040805e-03,-6.8221740e-03,1.6038741e-03,-1.0397075e-05,-6.7567363e-05,1.0144133e-04,-1.9080533e-02,4.4398179e-02,-1.1773720e-02
1.4998007e-01,1.1685701e-04,7.5186147e-05,9.3741498e-05,6.3622644e-03,5.2028550e-03,6.3687504e-03,6.2828805e+00,-2.9698487e-04,2.6349738e-04,6.2828969e+02,-2.2941773e-02,1.6205621e-02
1.5998006e-01,1.1703111e-04,2.0986238e-05,7.8344069e-05,1.9326724e-05,-5.4199937e-03,1.6086758e-05,6.2828312e+00,-2.4463526e-04,1.3938096e-04,-4.9249557e-03,5.2349663e-03,-1.2411654e-02
1.6998005e-01,1.1147742e-04,-7.2836343e-06,2.9677887e-05,-5.5502660e-04,-2.8271010e-03,-5.5514690e-04,-5.0948297e-05,1.4918353e-04,3.5837898e-04,-6.2828882e+02,3.9381916e-02,2.1899822e-02
1.7998028e-01,8.2644698e-05,-1.7045842e-05,1.7923338e-06,-2.8824299e-03,-9.7675280e-04,-2.8837942e-03,-4.1531191e-05,1.5069871e-04,2.5508853e-04,9.4168904e-04,1.5151532e-04,-1.0328809e-02
1.8998027e-01,1.2311562e-04,4.0854215e-05,5.6214507e-05,4.0449546e-03,5.7891198e-03,4.0505111e-03,-1.1375003e-04,-3.3381783e-04,3.6635643e-04,-7.2218908e-03,-4.8451701e-02,1.1126801e-02
1.9998026e-01,9.5433218e-05,3.5328419e-05,5.2362867e-05,-2.7675261e-03,-5.5172818e-04,-2.7691293e-03,-1.1273115e-04,-4.2037711e-04,2.3637380e-04,1.0188769e-04,-8.6559363e-03,-1.2998276e-02
2.0998025e-01,1.0529627e-04,-2.7470891e-06,7.7417932e-05,9.8633241e-04,-3.8076212e-03,9.8602170e-04,-8.5442191e-05,-1.5310227e-04,3.0287269e-04,2.7288989e-03,2.6727510e-02,6.6498961e-03
2.1998024e-01,8.8266174e-05,-1.8511560e-05,7.4895642e-05,-1.7025019e-03,-1.5764641e-03,-1.7035055e-03,-4.0971962e-05,-3.1806193e-05,2.6095051e-04,4.4470271e-03,1.2129619e-02,-4.1922220e-03
2.2998023e-01,6.6933739e-05,3.1927035e-06,7.4995757e-05,-2.1326934e-03,2.1707659e-03,-2.1334541e-03,3.3386110e-05,-1.2479477e-04,2.2479437e-04,7.4358143e-03,-9.2988665e-03,-3.6156183e-03
2.3998022e-01,2.1177896e-05,-4.3033527e-06,1.8443373e-05,-4.5751528e-03,-7.4878346e-04,-4.5761594e-03,2.5950712e-05,-1.5387113e-04,9.9533235e-05,-7.4354048e-04,-2.9076391e-03,-1.2526125e-02
2.4998021e-01,9.6559505e-06,5.4564065e-05,3.5049685e-05,-1.1521655e-03,5.8874055e-03,-1.1488582e-03,-2.3478808e-05,-5.9549580e-04,1.4603844e-04,-4.9429567e-03,-4.4162509e-02,4.6505253e-03
2.5998020e-01,3.5069908e-05,1.4652202e-04,8.6108985e-05,2.5403401e-03,9.1933769e-03,2.5512202e-03,-1.3930761e-04,-1.0924644e-03,-8.7767072e-05,-1.1582891e-02,-4.9696908e-02,-2.3380574e-02
2.6998019e-01,5.2594223e-05,1.8997416e-05,6.1163043e-05,1.7522500e-03,-1.2752557e-02,1.7520059e-03,1.9336331e-05,-2.8536328e-05,-3.6161875e-05,1.5864409e-02,1.0639291e-01,5.1605246e-03
2.7998018e-01,7.1088837e-05,-3.3094817e-05,7.1498533e-05,1.8491022e-03,-5.2087689e-03,1.8511170e-03,6.3031651e-05,3.1122632e-04,1.7629632e-05,4.3695362e-03,3.3976297e-02,5.3791559e-03
2.8998017e-01,4.3179155e-05,-3.6516518e-05,6.4317794e-05,-2.7906485e-03,-3.4258713e-04,-2.7912421e-03,-8.8757499e-06,1.4040221e-04,1.1441572e-04,-7.1907470e-03,-1.7082427e-02,9.6786178e-03
2.9998016e-01,-2.8571124e-06,-5.1932858e-05,3.2058887e-05,-4.6033776e-03,-1.5427129e-03,-4.6035238e-03,-1.3090095e-04,1.0314783e-04,1.1233005e-05,-1.2202532e-02,-3.7254419e-03,-1.0318281e-02
3.0998015e-01,5.7684450e-05,2.4933044e-05,3.0831934e-05,6.0532257e-03,7.6846410e-03,6.0575811e-03,-1.5133516e-05,-3.3819216e-04,1.3542948e-04,1.1576754e-02,-4.4134040e-02,1.2419659e-02
3.1998014e-01,1.1923377e-04,2.8931391e-05,1.8172357e-05,6.1532417e-03,3.9795649e-04,6.1567546e-03,2.0351225e-05,-2.8477690e-04,2.7680761e-04,3.5484775e-03,5.3415311e-03,1.4137826e-02
3.2998013e-01,1.2461131e-04,5.8748828e-06,3.3464376e-05,5.3768957e-04,-2.3056722e-03,5.3773756e-04,-5.1504914e-05,-8.7153844e-05,3.4183221e-04,-7.1856208e-03,1.9762324e-02,6.5024663e-03
3.3998013e-01,1.0248152e-04,-2.7288787e-05,5.0324361e-05,-2.2121151e-03,-3.3171749e-03,-2.2126411e-03,-1.2454564e-04,2.3910208e-04,2.0472872e-04,-7.3040800e-03,3.2625624e-02,-1.3710362e-02
3.4998012e-01,8.4648139e-05,-5.9595364e-05,6.9060170e-05,-1.7831339e-03,-3.2313223e-03,-1.7823461e-03,-3.4796719e-05,3.3625943e-04,5.2205891e-05,8.9749011e-03,9.7157435e-03,-1.5252297e-02
3.5998011e-01,1.2381154e-04,-5.9206345e-05,2.4945485e-05,3.9153569e-03,3.9289972e-05,3.9173265e-03,4.1125884e-06,1.0316274e-04,2.5199020e-04,3.8909344e-03,-2.3309691e-02,1.9978450e-02
3.6998010e-01,1.5868970e-04,5.0072642e-05,3.1549882e-05,3.4854586e-03,1.0926235e-02,3.4954149e-03,-5.6134781e-05,-5.3525494e-04,5.0094324e-04,-6.0247427e-03,-6.3841829e-02,2.4895328e-02
3.7998009e-01,6.6724061e-05,6.3414155e-05,3.8370840e-05,-9.1950452e-03,1.3386226e-03,-9.1974510e-03,-7.1269526e-05,-5.5725089e-04,1.7644068e-04,-1.5134759e-03,-2.1995969e-03,-3.2450287e-02
3.8998008e-01,9.5100589e-05,1.8708885e-04,1.3721369e-04,2.8333713e-03,1.2364637e-02,2.8542849e-03,6.2828688e+00,-1.3148833e-03,1.3017730e-04,6.2829460e+02,-7.5763312e-02,-4.6263420e-03
3.9998007e-01,5.1456590e-05,1.1145637e-04,1.1362547e-04,-4.3625039e-03,-7.5621104e-03,-4.3682856e-03,6.2828690e+00,-5.7828665e-04,-1.1285940e-04,1.9543005e-05,7.3659735e-02,-2.4303694e-02
4.0998006e-01,1.3770166e-04,1.8134740e-04,1.2705880e-04,8.6185500e-03,6.9845657e-03,8.6341534e-03,6.2827570e+00,-9.5433342e-04,3.4440333e-04,-1.1197666e-02,-3.7604713e-02,4.5726317e-02
4.1998005e-01,1.1226743e-04,8.0868601e-05,8.0997941e-05,-2.5426458e-03,-1.0046545e-02,-2.5495056e-03,7.0234640e-06,-5.2065563e-04,3.3403571e-04,-6.2827560e+02,4.3367821e-02,-1.0367626e-03
4.2998028e-01,2.4126221e-05,5.1671757e-05,7.0753248e-05,-8.8144602e-03,-2.9121680e-03,-8.8158431e-03,3.1290868e-04,-5.3221426e-04,4.2254966e-05,3.0587821e-02,-1.1558366e-03,-2.9177407e-02
4.3998027e-01,-5.9923598e-06,-1.3997473e-05,3.3891544e-05,-3.0126659e-03,-6.5661939e-03,-3.0126590e-03,1.1602190e-04,-1.2809438e-04,-1.4284869e-05,-1.9688696e-02,4.0412026e-02,-5.6539888e-03
4.4998026e-01,3.2159596e-05,-3.2532665e-05,3.0157053e-05,3.8140305e-03,-1.8531774e-03,3.8165344e-03,1.4327502e-04,2.3326024e-04,2.3668952e-04,2.7253141e-03,3.6135497e-02,2.5097463e-02
4.5998025e-01,8.3151636e-05,-5.9947493e-05,1.2633245e-05,5.0972928e-03,-2.7411832e-03,5.1012867e-03,2.8799609e-04,3.4713546e-04,2.2086426e-04,1.4472121e-02,1.1387533e-02,-1.5825278e-03
4.6998024e-01,7.6408095e-05,-6.2184347e-05,5.2787195e-06,-6.7434411e-04,-2.2386861e-04,-6.7430462e-04,8.1882827e-05,3.5321911e-04,4.2895758e-05,-2.0611346e-02,6.0836566e-04,-1.7796867e-02
4.7998023e-01,6.6456578e-05,-2.4168891e-06,4.6066384e-05,-9.9647048e-04,5.9768083e-03,-9.9349101e-04,-2.1337807e-04,-2.7088484e-04,-4.2775011e-05,-2.9526118e-02,-6.2410454e-02,-8.5670851e-03
4.8998022e-01,9.9051793e-05,2.9832469e-05,6.0961084e-05,3.2580672e-03,3.2251835e-03,3.2607392e-03,6.2828333e+00,-2.7677405e-04,9.8805754e-05,6.2830527e+02,-5.8892183e-04,1.4158090e-02
4.9998021e-01,1.5410430e-04,-3.7335124e-06,4.7347351e-05,5.5015901e-03,-3.3562159e-03,5.5091544e-03,-4.9096653e-05,2.0887823e-05,6.9559623e-04,-6.2828884e+02,2.9766216e-02,5.9679105e-02
5.0998020e-01,1.2699973e-04,-6.8222105e-05,9.6262179e-06,-2.7099810e-03,-6.4503085e-03,-2.7075020e-03,7.5747780e-06,5.4022767e-04,1.9444167e-04,5.6671485e-03,5.1934034e-02,-5.0115503e-02
5.1998019e-01,9.2267298e-05,-7.7859226e-05,1.9984298e-05,-3.4729499e-03,-9.6544649e-04,-3.4730624e-03,1.6028716e-05,5.1511837e-04,8.9944845e-05,8.4539461e-04,-2.5109322e-03,-1.0449693e-02
5.2998018e-01,8.9140422e-05,-2.3125040e-05,3.9885529e-05,-3.1329667e-04,5.4733010e-03,-3.1422335e-04,-1.1854955e-04,2.7318049e-04,1.2833089e-04,-1.3457839e-02,-2.4193811e-02,3.8386086e-03
5.3998017e-01,9.7758423e-05,-2.2903586e-06,5.6725750e-05,8.6154214e-04,2.0835089e-03,8.6196603e-04,-6.5162565e-05,-2.0244756e-05,1.4270295e-04,5.3387034e-03,-2.9342552e-02,1.4372074e-03
5.4998016e-01,6.6819835e-05,7.4066416e-05,7.0112119e-05,-3.0943046e-03,7.6378679e-03,-3.0880244e-03,-6.0313837e-05,-7.6670255e-04,5.7312277e-06,4.8487328e-04,-7.4645850e-02,-1.3697186e-02
5.5996370e-01,6.1084371e-05,5.4610451e-05,3.0257466e-05,-5.7414194e-04,-1.9485045e-03,-5.7585727e-04,-1.8381001e-04,-7.0477479e-04,-1.4185476e-05,-1.2369978e-02,6.2029857e-03,-1.9949541e-03
5.6996369e-01,1.6673240e-05,5.9367975e-05,3.7979274e-05,-4.4412576e-03,4.7854599e-04,-4.4406770e-03,-6.3971871e-05,-6.9294093e-04,-2.4735041e-05,1.1983825e-02,1.1833872e-03,-1.0549576e-03
5.7996368e-01,5.2804813e-05,-3.9261580e-05,-2.0468696e-06,3.6122524e-03,-9.8629612e-03,3.6140790e-03,6.2020005e-05,6.3031845e-05,8.2095856e-05,1.2599200e-02,7.5597350e-02,1.0683100e-02
5.8996367e-01,9.9871284e-05,-1.8622759e-05,3.7865894e-05,4.7053944e-03,2.0640574e-03,4.7078324e-03,-4.3357755e-05,-6.5350893e-06,2.4805222e-04,-1.0537786e-02,-6.9567000e-03,1.6595653e-02
5.9996367e-01,7.3886278e-05,-6.5291380e-05,5.2010545e-05,-2.5986834e-03,-4.6680718e-03,-2.5961568e-03,5.0580349e-05,5.1460564e-04,2.1411112e-05,9.3938193e-03,5.2114122e-02,-2.2664133e-02
6.0996366e-01,8.6861949e-05,-9.0516497e-05,3.7229524e-05,1.2972552e-03,-2.5218861e-03,1.2991010e-03,1.5769589e-04,6.4123952e-04,-6.5299677e-05,1.0711564e-02,1.2663401e-02,-8.6710872e-03
6.1996365e-01,1.1196917e-04,-7.5426257e-05,2.4226592e-05,2.5109237e-03,1.5101445e-03,2.5098523e-03,6.9802648e-05,5.1562478e-04,-3.7369099e-05,-8.7893325e-03,-1.2561486e-02,2.7930605e-03
6.2996364e-01,6.6527357e-05,-6.6813021e-05,-1.2200960e-05,-4.5443399e-03,8.5983469e-04,-4.5443136e-03,-3.4163297e-05,2.9366285e-04,-2.7461913e-05,-1.0396604e-02,-2.2196214e-02,9.9071951e-04
6.3996363e-01,6.3812983e-05,4.1539076e-05,3.3701936e-05,-2.7528355e-04,1.0835292e-02,-2.6461083e-04,6.2828308e+00,-6.2964864e-04,-1.6133763e-05,6.2828709e+02,-9.2331237e-02,1.1328161e-03
6.4996362e-01,8.6671341e-05,3.2568188e-05,5.0747206e-05,2.2863239e-03,-8.9762646e-04,2.2851411e-03,-2.0905095e-04,-4.4399854e-04,-1.3059562e-04,-6.2830458e+02,1.8565027e-02,-1.1446196e-02
6.5996361e-01,1.5932393e-04,-1.7310341e-05,4.8569210e-05,7.2645940e-03,-4.9872774e-03,7.2663365e-03,-3.4628476e-05,4.5230662e-05,1.1628094e-04,1.7442264e-02,4.8922967e-02,2.4687679e-02
6.6996360e-01,1.7941808e-04,-1.9279267e-05,6.3022858e-05,2.0087355e-03,-1.9654813e-04,2.0101307e-03,-8.5175685e-05,8.6311578e-05,3.4710861e-04,-5.0547256e-03,4.1080955e-03,2.3082789e-02
6.7996383e-01,1.2000401e-04,-4.7036819e-05,5.4022637e-05,-5.9398319e-03,-2.7772680e-03,-5.9419717e-03,-7.9662955e-05,1.8564050e-04,2.0484988e-04,5.5126035e-04,9.9326647e-03,-1.4225547e-02
6.8996382e-01,6.9043495e-05,-1.3282910e-05,5.4229275e-05,-5.0933299e-03,3.3771981e-03,-5.0975877e-03,5.8106245e-05,-2.9577566e-04,4.9649761e-04,1.3776933e-02,-4.8141662e-02,2.9164801e-02
6.9996381e-01,9.2788479e-05,4.7853775e-05,6.2371676e-05,2.3734951e-03,6.1118680e-03,2.3801494e-03,1.0586686e-04,-6.5383176e-04,6.9581500e-04,4.7760659e-03,-3.5805645e-02,1.9931758e-02
7.0996380e-01,1.3278407e-04,-9.5521709e-06,3.9294308e-05,3.9976902e-03,-5.7413467e-03,4.0003633e-03,8.2785730e-05,-1.0386208e-04,3.4931633e-04,-2.3081150e-03,5.4997020e-02,-3.4649900e-02
7.1996379e-01,1.0004914e-04,2.9711736e-05,5.1387177e-05,-3.2744868e-03,3.9275172e-03,-3.2711571e-03,-2.3910553e-04,-5.8235091e-04,-1.5940464e-05,-3.2189156e-02,-4.7848928e-02,-3.6525714e-02
7.2996378e-01,7.8540007e-05,2.9658833e-05,8.4659055e-05,-2.1507664e-03,-4.0067026e-06,-2.1510673e-03,-1.0796990e-04,-7.0465320e-04,6.9050039e-05,1.3113575e-02,-1.2230241e-02,8.4990585e-03
7.3996377e-01,8.5302963e-05,5.1490735e-05,1.0491745e-04,6.7639842e-04,2.1825001e-03,6.7842485e-04,6.0969236e-06,-1.0158629e-03,-1.3140120e-04,1.1406693e-02,-3.1120997e-02,-2.0045143e-02
7.4996376e-01,7.5999145e-05,-2.7126680e-05,2.4801325e-05,-9.3176323e-04,-7.8614820e-03,-9.3125665e-04,1.8364692e-04,-1.0310236e-04,6.8006255e-05,1.7755017e-02,9.1276138e-02,1.9940764e-02
7.5996375e-01,1.0187289e-04,3.1198264e-06,1.3043793e-05,2.5871787e-03,3.0237115e-03,2.5886754e-03,1.3723550e-04,-2.2675371e-04,2.3690902e-04,-4.6411467e-03,-1.2365147e-02,1.6890293e-02
7.6996374e-01,6.8258322e-05,-3.7563151e-05,2.9004061e-05,-3.3618986e-03,-4.0682463e-03,-3.3610877e-03,1.1999323e-04,1.0355427e-04,1.4647575e-05,-1.7242285e-03,3.3030830e-02,-2.2226166e-02
7.7996373e-01,1.4586532e-04,-3.1787213e-05,8.2115759e-05,7.7581445e-03,5.7707225e-04,7.7633077e-03,1.5928755e-05,-5.1321280e-05,3.3133238e-04,-1.0406458e-02,-1.5487570e-02,3.1668511e-02
7.8996372e-01,1.4086760e-04,-1.2821800e-04,6.4437383e-05,-5.0117042e-04,-9.6432068e-03,-4.9606837e-04,1.5438695e-04,3.9364290e-04,1.8246100e-04,1.3845833e-02,4.4496461e-02,-1.4887152e-02
7.9996371e-01,1.8434318e-04,-1.6182966e-04,4.6970167e-05,4.3450513e-03,-3.3606870e-03,4.3504458e-03,3.3763328e-04,4.4827038e-04,3.1659807e-04,1.8324651e-02,5.4627523e-03,1.3413719e-02
8.0996370e-01,1.3340951e-04,-1.6008438e-04,1.4149421e-05,-5.0929498e-03,1.7408178e-04,-5.0938098e-03,3.4257246e-04,4.3015503e-04,7.1127299e-05,4.9391842e-04,-1.8115360e-03,-2.4547100e-02
8.1996369e-01,8.0458695e-05,-9.3186223e-05,2.3905104e-05,-5.2952942e-03,6.6911753e-03,-5.2931691e-03,4.4806998e-05,-2.1074630e-04,-9.5831504e-05,-2.9776575e-02,-6.4090194e-02,-1.6695896e-02
8.2996368e-01,1.0405963e-04,-1.3770869e-04,-8.3381131e-06,2.3594060e-03,-4.4523589e-03,2.3605823e-03,1.4846223e-04,1.0270335e-04,1.2282614e-05,1.0365533e-02,3.1344994e-02,1.0811422e-02
8.3996367e-01,1.5481662e-04,-1.3781508e-04,-6.3370281e-06,5.0738649e-03,-1.0180986e-05,5.0775418e-03,1.8215781e-04,2.7233196e-04,3.6171578e-04,3.3695606e-03,1.6962878e-02,3.4943350e-02
8.4996367e-01,1.6721778e-04,-8.4490712e-05,7.2355273e-05,1.2414629e-03,5.3316875e-03,1.2420154e-03,2.8297753e-04,-3.2504540e-04,1.3229144e-04,1.0081982e-02,-5.9737793e-02,-2.2942456e-02
8.5996366e-01,1.0467800e-04,-9.4885417e-05,1.1670805e-04,-6.2535383e-03,-1.0354185e-03,-6.2551031e-03,1.9651356e-04,-4.5148515e-04,1.0399994e-04,-8.6464061e-03,-1.2643987e-02,-2.8291526e-03
8.6996365e-01,7.0993988e-05,-1.5457943e-04,6.1966092e-05,-3.3691337e-03,-5.9691959e-03,-3.3680493e-03,2.3173409e-04,1.6904080e-04,1.9409005e-04,3.5220565e-03,6.2052655e-02,9.0090195e-03
8.7996364e-01,3.5856752e-05,-1.5630509e-04,-4.7576103e-08,-3.5140117e-03,-1.7233365e-04,-3.5134535e-03,3.0678852e-04,2.4077136e-04,-6.6030624e-05,7.5054504e-03,7.1730626e-03,-2.6012092e-02
8.8996363e-01,6.6303837e-05,-3.1709433e-05,5.8338312e-05,3.0488828e-03,1.2454403e-02,3.0616621e-03,4.5465703e-04,-1.2407791e-03,4.9028247e-04,1.4786865e-02,-1.4815519e-01,5.5631363e-02
8.9996362e-01,8.7225534e-05,-8.5097197e-06,7.3879605e-05,2.0920918e-03,2.3163202e-03,2.0962955e-03,4.1940215e-04,-1.3250539e-03,5.0305032e-04,-3.5254914e-03,-8.4274910e-03,1.2767863e-03
9.0996361e-01,1.0218247e-04,-7.3009045e-05,9.2956513e-05,1.4940334e-03,-6.4509706e-03,1.4929025e-03,2.7492124e-04,-4.1556662e-04,-7.4734451e-05,-1.4448105e-02,9.0948818e-02,-5.7778533e-02
9.1994095e-01,9.6277792e-05,-1.7529242e-04,4.5978275e-05,-5.9636511e-04,-1.0251672e-02,-5.8538572e-04,4.4816230e-04,6.3024336e-04,6.3835324e-05,1.7363450e-02,1.0481851e-01,1.3888448e-02
9.2994118e-01,9.9598499e-05,-1.6875012e-04,5.4345411e-05,3.3227051e-04,6.5421570e-04,3.3185526e-04,3.7942851e-04,3.7989173e-04,1.2262409e-04,-6.8732216e-03,-2.5034590e-02,5.8787417e-03
9.3994045e-01,7.4719264e-05,-1.8506980e-04,-1.9173362e-06,-2.4890463e-03,-1.6316061e-03,-2.4874760e-03,5.0348399e-04,3.1063449e-04,-4.8664650e-05,1.2406448e-02,-6.9262266e-03,-1.7130115e-02
9.4994044e-01,1.0818146e-04,-1.5677225e-04,-1.6822197e-05,3.3474573e-03,2.8283825e-03,3.3461507e-03,4.3982918e-04,2.8974411e-05,2.9395236e-06,-6.3654875e-03,-2.8166034e-02,5.1604223e-03
9.5994043e-01,1.7406809e-04,-1.6326695e-04,8.3502049e-06,6.5858530e-03,-6.5122932e-04,6.5913114e-03,3.2033942e-04,5.3485276e-05,3.9577493e-04,-1.1948987e-02,2.4510889e-03,3.9283578e-02
9.6990728e-01,1.9822028e-04,-1.8357306e-04,3.4143541e-05,2.4219714e-03,-2.0373015e-03,2.4245833e-03,2.4938017e-04,2.7511874e-04,3.1844693e-04,-7.1195263e-03,2.2237061e-02,-7.7585189e-03
9.7990727e-01,1.6576779e-04,-2.3081342e-04,3.1152259e-05,-3.2455634e-03,-4.7255152e-03,-3.2427923e-03,2.6585648e-04,7.2036562e-04,2.9082540e-04,1.6476320e-03,4.4524731e-02,-2.7621559e-03
9.8990726e-01,1.4365346e-04,-1.7272829e-04,6.1178043e-05,-2.2110707e-03,5.8085340e-03,-2.2117601e-03,9.6190405e-05,8.9378175e-05,-8.7835379e-05,-1.6966623e-02,-6.3098805e-02,-3.7866114e-02
9.9990726e-01,1.4141644e-04,-1.3851721e-04,3.2342448e-05,-2.2221873e-04,3.4212871e-03,-2.2247746e-04,3.8855861e-04,-4.0290033e-04,6.9008731e-04,2.9236848e-02,-4.9227898e-02,7.7792343e-02
1.0099072e+00,1.6970235e-04,-1.0337934e-04,3.0374433e-05,2.8284678e-03,3.5115559e-03,2.8314935e-03,3.7688483e-04,-4.1273681e-04,5.1254495e-04,-1.1673796e-03,-9.8364834e-04,-1.7754253e-02
1.0199072e+00,1.1409876e-04,-1.6374225e-04,7.3152711e-06,-5.5620380e-03,-6.0347020e-03,-5.5604205e-03,3.8482842e-04,9.8085894e-05,1.1659243e-04,7.9436044e-04,5.1082319e-02,-3.9595290e-02
1.0299072e+00,7.5525593e-05,-9.2823243e-05,7.1596981e-05,-3.8555112e-03,7.0949925e-03,-3.8534553e-03,3.3586806e-04,-4.6420327e-04,-1.4846373e-04,-4.8960414e-03,-5.6228970e-02,-2.6505640e-02
1.0399072e+00,1.1876178e-04,-1.5691964e-04,4.7453527e-05,4.3196706e-03,-6.4111611e-03,4.3253275e-03,4.5802326e-04,1.0745521e-04,2.3504507e-04,1.2215532e-02,5.7165903e-02,3.8350916e-02
1.0499072e+00,1.2917033e-04,-1.5667946e-04,1.9375096e-05,1.0407362e-03,2.3674353e-05,1.0409827e-03,4.8118303e-04,1.5055509e-04,1.2563463e-04,2.3159796e-03,4.3099918e-03,-1.0941054e-02
1.0599072e+00,8.6160494e-05,-9.4768836e-05,2.1411590e-05,-4.2992299e-03,6.1950379e-03,-4.2970270e-03,3.6268121e-04,-5.6067113e-04,-1.1347042e-04,-1.1850193e-02,-7.1122690e-02,-2.3910528e-02
1.0699072e+00,1.4276644e-04,-6.8242332e-05,5.5688318e-05,5.6596625e-03,2.6469352e-03,5.6642137e-03,4.9380134e-04,-5.1596332e-04,3.9690901e-04,1.3112026e-02,4.4707850e-03,5.1037992e-02
1.0799072e+00,8.8660161e-05,-1.6137506e-04,2.4403718e-05,-5.4154072e-03,-9.3132311e-03,-5.4059428e-03,4.0416287e-04,3.9517696e-04,-1.8668104e-04,-8.9638559e-03,9.1114115e-02,-5.8359061e-02
1.0899072e+00,1.8035268e-04,-1.1907081e-04,6.2607106e-05,9.1686812e-03,4.2275148e-03,9.1711842e-03,3.7348287e-04,5.5641977e-05,2.3541473e-04,-3.0680032e-03,-3.3953531e-02,4.2209618e-02
1.0999072e+00,2.0658615e-04,-1.4958207e-04,4.4862425e-05,2.6215589e-03,-3.0515394e-03,2.6246618e-03,2.9438292e-04,1.3808275e-04,3.3992462e-04,-7.9100023e-03,8.2440854e-03,1.0450999e-02
1.1099072e+00,1.7119819e-04,-1.9354020e-04,4.6846766e-05,-3.5395166e-03,-4.3956521e-03,-3.5382849e-03,2.8642462e-04,2.3999040e-04,1.5285669e-04,-7.9583119e-04,1.0190774e-02,-1.8706812e-02
1.1199071e+00,1.6169378e-04,-2.0942131e-04,4.4675015e-05,-9.5102596e-04,-1.5881735e-03,-9.4975599e-04,3.3299483e-04,3.9738730e-04,-5.7928746e-05,4.6570259e-03,1.5739705e-02,-2.1078563e-02
1.1299071e+00,1.9109899e-04,-1.2002246e-04,6.2981579e-05,2.9416485e-03,8.9373850e-03,2.9470158e-03,4.0875534e-04,-4.4330908e-04,8.5968250e-04,7.5760579e-03,-8.4069718e-02,9.1761212e-02
1.1399071e+00,1.9883702e-04,-1.2846736e-04,1.7326975e-05,7.7335070e-04,-8.4466765e-04,7.7406259e-04,3.0455227e-04,7.5510510e-05,2.5261574e-04,-1.0420316e-02,5.1882008e-02,-6.0706733e-02
1.1499071e+00,1.6418908e-04,-1.3417457e-04,8.3984533e-06,-3.4645479e-03,-5.6892941e-04,-3.4653409e-03,4.0490240e-04,-1.1239786e-04,1.3850770e-04,1.0035022e-02,-1.8790855e-02,-1.1410816e-02
1.1599071e+00,1.5455179e-04,-1.3392971e-04,1.8195123e-05,-9.6368147e-04,2.4925901e-05,-9.6376649e-04,3.4200407e-04,-1.1453695e-04,4.1216273e-05,-6.2898388e-03,-2.1390837e-04,-9.7291517e-03
1.1699071e+00,1.4582151e-04,-1.4068460e-04,2.1250885e-05,-8.7315841e-04,-6.7518257e-04,-8.7313655e-04,2.8774727e-04,-6.3336490e-05,7.4276802e-05,-5.4256855e-03,5.1200505e-03,3.3060561e-03
1.1799073e+00,1.7187598e-04,-1.4263342e-04,3.7416914e-05,2.6032139e-03,-1.9714920e-04,2.6073882e-03,4.8773276e-04,-3.8364259e-04,7.9728489e-04,1.9998091e-02,-3.2029877e-02,7.2299154e-02
1.1899073e+00,1.9563298e-04,-8.8658486e-05,7.3292849e-05,2.3765338e-03,5.3948921e-03,2.3807868e-03,5.1468648e-04,-5.8139071e-04,8.1901841e-04,2.6953748e-03,-1.9774831e-02,2.1733540e-03
1.1999073e+00,1.0908299e-04,-7.7427351e-05,9.2516900e-05,-8.6510360e-03,1.1351234e-03,-8.6574108e-03,4.4346104e-04,-9.4372598e-04,4.0112478e-04,-7.1225514e-03,-3.6233561e-02,-4.1789404e-02
1.2099073e+00,1.2301721e-04,-6.9430226e-05,9.3538848e-05,1.3928325e-03,7.9801617e-04,1.3949848e-03,2.6230940e-04,-9.5474199e-04,5.7389485e-04,-1.8115181e-02,-1.1016021e-03,1.7277024e-02
1.2199073e+00,1.1175336e-04,-1.1087725e-04,4.9222056e-05,-1.1281540e-03,-4.1438137e-03,-1.1278984e-03,3.4666260e-04,-4.4523972e-04,-2.9452879e-04,8.4353276e-03,5.0950275e-02,-8.6842447e-02
1.2299073e+00,1.6425927e-04,-1.8537102e-04,4.2985561e-06,5.2469560e-03,-7.4503177e-03,5.2529105e-03,4.9527908e-04,3.1729078e-04,-9.5157448e-06,1.4861662e-02,7.6253123e-02,2.8501332e-02
1.2399073e+00,1.5230248e-04,-1.4806048e-04,2.2621685e-05,-1.1936126e-03,3.7315918e-03,-1.1960784e-03,4.5713146e-04,9.9022200e-06,3.0258825e-04,-3.8147660e-03,-3.0738886e-02,3.1210429e-02
1.2499073e+00,1.0350062e-04,-1.5807773e-04,4.0395199e-05,-4.8795992e-03,-9.9989459e-04,-4.8811585e-03,4.4798567e-04,7.2827177e-05,2.1313648e-04,-9.1457919e-04,6.2925017e-03,-8.9451851e-03
1.2599072e+00,1.1119242e-04,-1.5657634e-04,3.6694124e-05,7.6923021e-04,1.4993681e-04,7.6917066e-04,4.1062172e-04,1.4735018e-04,1.5678006e-05,-3.7363988e-03,7.4523072e-03,-1.9745866e-02
1.2699072e+00,1.7036472e-04,-1.4213624e-04,2.9528006e-05,5.9162235e-03,1.4410047e-03,5.9189800e-03,4.1180662e-04,-9.6132208e-05,2.7140134e-04,1.1848991e-04,-2.4348262e-02,2.5572358e-02
1.2799072e+00,2.2186066e-04,-1.1217549e-04,3.3452661e-05,5.1479517e-03,2.9927180e-03,5.1532004e-03,3.4963134e-04,-3.0274249e-04,5.2324881e-04,-6.2175339e-03,-2.0661048e-02,2.5184771e-02
1.2899072e+00,1.9667508e-04,-1.3012059e-04,6.5907396e-05,-2.5173636e-03,-1.7926520e-03,-2.5210811e-03,4.0928414e-04,-3.2879494e-04,7.6663261e-04,5.9652862e-03,-2.6052476e-03,2.4338403e-02
1.2999072e+00,1.7054410e-04,-1.2381109e-04,8.3625073e-05,-2.6124131e-03,6.3217075e-04,-2.6134928e-03,2.2400343e-04,-2.4292326e-04,2.0890058e-04,-1.8528089e-02,8.5871758e-03,-5.5773256e-02
1.3099072e+00,1.7740366e-04,-1.2723587e-04,6.7399123e-05,6.8534030e-04,-3.4298739e-04,6.8631831e-04,2.5850862e-04,-4.8272432e-04,7.6900442e-04,3.4505221e-03,-2.3980128e-02,5.6010438e-02
1.3199072e+00,1.7248818e-04,-1.4583559e-04,1.9812992e-05,-4.9176321e-04,-1.8596890e-03,-4.9240981e-04,3.5141316e-04,-2.2690021e-04,8.9271659e-04,9.2904628e-03,2.5582435e-02,1.2371228e-02
1.3299072e+00,1.7205733e-04,-1.9928064e-04,-3.0345067e-05,-4.5096868e-05,-5.3445176e-03,-3.9954818e-05,3.7838943e-04,5.8767632e-04,2.3917192e-04,2.6976298e-03,8.1457731e-02,-6.5354529e-02
1.3399072e+00,1.6714190e-04,-1.8290174e-04,-7.8450133e-06,-4.9086469e-04,1.6378954e-03,-4.9220585e-04,4.7129474e-04,4.6193333e-04,-1.9085243e-04,9.2905401e-03,-1.2574311e-02,-4.3002476e-02
1.3499072e+00,1.3319646e-04,-1.5276339e-04,2.7483692e-05,-3.3927027e-03,3.0150559e-03,-3.3953113e-03,3.8541431e-04,2.6544913e-05,2.0135135e-04,-8.5880514e-03,-4.3538883e-02,3.9220415e-02
1.3599072e+00,1.1338004e-04,-1.8856737e-04,2.4052549e-05,-1.9826587e-03,-3.5801964e-03,-1.9809981e-03,3.5220731e-04,2.4900204e-04,1.2402453e-04,-3.3207032e-03,2.2245733e-02,-7.7326901e-03
1.3699071e+00,1.1397755e-04,-1.7044538e-04,1.4650009e-05,6.0559060e-05,1.8121788e-03,5.9594077e-05,4.5131076e-04,9.1785712e-05,1.5964890e-04,9.9103545e-03,-1.5721647e-02,3.5624409e-03
1.3799071e+00,1.4146773e-04,-1.4136092e-04,-4.1539152e-06,2.7500381e-03,2.9067599e-03,2.7497911e-03,6.1965171e-04,5.4019002e-06,2.8553578e-04,1.6834111e-02,-8.6383894e-03,1.2588700e-02
1.3899071e+00,1.5558058e-04,-1.3040205e-04,-1.4089490e-05,1.4117033e-03,1.0952093e-03,1.4113949e-03,5.9036340e-04,1.0992279e-04,1.6244474e-04,-2.9288340e-03,1.0452099e-02,-1.2309116e-02
1.3999071e+00,1.4712877e-04,-8.7538570e-05,3.8193383e-05,-8.4245917e-04,4.2871681e-03,-8.4376206e-04,4.8097244e-04,-4.8483848e-04,7.8165128e-04,-1.0939107e-02,-5.9476184e-02,6.1920714e-02
1.4099071e+00,1.0972165e-04,-9.9910142e-05,8.6993452e-05,-3.7416660e-03,-1.2353378e-03,-3.7403675e-03,2.5477506e-04,-2.3193677e-04,-1.6975925e-04,-2.2619759e-02,2.5290195e-02,-9.5141144e-02
1.4199071e+00,1.5013598e-04,-7.4844301e-05,1.1857025e-04,4.0402593e-03,2.5015190e-03,4.0457524e-03,3.7733567e-04,-8.7581207e-04,5.2527558e-04,1.2256072e-02,-6.4387591e-02,6.9503550e-02
1.4299073e+00,1.9156350e-04,-1.9764490e-04,2.4221326e-05,4.1379631e-03,-1.2279739e-02,4.1474652e-03,3.7748136e-04,3.8674842e-04,1.4122208e-05,1.4568927e-05,1.2625316e-01,-5.1114168e-02
1.4399073e+00,1.9622691e-04,-2.0952256e-04,-5.9343675e-07,4.6582696e-04,-1.1877981e-03,4.6677568e-04,4.3990252e-04,3.7176061e-04,-1.6558636e-05,6.2421216e-03,-1.4987833e-03,-3.0680873e-03
1.4499073e+00,1.4329567e-04,-2.0921837e-04,-3.4284670e-05,-5.2931922e-03,2.8425567e-05,-5.2930767e-03,3.8560402e-04,7.6213361e-04,-1.4248179e-05,-5.4298545e-03,3.9037338e-02,2.3104587e-04
1.4599073e+00,1.6490758e-04,-1.4351103e-04,-4.0324577e-06,2.1631038e-03,6.5701726e-03,2.1610065e-03,2.9647183e-04,3.4075557e-05,1.7228567e-05,-8.9132280e-03,-7.2805875e-02,3.1476776e-03
1.4699073e+00,1.9295660e-04,-1.3393956e-04,1.8155664e-05,2.8048992e-03,9.5682978e-04,2.8050186e-03,2.2953241e-04,1.1589001e-04,8.0181128e-05,-6.6939484e-03,8.1814534e-03,6.2952621e-03
1.4799073e+00,2.1187674e-04,-1.8099503e-04,2.1376118e-05,1.8904729e-03,-4.7054117e-03,1.8939064e-03,3.1799124e-04,3.9186393e-04,2.4617411e-05,8.8458914e-03,2.7597418e-02,-5.5563771e-03
1.4899073e+00,2.0203215e-04,-1.8491478e-04,4.1281581e-05,-9.8392960e-04,-3.9143421e-04,-9.8520625e-04,4.8148236e-04,-6.7406759e-05,7.3072732e-04,1.6349128e-02,-4.5927113e-02,7.0611058e-02
1.4999073e+00,1.4989615e-04,-2.0118039e-04,2.6678982e-05,-5.2115815e-03,-1.6245476e-03,-5.2162545e-03,4.1893694e-04,3.2389311e-05,5.1847833e-04,-6.2545477e-03,9.9796166e-03,-2.1224919e-02
1.5099072e+00,1.0348997e-04,-1.1306632e-04,6.4580667e-05,-4.6344294e-03,8.8177964e-03,-4.6346884e-03,4.6521176e-04,-9.1037768e-04,4.5110677e-04,4.6274864e-03,-9.4276789e-02,-6.7371623e-03
1.5199072e+00,1.6457838e-04,-1.7435706e-04,1.7419785e-05,6.1068233e-03,-6.1307976e-03,6.1091463e-03,3.4825050e-04,6.7010411e-05,-1.8226246e-05,-1.1696138e-02,9.7738903e-02,-4.6933347e-02
1.5299072e+00,1.9548297e-04,-1.7632022e-04,-1.4823419e-05,3.0899400e-03,-1.9690346e-04,3.0909468e-03,2.6961914e-04,7.9498067e-05,1.5176952e-04,-7.8631430e-03,1.2487667e-03,1.6999593e-02
1.5399072e+00,1.6749459e-04,-2.2352712e-04,-4.3488421e-05,-2.8009525e-03,-4.7210340e-03,-2.7961549e-03,3.3391481e-04,4.5538260e-04,-1.9143219e-04,6.4295723e-03,3.7588489e-02,-3.4320204e-02
1.5499072e+00,1.1739340e-04,-1.8956075e-04,2.0980882e-05,-5.0107694e-03,3.3968213e-03,-5.0093557e-03,3.1743109e-04,2.8133503e-04,-3.4414355e-04,-1.6483732e-03,-1.7404774e-02,-1.5271150e-02
1.5599072e+00,1.3370276e-04,-1.6246731e-04,5.2161415e-05,1.6319733e-03,2.7087972e-03,1.6308156e-03,3.3806088e-04,1.2301175e-06,-7.3108937e-05,2.0629813e-03,-2.8010517e-02,2.7103487e-02
1.5699072e+00,1.3747539e-04,-1.6408807e-04,1.8181411e-05,3.7714274e-04,-1.6219367e-04,3.7733310e-04,4.4979967e-04,1.3663285e-04,1.2625820e-04,1.1173889e-02,1.3540286e-02,1.9936733e-02
1.5799072e+00,1.7012320e-04,-1.3087789e-04,1.4692705e-05,3.2649706e-03,3.3188351e-03,3.2668178e-03,4.2538759e-04,-2.4373067e-04,3.7522818e-04,-2.4412099e-03,-3.8036388e-02,2.4897022e-02
1.5899072e+00,1.7755916e-04,-1.0577588e-04,3.9032938e-05,7.4442974e-04,2.5092555e-03,7.4595999e-04,5.6886091e-04,-7.0458642e-04,7.9933716e-04,1.4347345e-02,-4.6085619e-02,4.2410938e-02
1.5999072e+00,1.7939334e-04,-1.2504981e-04,5.1680150e-05,1.8275602e-04,-1.9274704e-03,1.8328824e-04,3.3933461e-04,-7.2332969e-05,4.8057494e-05,-2.2952651e-02,6.3225406e-02,-7.5128038e-02
1.6099072e+00,2.3276893e-04,-9.7866894e-05,1.0016002e-04,5.3337753e-03,2.7130662e-03,5.3440076e-03,3.5990411e-04,-6.1888872e-04,8.9266587e-04,2.0569516e-03,-5.4655627e-02,8.4460919e-02
1.6199071e+00,2.6953554e-04,-1.6063884e-04,7.6928236e-05,3.6742384e-03,-6.2770865e-03,3.6792822e-03,2.0456351e-04,2.3543360e-04,3.1035539e-04,-1.5534075e-02,8.5432314e-02,-5.8231104e-02
1.6299071e+00,2.6875732e-04,-1.2221032e-04,7.0625616e-05,-7.6550694e-05,3.8428955e-03,-7.7112564e-05,3.2015988e-04,-1.9485370e-04,5.2028866e-04,1.1559649e-02,-4.3028772e-02,2.0993347e-02
1.6399071e+00,1.9958675e-04,-1.8310142e-04,-4.1375295e-06,-6.9200662e-03,-6.0874178e-03,-6.9155538e-03,3.8711107e-04,1.4174026e-04,-9.3450133e-05,6.6951251e-03,3.3659429e-02,-6.1373938e-02
1.6499071e+00,1.7496860e-04,-1.3301879e-04,1.5186616e-05,-2.4583623e-03,5.0107007e-03,-2.4603180e-03,3.0903735e-04,-6.7950021e-04,7.7447720e-04,-7.8073799e-03,-8.2124125e-02,8.6792816e-02
1.6599071e+00,1.8500599e-04,-1.5665923e-04,1.2589467e-05,1.0026882e-03,-2.3643697e-03,1.0040291e-03,2.9516096e-04,-2.7315393e-05,3.5262580e-04,-1.3876397e-03,6.5218544e-02,-4.2185180e-02
1.6699071e+00,1.8769025e-04,-1.5423522e-04,2.5263868e-05,2.6843463e-04,2.4230457e-04,2.6850370e-04,2.8063126e-04,-8.0693562e-05,2.1890643e-04,-1.4529717e-03,-5.3378221e-03,-1.3371950e-02
1.6799073e+00,1.0695098e-04,-1.4912487e-04,5.0845030e-05,-8.0747367e-03,5.1516179e-04,-8.0724838e-03,5.2225999e-04,9.6950426e-06,-1.5642687e-04,2.4162320e-02,9.0386536e-03,-3.7532471e-02
1.6899073e+00,1.4799798e-04,-8.9044453e-05,7.0121800e-05,4.1050880e-03,6.0041966e-03,4.1099517e-03,1.2977111e-04,-8.0775660e-04,9.6473223e-05,-3.9248925e-02,-8.1745243e-02,2.5290034e-02
1.6999073e+00,1.9084153e-04,-1.4598274e-04,8.4761540e-06,4.2825181e-03,-5.6957768e-03,4.2836168e-03,2.8020402e-04,-1.7341138e-04,5.7283881e-05,1.5043306e-02,6.3434583e-02,-3.9189379e-03
1.7099073e+00,1.9650762e-04,-1.1538523e-04,2.4217057e-05,5.6778092e-04,3.0594339e-03,5.6715979e-04,4.3237737e-04,-1.3030737e-04,2.6716310e-04,1.5217349e-02,4.3104054e-03,2.0987942e-02
1.7199073e+00,1.7693834e-04,-1.2147233e-04,4.2232838e-05,-1.9557769e-03,-6.0684808e-04,-1.9586597e-03,7.0122012e-04,-2.4997071e-04,8.0664265e-04,2.6884300e-02,-1.1966346e-02,5.3948006e-02
1.7299073e+00,1.7360935e-04,-1.5176141e-04,7.9462394e-05,-3.3414751e-04,-3.0286783e-03,-3.3376371e-04,4.9223395e-04,-2.0441744e-04,7.3127326e-04,-2.0898637e-02,4.5553315e-03,-7.5369462e-03
1.7399073e+00,1.7006167e-04,-1.9677435e-04,7.4031877e-05,-3.5581740e-04,-4.5013180e-03,-3.5346778e-04,2.3070969e-04,2.8625621e-04,-3.1830953e-05,-2.6152451e-02,4.9067411e-02,-7.6310494e-02
1.7499073e+00,2.1049285e-04,-2.0618106e-04,3.7841590e-05,4.0428450e-03,-9.4017051e-04,4.0435139e-03,4.0412897e-04,5.2818880e-04,-2.5806389e-05,1.7341944e-02,2.4193283e-02,6.0245695e-04
1.7599072e+00,2.0075931e-04,-1.6935706e-04,-1.3966778e-06,-9.7177160e-04,3.6827158e-03,-9.7375826e-04,4.2665042e-04,1.0627286e-04,1.2382925e-05,2.2521474e-03,-4.2191634e-02,3.8189351e-03
1.7698960e+00,1.5485469e-04,-1.9080164e-04,-2.9528468e-05,-4.5968833e-03,-2.1465358e-03,-4.5945026e-03,3.8914937e-04,3.1729686e-04,-9.4080302e-05,-3.7543149e-03,2.1126093e-02,-1.0658276e-02
1.7798960e+00,1.3799816e-04,-1.9445662e-04,-3.6085467e-05,-1.6855382e-03,-3.6571500e-04,-1.6857236e-03,3.6239871e-04,4.9089908e-04,1.4743548e-04,-2.6750688e-03,1.7360238e-02,2.4151601e-02
1.7898960e+00,1.7834826e-04,-2.1888370e-04,3.6009410e-06,4.0343113e-03,-2.4427624e-03,4.0356845e-03,4.2215239e-04,4.0902797e-04,-8.1530737e-05,5.9753739e-03,-8.1871184e-03,-2.2896643e-02
1.7998960e+00,1.9201740e-04,-1.9067745e-04,3.7895972e-05,1.3671810e-03,2.8197167e-03,1.3685282e-03,4.4881144e-04,-2.1718555e-04,7.3143814e-04,2.6659072e-03,-6.2621412e-02,8.1296965e-02
1.8098960e+00,2.0124821e-04,-1.0451338e-04,8.2969637e-05,9.2529496e-04,8.6153153e-03,9.3109490e-04,3.2019760e-04,-8.6669096e-04,5.9044461e-04,-1.2861397e-02,-6.4950603e-02,-1.4099366e-02
1.8198960e+00,2.0547154e-04,-5.9021325e-05,9.8063672e-05,4.2380565e-04,4.5487217e-03,4.2609861e-04,3.4688321e-04,-8.0414596e-04,2.5170622e-04,2.6685636e-03,6.2545058e-03,-3.3873871e-02
1.8298960e+00,1.8686756e-04,-1.2843709e-04,6.6864619e-05,-1.8630069e-03,-6.9406133e-03,-1.8614096e-03,4.6430877e-04,-5.6664376e-05,3.3088551e-04,1.1742567e-02,7.4748230e-02,7.9179369e-03
1.8398960e+00,1.2756767e-04,-1.3034549e-04,3.7227589e-05,-5.9283481e-03,-1.8770572e-04,-5.9317411e-03,4.5531087e-04,-7.3192199e-05,2.9219730e-04,-8.9979028e-04,-1.6527838e-03,-3.8688251e-03
1.8498960e+00,9.4746463e-05,-1.0333535e-04,3.2419932e-05,-3.2816466e-03,2.7041037e-03,-3.2800581e-03,3.9961575e-04,-5.4132471e-04,-1.8357217e-04,-5.5695176e-03,-4.6813296e-02,-4.7576993e-02
1.8598959e+00,1.2825896e-04,-7.3722501e-05,4.6244097e-05,3.3539363e-03,2.9562979e-03,3.3529731e-03,5.2897263e-04,-9.5978389e-04,-3.3355490e-04,1.2935701e-02,-4.1845957e-02,-1.4998287e-02
1.8698959e+00,3.0228082e-04,-8.8187684e-05,1.7907490e-04,1.7394406e-02,-1.4568046e-03,1.7409138e-02,2.5650357e-04,-3.3437727e-04,4.2658204e-04,-2.7246932e-02,6.2540721e-02,7.6013767e-02
1.8798959e+00,2.8979580e-04,-1.3231533e-04,1.7750548e-04,-1.2481847e-03,-4.4131209e-03,-1.2475760e-03,1.3440139e-05,2.9568608e-04,3.0251038e-04,-2.4306367e-02,6.3006395e-02,-1.2407178e-02
1.8898959e+00,1.3986927e-04,-1.1839267e-04,6.8342601e-05,-1.4997723e-02,1.4077465e-03,-1.4986164e-02,4.2295138e-04,-6.0980419e-04,-3.7662454e-04,4.0951163e-02,-9.0549113e-02,-6.7913556e-02
1.8998959e+00,1.6041668e-04,-1.7613895e-04,1.7847364e-05,2.0525618e-03,-5.7748876e-03,2.0562062e-03,4.1832822e-04,2.9400045e-04,-1.1428743e-04,-4.6231653e-04,9.0380550e-02,2.6233735e-02
1.9098818e+00,2.0588553e-04,-1.7591967e-04,7.7319986e-06,4.5524117e-03,2.1337117e-05,4.5541802e-03,4.5234935e-04,3.1569356e-04,1.9594652e-04,3.4069081e-03,2.1723694e-03,3.1067126e-02
1.9198818e+00,2.4682591e-04,-1.4926292e-04,4.2581603e-05,4.0936516e-03,2.6639375e-03,4.0955633e-03,4.5982098e-04,3.4941419e-05,3.9442980e-04,7.4716386e-04,-2.8075241e-02,1.9848347e-02
1.9298820e+00,2.7693158e-04,-1.2967900e-04,8.3601852e-05,3.0093461e-03,1.9569638e-03,3.0125491e-03,2.7567602e-04,-1.8368446e-04,5.6186269e-04,-1.8414074e-02,-2.1862087e-02,1.6742906e-02
1.9398820e+00,2.1236548e-04,-1.8854746e-04,6.5440680e-05,-6.4564287e-03,-5.8852539e-03,-6.4582597e-03,2.3003459e-04,-1.7408552e-05,2.3868831e-04,-4.5641476e-03,1.6627607e-02,-3.2317469e-02
1.9498820e+00,2.1522895e-04,-2.2101062e-04,1.5298123e-05,2.8508175e-04,-3.2463147e-03,2.8765425e-04,3.8598304e-04,3.9868630e-04,4.4039523e-05,1.5594860e-02,4.1609525e-02,-1.9464897e-02
1.9598820e+00,2.2965099e-04,-1.8448053e-04,-1.8408356e-05,1.4436933e-03,3.6523992e-03,1.4422695e-03,4.7654055e-04,5.1519769e-05,1.7497143e-04,9.0557595e-03,-3.4716686e-02,1.3093203e-02
1.9698820e+00,1.9095574e-04,-1.1918787e-04,-4.1217981e-05,-3.8660860e-03,6.5322396e-03,-3.8679605e-03,4.6674218e-04,-3.0038472e-04,1.0194668e-04,-9.7983741e-04,-3.5190483e-02,-7.3024825e-03
1.9798820e+00,1.3043802e-04,-6.4797212e-05,7.1142965e-06,-6.0512003e-03,5.4485003e-03,-6.0438683e-03,5.0678858e-04,-1.0523166e-03,-3.6022318e-04,4.0046430e-03,-7.5193263e-02,-4.6217030e-02
1.9898820e+00,1.5810519e-04,-1.7826827e-04,1.7693699e-07,2.7611651e-03,-1.1347792e-02,2.7694987e-03,4.4522860e-04,2.0069491e-04,1.8156298e-04,-6.1560032e-03,1.2530127e-01,5.4178667e-02
1.9998820e+00,1.8750895e-04,-2.1835462e-04,1.7398431e-05,2.9383204e-03,-4.0084235e-03,2.9427289e-03,4.4177179e-04,5.1475734e-04,9.7553725e-05,-3.4568168e-04,3.1406273e-02,-8.4009330e-03
2.0098820e+00,1.8452578e-04,-2.2314980e-04,2.4713772e-05,-2.9852363e-04,-4.7954287e-04,-2.9807074e-04,4.4688510e-04,5.3041081e-04,2.6288771e-05,5.1133179e-04,1.5653491e-03,-7.1265022e-03
2.0198820e+00,1.6393526e-04,-9.7244067e-05,7.2534098e-05,-2.0527780e-03,1.2593066e-02,-2.0501330e-03,4.2951431e-04,-7.7720405e-04,4.2154870e-04,-1.7370807e-03,-1.3076161e-01,3.9526031e-02
2.0298820e+00,1.4803062e-04,-9.2960186e-05,6.2118369e-05,-1.5898011e-03,4.3009210e-04,-1.5906701e-03,3.9545498e-04,-6.7558602e-04,3.1115226e-04,-3.4059370e-03,1.0161813e-02,-1.1039655e-02
2.0398819e+00,1.7303014e-04,-1.3719364e-04,4.3394000e-05,2.4962756e-03,-4.4250043e-03,2.5007022e-03,4.8614556e-04,-1.7598640e-04,6.1119825e-04,9.0690668e-03,4.9960009e-02,3.0004627e-02
2.0498819e+00,1.6544746e-04,-1.9970855e-04,2.0781614e-05,-7.6058374e-04,-6.2515168e-03,-7.5578686e-04,3.7884633e-04,4.0538488e-04,6.9545325e-05,-1.0729933e-02,5.8137184e-02,-5.4165344e-02
2.0598819e+00,2.0304225e-04,-1.1524392e-04,9.2409356e-05,3.7632439e-03,8.4425025e-03,3.7646304e-03,3.9320049e-04,-6.6197302e-04,-1.1727315e-04,1.4354173e-03,-1.0673589e-01,-1.8681865e-02
2.0698819e+00,1.9145059e-04,-2.2642041e-04,-7.6791188e-06,-1.1646005e-03,-1.1117609e-02,-1.1542006e-03,4.7564612e-04,4.3361501e-04,-1.2533237e-04,8.2445711e-03,1.0955891e-01,-8.0592275e-04
2.0798819e+00,2.1717190e-04,-1.9691953e-04,-3.1320750e-05,2.5730039e-03,2.9494138e-03,2.5720394e-03,4.1451759e-04,1.5122256e-04,1.3683836e-04,-6.1128595e-03,-2.8239272e-02,2.6217098e-02
2.0898819e+00,2.1842197e-04,-1.3633217e-04,-1.9897345e-05,1.2751760e-04,6.0586745e-03,1.2573358e-04,4.1602427e-04,-1.1805173e-04,8.4414154e-05,1.5066890e-04,-2.6927455e-02,-5.2424260e-03
2.0998819e+00,2.1119628e-04,-1.1426355e-04,2.8372224e-05,-7.2093675e-04,2.2075929e-03,-7.2197469e-04,5.0917414e-04,-5.0015461e-04,7.0512611e-04,9.3149959e-03,-3.8210324e-02,6.2071255e-02
2.1098819e+00,2.3663166e-04,-1.7085504e-04,4.1309515e-05,2.5402607e-03,-5.6597688e-03,2.5454510e-03,4.0555978e-04,1.6371732e-04,3.8711027e-04,-1.0361446e-02,6.6387257e-02,-3.1801615e-02
2.1198819e+00,2.6450937e-04,-1.8439822e-04,5.5116143e-05,2.7856927e-03,-1.3551528e-03,2.7894473e-03,4.9996063e-04,2.0084245e-04,5.0313899e-04,9.4400943e-03,3.7125156e-03,1.1602883e-02
2.1298819e+00,2.4536230e-04,-1.6742949e-04,6.7370866e-05,-1.9123322e-03,1.6982675e-03,-1.9158471e-03,4.6729690e-04,-2.5998360e-04,8.2622205e-04,-3.2663762e-03,-4.6082648e-02,3.2308338e-02
2.1398818e+00,2.2006814e-04,-1.3161414e-04,5.1887088e-05,-2.5264491e-03,3.5839730e-03,-2.5289371e-03,3.2667991e-04,-6.3581735e-04,7.1102144e-04,-1.4061713e-02,-3.7583410e-02,-1.1520072e-02
2.1498818e+00,1.5798536e-04,-7.8867250e-05,4.5361620e-05,-6.2059565e-03,5.2824344e-03,-6.2040295e-03,3.3992206e-04,-9.0719624e-04,8.6135039e-05,1.3242165e-03,-2.7137915e-02,-6.2488700e-02
2.1598818e+00,1.6593908e-04,-1.5961283e-04,-1.4062546e-05,7.9164056e-04,-8.0750044e-03,7.9463942e-04,4.5515479e-04,-9.7921137e-05,7.2027714e-05,1.1523284e-02,8.0927588e-02,-1.4107339e-03
2.1698818e+00,1.7159292e-04,-1.9224854e-04,-2.1024705e-05,5.6373090e-04,-3.2637162e-03,5.6621577e-04,4.9952129e-04,2.4757366e-04,4.1229548e-05,4.4366543e-03,3.4549512e-02,-3.0798195e-03
2.1798820e+00,1.6523610e-04,-8.9597743e-05,7.3856392e-05,-6.3037299e-04,1.0265661e-02,-6.2771179e-04,5.4540231e-04,-7.4561068e-04,-4.7857520e-04,4.5879973e-03,-9.9316160e-02,-5.1979285e-02
2.1898820e+00,2.3565129e-04,-4.3786189e-05,1.2509060e-04,7.0413067e-03,4.5707199e-03,7.0485256e-03,3.1000365e-04,-1.1718558e-03,2.3272012e-04,-2.3539888e-02,-4.2624552e-02,7.1129599e-02
2.1998820e+00,1.8422224e-04,-1.9476202e-04,2.5798105e-05,-5.1486352e-03,-1.5097618e-02,-5.1371186e-03,4.0728043e-04,4.1173479e-04,8.2362488e-05,9.7276873e-03,1.5835921e-01,-1.5035777e-02
2.2098820e+00,2.2490692e-04,-1.2424531e-04,5.0174157e-05,4.0693511e-03,7.0484302e-03,4.0732179e-03,5.6029592e-04,-2.3739411e-04,7.5468096e-04,1.5301563e-02,-6.4912951e-02,6.7231912e-02
2.2198820e+00,2.0253794e-04,-1.7435461e-04,1.8349070e-05,-2.2395806e-03,-5.0104808e-03,-2.2352344e-03,5.3198630e-04,3.2974152e-04,-6.4160838e-06,-2.8309647e-03,5.6713617e-02,-7.6109777e-02
2.2298820e+00,1.9121474e-04,-2.2231342e-04,2.4990363e-05,-1.1342883e-03,-4.7959268e-03,-1.1301746e-03,4.5115394e-04,4.8834677e-04,1.7286043e-04,-8.0832441e-03,1.5860540e-02,1.7927669e-02
2.2398820e+00,1.9305951e-04,-2.1515625e-04,5.3765861e-05,1.8474005e-04,7.1564676e-04,1.8448767e-04,5.0241973e-04,1.2026730e-04,5.2328116e-04,5.1265840e-03,-3.6807982e-02,3.5042106e-02
2.2498820e+00,1.3128018e-04,-2.1621723e-04,6.2996485e-05,-6.1740111e-03,-1.0376144e-04,-6.1819038e-03,4.6327892e-04,8.5055989e-05,6.4341714e-04,-3.9140852e-03,-3.5211343e-03,1.2013610e-02
2.2598820e+00,-2.5938973e-05,-1.6759132e-04,1.2504660e-04,-1.5702211e-02,4.8818996e-03,-1.5735649e-02,6.2530451e-04,-6.0203218e-04,1.0601198e-03,1.6202575e-02,-6.8708882e-02,4.1670302e-02
2.2698820e+00,-3.4985352e-04,-2.4102940e-04,1.0936003e-04,-3.2366961e-02,-7.3078481e-03,-3.2424119e-02,5.4483220e-04,-5.6498733e-04,8.8012260e-04,-8.0472380e-03,3.7044883e-03,-1.7999734e-02
2.2798820e+00,-6.7504223e-04,-1.5701938e-04,1.1890179e-04,-3.2490196e-02,8.4548492e-03,-3.2533639e-02,4.7165117e-04,-1.1832701e-03,7.6050728e-04,-7.3181109e-03,-6.1828339e-02,-1.1961543e-02
2.2898819e+00,-9.7460828e-04,-6.9308211e-05,1.7672931e-04,-2.9936130e-02,8.8363737e-03,-2.9957955e-02,3.4247393e-04,-1.8350784e-03,5.8394984e-04,-1.2917736e-02,-6.5180894e-02,-1.7655761e-02
2.2998819e+00,-1.3195760e-03,6.1813351e-06,2.2880720e-04,-3.4480487e-02,7.6289335e-03,-3.4495526e-02,2.2329266e-04,-2.0945395e-03,4.2405235e-04,-1.1918138e-02,-2.5946130e-02,-1.5989764e-02
2.3098819e+00,-1.6925576e-03,-1.3066285e-04,2.4204143e-04,-3.7320564e-02,-1.3593990e-02,-3.7308887e-02,6.4647321e-04,-1.7783302e-03,-3.6287254e-04,4.2318096e-02,3.1620962e-02,-7.8692565e-02
2.3198819e+00,-1.6918050e-03,-2.2845937e-04,2.9594002e-04,6.5998108e-05,-9.7798406e-03,5.9004182e-05,9.4326747e-04,-1.6650478e-03,4.6018255e-04,2.9679454e-02,1.1328246e-02,8.2305588e-02
2.3298819e+00,-1.7925075e-03,-4.1715490e-04,2.6777647e-04,-1.0085673e-02,-1.8852005e-02,-1.0087722e-02,1.3485010e-03,-3.9362216e-04,9.9496732e-04,4.0523393e-02,1.2714269e-01,5.3478528e-02
2.3398819e+00,-2.0578766e-03,-2.7553910e-04,2.7084039e-04,-2.6487976e-02,1.4233508e-02,-2.6547367e-02,1.3539627e-03,-1.3554533e-03,1.1207503e-03,5.4616415e-04,-9.6183208e-02,1.2578309e-02
2.3498819e+00,-2.6962605e-03,-1.9027491e-04,2.3188329e-04,-6.3833923e-02,8.7739194e-03,-6.3809435e-02,1.3140204e-03,-2.5636729e-03,-1.0545703e-04,-3.9942273e-03,-1.2082207e-01,-1.2262085e-01
2.3598819e+00,-3.1181991e-03,-4.0487651e-04,3.5571538e-04,-4.2219719e-02,-2.1322765e-02,-4.2237728e-02,1.4870830e-03,-1.7680508e-03,1.4344514e-04,1.7306278e-02,7.9562278e-02,2.4890241e-02
2.3698819e+00,-3.6876583e-03,-8.0346220e-04,3.9855979e-04,-5.7014816e-02,-3.9730947e-02,-5.6966302e-02,1.9320719e-03,-3.0832426e-04,1.4158414e-04,4.4498925e-02,1.4597280e-01,-1.8609959e-04
2.3798819e+00,-4.1826272e-03,-8.8902761e-04,3.0640203e-04,-4.9512792e-02,-8.3832813e-03,-4.9510727e-02,2.3866817e-03,-1.1131987e-03,8.9411634e-05,4.5461024e-02,-8.0487526e-02,-5.2172559e-03
2.3898818e+00,-4.4601891e-03,-8.2522155e-04,3.0294283e-04,-2.7743267e-02,6.4761253e-03,-2.7747039e-02,2.0479145e-03,-1.3939433e-03,-6.3676027e-06,-3.3876750e-02,-2.8074479e-02,-9.5779328e-03
2.3998818e+00,-4.7322946e-03,-5.7268286e-04,4.7084527e-04,-2.7171458e-02,2.5363317e-02,-2.7147803e-02,1.4435533e-03,-2.5816662e-03,9.6554855e-05,-6.0436177e-02,-1.1877241e-01,1.0292256e-02
2.4098818e+00,-5.2452266e-03,-6.8279311e-04,4.9314410e-04,-5.1333156e-02,-1.0763792e-02,-5.1305801e-02,1.9782255e-03,-2.8417128e-03,-3.5541059e-04,5.3467269e-02,-2.6004687e-02,-4.5196587e-02
2.4198818e+00,-5.7540618e-03,-9.5630906e-04,5.0000779e-04,-5.0940378e-02,-2.7102784e-02,-5.0959821e-02,2.6031107e-03,-2.2833666e-03,2.7938013e-04,6.2488583e-02,5.5834677e-02,6.3479133e-02
2.4298820e+00,-6.0141295e-03,-8.5603205e-04,5.9082209e-04,-2.5966411e-02,1.0160896e-02,-2.5994135e-02,2.4556383e-03,-2.6758629e-03,5.7933089e-04,-1.4746906e-02,-3.9248734e-02,2.9994390e-02
2.4398820e+00,-6.1650038e-03,-8.8863418e-04,7.3506618e-04,-1.5087582e-02,-3.1738341e-03,-1.5105711e-02,2.9124222e-03,-2.8095175e-03,6.1566453e-04,4.5678433e-02,-1.3365473e-02,3.6333674e-03
2.4498820e+00,-6.1773415e-03,-9.3745235e-04,7.8707920e-04,-1.2473553e-03,-4.8752744e-03,-1.2459357e-03,3.0537690e-03,-2.2225188e-03,1.0651234e-03,1.4134695e-02,5.8699925e-02,4.4945934e-02
2.4598820e+00,-6.4095022e-03,-9.0889762e-04,7.6852560e-04,-2.3164674e-02,2.9745682e-03,-2.3252466e-02,2.8267791e-03,-2.2994986e-03,1.8612497e-03,-2.2699014e-02,-7.6979812e-03,7.9612703e-02
2.4698820e+00,-7.0603565e-03,-9.4671193e-04,6.9735174e-04,-6.5040679e-02,-3.3805676e-03,-6.5152318e-02,2.8230947e-03,-3.3326388e-03,8.4825393e-04,-3.6843723e-04,-1.0331412e-01,-1.0129968e-01
2.4798820e+00,-7.8899009e-03,-1.5599786e-03,6.3350321e-04,-8.3249888e-02,-6.0851753e-02,-8.3008377e-02,4.0130703e-03,-1.7066408e-03,-6.0211360e-04,1.1899768e-01,1.6259996e-01,-1.4503689e-01
2.4898820e+00,-8.3925274e-03,-1.6795045e-03,5.9936961e-04,-5.0361648e-02,-1.1675337e-02,-5.0228816e-02,4.0814128e-03,-1.4342198e-03,-1.0068585e-03,6.8342503e-03,2.7242128e-02,-4.0474533e-02
2.4998820e+00,-8.6510679e-03,-1.9364004e-03,6.1494488e-04,-2.5986500e-02,-2.5565153e-02,-2.5844666e-02,4.4355022e-03,-3.6873813e-04,-7.2500603e-04,3.5408974e-02,1.0654827e-01,2.8185279e-02
2.5098820e+00,-8.7554140e-03,-2.1294994e-03,6.1573351e-04,-1.0520391e-02,-1.9266242e-02,-1.0429237e-02,4.6457162e-03,4.7982933e-04,3.6668695e-04,2.1021421e-02,8.4856827e-02,1.0916940e-01
2.5198820e+00,-8.9924669e-03,-2.2634107e-03,6.6570547e-04,-2.3755785e-02,-1.3314249e-02,-2.3698104e-02,5.0091180e-03,1.7719899e-03,6.8780374e-04,3.6340216e-02,1.2921618e-01,3.2111710e-02
2.5298820e+00,-9.3053583e-03,-2.0578844e-03,7.3489460e-04,-3.1170034e-02,2.0674765e-02,-3.1327609e-02,4.5705478e-03,6.6015349e-04,7.9471468e-04,-4.3857062e-02,-1.1118375e-01,1.0691104e-02
2.5398819e+00,-9.9989287e-03,-1.9510395e-03,7.3293676e-04,-6.9298053e-02,1.1053582e-02,-6.9358300e-02,4.6956230e-03,-6.2740162e-04,1.1707087e-04,1.2507527e-02,-1.2875563e-01,-6.7764446e-02
2.5498819e+00,-1.0731677e-02,-2.1481855e-03,7.7891256e-04,-7.3369009e-02,-1.9228262e-02,-7.3309936e-02,5.1804686e-03,-1.4530695e-03,9.5851184e-05,4.8484610e-02,-8.2566869e-02,-2.1219704e-03
2.5598819e+00,-1.1385993e-02,-2.2680409e-03,9.5249022e-04,-6.5476204e-02,-1.1562835e-02,-6.5463241e-02,5.4494086e-03,-1.0078974e-03,3.0315722e-04,2.6894022e-02,4.4517259e-02,2.0730624e-02
2.5698819e+00,-1.2010385e-02,-2.5216123e-03,8.6517834e-04,-6.2617155e-02,-2.4988906e-02,-6.2409488e-02,6.0427276e-03,1.5242279e-04,-4.1408728e-04,5.9331956e-02,1.1603213e-01,-7.1724518e-02
2.5798819e+00,-1.2315645e-02,-2.4482881e-03,9.0700235e-04,-3.0501710e-02,7.5181103e-03,-3.0505151e-02,5.8798875e-03,-2.0750905e-04,-6.3337140e-04,-1.6284021e-02,-3.5993219e-02,-2.1928433e-02
2.5898819e+00,-1.2472703e-02,-2.3486554e-03,9.0124926e-04,-1.5654890e-02,1.0066927e-02,-1.5690534e-02,5.6978625e-03,-9.1245768e-04,-3.8914958e-04,-1.8202518e-02,-7.0494930e-02,2.4422206e-02
2.5998819e+00,-1.2738525e-02,-2.5568643e-03,9.3926440e-04,-2.6718844e-02,-2.0642027e-02,-2.6584785e-02,6.3305988e-03,-3.8301995e-04,-2.0061623e-04,6.3273692e-02,5.2943823e-02,1.8853353e-02
2.6098819e+00,-1.3181493e-02,-2.9386455e-03,9.9360478e-04,-4.4573278e-02,-3.7905054e-02,-4.4254134e-02,7.0482700e-03,9.0490102e-04,-1.8989640e-04,7.1767186e-02,1.2879222e-01,1.0719836e-03
2.6198819e+00,-1.3694826e-02,-3.0722381e-03,1.0540845e-03,-5.1424271e-02,-1.3036159e-02,-5.1325390e-02,7.0479668e-03,7.5998253e-04,3.7874667e-05,-3.0314264e-05,-1.4491863e-02,2.2777129e-02
2.6298819e+00,-1.4304297e-02,-3.0745547e-03,1.1708238e-03,-6.0933286e-02,1.9951710e-04,-6.0961097e-02,7.0670548e-03,-7.5841026e-06,2.2912103e-04,1.9088003e-03,-7.6756737e-02,1.9124655e-02
2.6398818e+00,-1.5086484e-02,-3.2635103e-03,1.2130134e-03,-7.8397302e-02,-1.8369038e-02,-7.8165420e-02,7.3598064e-03,6.3503007e-04,-5.3191500e-04,2.9275188e-02,6.4261478e-02,-7.6103676e-02
2.6498818e+00,-1.5731414e-02,-3.4253982e-03,1.2393176e-03,-6.4656800e-02,-1.5717580e-02,-6.4445652e-02,7.7335633e-03,4.3474751e-04,-6.2778840e-04,3.7375727e-02,-2.0028275e-02,-9.5873484e-03
2.6598818e+00,-1.6363823e-02,-3.3760144e-03,1.2576626e-03,-6.3225479e-02,5.4900452e-03,-6.3211083e-02,7.7675106e-03,-9.5857256e-04,-3.9092665e-04,3.3947296e-03,-1.3933214e-01,2.3686197e-02
2.6698818e+00,-1.6849973e-02,-3.1445808e-03,1.4874672e-03,-4.8427163e-02,2.3536073e-02,-4.8613941e-02,7.1137689e-03,-9.7567768e-04,4.5179436e-04,-6.5374234e-02,-1.7105129e-03,8.4272181e-02
2.6798820e+00,-1.7761435e-02,-3.6200038e-03,1.4052237e-03,-9.1595763e-02,-4.6775452e-02,-9.1087631e-02,8.5166320e-03,1.3396366e-04,-5.4893809e-04,1.4028310e-01,1.1096159e-01,-1.0007095e-01
2.6898820e+00,-1.8731822e-02,-3.9675513e-03,1.4128900e-03,-9.7470113e-02,-3.3957231e-02,-9.6888738e-02,9.1631117e-03,9.6041001e-04,-1.2059294e-03,6.4648030e-02,8.2644714e-02,-6.5699192e-02
2.6998820e+00,-1.9553063e-02,-4.2210718e-03,1.4584277e-03,-8.2471348e-02,-2.4633193e-02,-8.1994950e-02,9.6542578e-03,9.1620518e-04,-1.2945485e-03,4.9114654e-02,-4.4204866e-03,-8.8619211e-03
2.7098820e+00,-2.0292891e-02,-4.5315379e-03,1.4709028e-03,-7.4365318e-02,-3.0443839e-02,-7.3849710e-02,9.9693413e-03,1.8447820e-03,-1.0368723e-03,3.1508376e-02,9.2857775e-02,2.5767650e-02
2.7198820e+00,-2.0908771e-02,-4.5704071e-03,1.5439391e-03,-6.1629612e-02,-3.2998689e-03,-6.1580874e-02,1.0700541e-02,1.1721841e-03,-5.5565583e-05,7.3120046e-02,-6.7259861e-02,9.8130761e-02
2.7298820e+00,-2.1629514e-02,-4.0962337e-03,1.5616338e-03,-7.1628471e-02,4.8415884e-02,-7.1854621e-02,1.0620397e-02,-3.2770148e-03,-8.5785199e-04,-8.0144588e-03,-4.4492032e-01,-8.0228718e-02
2.7398820e+00,-2.2430701e-02,-4.3559310e-03,1.5714612e-03,-8.0478008e-02,-2.4965315e-02,-8.0078160e-02,1.0521230e-02,-1.9995600e-03,-1.1285161e-03,-9.9166757e-03,1.2774561e-01,-2.7066437e-02
2.7498820e+00,-2.3128491e-02,-4.7105952e-03,1.6536068e-03,-7.0271391e-02,-3.4610723e-02,-6.9714560e-02,1.1355029e-02,-8.7691150e-04,-1.3503733e-03,8.3380025e-02,1.1226496e-01,-2.2185745e-02
2.7598820e+00,-2.3702737e-02,-5.1393368e-03,1.6684494e-03,-5.8048132e-02,-4.2188616e-02,-5.7305387e-02,1.2351988e-02,4.7063378e-04,-1.7136289e-03,9.9695927e-02,1.3475466e-01,-3.6325592e-02
2.7698820e+00,-2.4178406e-02,-5.3938306e-03,1.7096494e-03,-4.7916674e-02,-2.4896876e-02,-4.7508398e-02,1.2590664e-02,1.0179952e-03,-6.9470276e-04,2.3867706e-02,5.4736198e-02,1.0189271e-01
2.7798820e+00,-2.4684275e-02,-5.4626099e-03,1.8616919e-03,-5.0655036e-02,-6.2773465e-03,-5.0596817e-02,1.2843178e-02,9.8140312e-04,3.1678565e-04,2.5251333e-02,-3.6592159e-03,1.0114894e-01
2.7898819e+00,-2.5656381e-02,-5.6066750e-03,1.8674222e-03,-9.7435081e-02,-1.3196578e-02,-9.7157793e-02,1.3470648e-02,1.0375395e-03,-4.0291298e-04,6.2747148e-02,5.6136479e-03,-7.1969931e-02
2.7998819e+00,-2.6852670e-02,-5.5881470e-03,1.9050160e-03,-1.1976634e-01,3.5534797e-03,-1.1945322e-01,1.3752415e-02,-4.6644897e-04,-1.4558269e-03,2.8176685e-02,-1.5039899e-01,-1.0529149e-01
2.8098819e+00,-2.7839329e-02,-5.7963806e-03,1.9555401e-03,-9.9135608e-02,-1.9395671e-02,-9.8486060e-02,1.3799991e-02,-6.5169635e-04,-1.9444974e-03,4.7576190e-03,-1.8524756e-02,-4.8867096e-02
2.8198819e+00,-2.8928806e-02,-6.2972641e-03,1.9782041e-03,-1.0984635e-01,-4.8475611e-02,-1.0877499e-01,1.5159007e-02,4.0854787e-04,-1.3941287e-03,1.3590170e-01,1.0602452e-01,5.5036922e-02
2.8298819e+00,-2.9837086e-02,-6.6423789e-03,1.9530236e-03,-9.1509956e-02,-3.3160102e-02,-9.0646779e-02,1.6203515e-02,1.3763127e-03,-1.4838612e-03,1.0445090e-01,9.6776573e-02,-8.9732638e-03
2.8398819e+00,-3.0727447e-02,-6.7808537e-03,1.9308877e-03,-8.9413668e-02,-1.2469664e-02,-8.8861400e-02,1.6708252e-02,1.2566428e-03,-1.7821399e-03,5.0473797e-02,-1.1967001e-02,-2.9827896e-02
2.8498819e+00,-3.1459574e-02,-6.3938601e-03,2.1637785e-03,-7.2677445e-02,3.9864691e-02,-7.3120787e-02,1.5843281e-02,-1.4049735e-04,-1.1889036e-03,-8.6497253e-02,-1.3971415e-01,5.9323691e-02
2.8598819e+00,-3.2477743e-02,-6.3579160e-03,2.2151001e-03,-1.0187355e-01,5.3465954e-03,-1.0168346e-01,1.5961541e-02,-1.2543774e-03,-1.2467961e-03,1.1826089e-02,-1.1138811e-01,-5.7892610e-03
2.8698819e+00,-3.3603055e-02,-6.9551442e-03,2.1600252e-03,-1.1377337e-01,-5.7744070e-02,-1.1231509e-01,1.7760854e-02,2.5965883e-04,-1.7706756e-03,1.7993139e-01,1.5140376e-01,-5.2387995e-02
2.8798819e+00,-3.4518422e-02,-7.3561003e-03,2.2351726e-03,-9.2401723e-02,-3.8425837e-02,-9.1383715e-02,1.8942329e-02,7.7887921e-04,-1.3332274e-03,1.1814765e-01,5.1922087e-02,4.3744855e-02
2.8898518e+00,-3.5505530e-02,-7.6626193e-03,2.1396926e-03,-9.9741700e-02,-2.8750945e-02,-9.8870995e-02,2.0178252e-02,1.0722636e-04,-1.3465890e-03,1.2396481e-01,-6.7367727e-02,-1.3401840e-03
2.8998518e+00,-3.6350662e-02,-7.2150279e-03,2.1836984e-03,-8.3792416e-02,4.6129445e-02,-8.4494398e-02,1.7720703e-02,1.4239235e-03,-1.0116459e-03,-2.4575512e-01,1.3166984e-01,3.3494346e-02
2.9098518e+00,-3.7368216e-02,-7.1892620e-03,2.4209410e-03,-1.0174143e-01,4.5893538e-03,-1.0169856e-01,1.8562539e-02,-1.2239805e-03,-5.0469487e-04,8.4183680e-02,-2.6479066e-01,5.0695147e-02
2.9198518e+00,-3.8889212e-02,-7.7658088e-03,2.3248141e-03,-1.5331891e-01,-5.4914317e-02,-1.5188972e-01,1.9015444e-02,1.0668925e-03,-9.8905397e-04,4.5290593e-02,2.2908752e-01,-4.8435956e-02
2.9298520e+00,-4.0234117e-02,-8.3075101e-03,2.3863265e-03,-1.3581564e-01,-5.1116157e-02,-1.3434739e-01,2.1334851e-02,-1.2757840e-03,-1.5127117e-03,2.3193533e-01,-2.3426229e-01,-5.2364574e-02
2.9398520e+00,-4.1623952e-02,-8.2336392e-03,2.2895770e-03,-1.3914038e-01,1.0252661e-02,-1.3864469e-01,2.0500224e-02,-1.3069057e-04,-2.4298682e-03,-8.3462746e-02,1.1450945e-01,-9.1715739e-02
2.9498520e+00,-4.2870296e-02,-8.4584726e-03,2.4086056e-03,-1.2544588e-01,-1.9456187e-02,-1.2432942e-01,2.2461767e-02,-1.7876375e-03,-2.7144635e-03,1.9615443e-01,-1.6569486e-01,-2.8459557e-02
2.9598520e+00,-4.3965444e-02,-9.5807750e-03,2.1050406e-03,-1.1251434e-01,-1.1008107e-01,-1.0865248e-01,2.3958390e-02,4.6504923e-03,-3.1303293e-03,1.4966247e-01,6.4381360e-01,-4.1586619e-02
2.9698520e+00,-4.4696110e-02,-9.1765254e-03,2.4491960e-03,-7.2166615e-02,4.2098061e-02,-7.3016363e-02,2.3891766e-02,8.3460839e-04,-1.1849953e-03,-6.6623934e-03,-3.8158875e-01,1.9453359e-01
2.9798520e+00,-4.5678925e-02,-9.3736779e-03,2.6319183e-03,-9.8763712e-02,-1.6967907e-02,-9.8310949e-02,2.5707512e-02,-2.1827755e-03,-7.9851386e-05,1.8157480e-01,-3.0173868e-01,1.1051449e-01
2.9898520e+00,-4.7182073e-02,-9.0490283e-03,2.7841756e-03,-1.4950102e-01,3.6449192e-02,-1.5021336e-01,2.4246077e-02,-2.3263726e-03,-1.1514201e-04,-1.4614363e-01,-1.4359717e-02,-3.5290655e-03
2.9998519e+00,-4.8907599e-02,-9.2817229e-03,2.7808330e-03,-1.7322031e-01,-1.8540643e-02,-1.7245686e-01,2.4203419e-02,-3.1669261e-03,-8.9817565e-04,-4.2657904e-03,-8.4055435e-02,-7.8303439e-02
3.0098519e+00,-5.0561811e-02,-1.0422358e-02,2.7717151e-03,-1.6879378e-01,-1.0895429e-01,-1.6545864e-01,2.8361744e-02,-2.2527662e-03,-1.2362780e-03,4.1583282e-01,9.1416074e-02,-3.3810269e-02
3.0198519e+00,-5.2417327e-02,-1.0855283e-02,2.8083238e-03,-1.8704878e-01,-3.7173970e-02,-1.8537539e-01,2.9957022e-02,-2.9211436e-03,-1.5290848e-03,1.5952800e-01,-6.6837797e-02,-2.9280704e-02
3.0298519e+00,-5.4221700e-02,-1.1587478e-02,2.3791874e-03,-1.8298686e-01,-6.8686966e-02,-1.7965061e-01,2.9281799e-02,4.3464139e-03,-2.6810400e-03,-6.7522383e-02,7.2675644e-01,-1.1519564e-01
3.0398519e+00,-5.5480062e-02,-1.1539422e-02,2.9809293e-03,-1.2560005e-01,9.0287160e-03,-1.2584032e-01,3.1208047e-02,-2.3755464e-03,1.9937241e-04,1.9262501e-01,-6.7219667e-01,2.8804152e-01
3.0498519e+00,-5.7504075e-02,-1.1888763e-02,2.6267802e-03,-2.0380029e-01,-2.9205735e-02,-2.0190485e-01,3.0029281e-02,1.8046295e-03,-2.1821535e-03,-1.1787670e-01,4.1801799e-01,-2.3815282e-01
3.0598519e+00,-5.9313152e-02,-1.2226010e-02,2.7262649e-03,-1.8224480e-01,-2.8302261e-02,-1.8049516e-01,3.0986801e-02,1.1004331e-03,-2.0966369e-03,9.5752025e-02,-7.0419709e-02,8.5516626e-03
3.0698519e+00,-6.1122021e-02,-1.2854488e-02,3.0357356e-03,-1.8319942e-01,-5.5971140e-02,-1.8081852e-01,3.4646522e-02,-3.1712371e-03,-1.3490303e-03,3.6597246e-01,-4.2716742e-01,7.4760735e-02
3.0798519e+00,-6.2938598e-02,-1.2522303e-02,3.3164985e-03,-1.8058576e-01,4.0511071e-02,-1.8124630e-01,3.4091651e-02,-6.1754053e-03,-9.1294616e-04,-5.5487178e-02,-3.0041711e-01,4.3608455e-02
3.0898519e+00,-6.4940831e-02,-1.3455941e-02,3.2938201e-03,-2.0375039e-01,-8.5504851e-02,-2.0017609e-01,3.6067174e-02,-2.8913236e-03,-1.4514791e-03,1.9755251e-01,3.2840849e-01,-5.3853343e-02
3.0998518e+00,-6.7129082e-02,-1.4197150e-02,3.0410403e-03,-2.2195070e-01,-6.5677802e-02,-2.1837402e-01,3.7289132e-02,-1.0703126e-03,-2.3530526e-03,1.2219591e-01,1.8210128e-01,-9.0157438e-02
3.1098518e+00,-6.9148892e-02,-1.4959567e-02,3.3893072e-03,-2.0519997e-01,-6.7411875e-02,-2.0187688e-01,4.0128862e-02,-3.2979643e-03,-1.5987142e-03,2.8397331e-01,-2.2276538e-01,7.5433912e-02
3.1198518e+00,-7.1202509e-02,-1.5494132e-02,3.4546691e-03,-2.0766769e-01,-4.4301772e-02,-2.0522200e-01,4.1200865e-02,-3.1722186e-03,-1.3560334e-03,1.0720040e-01,1.2574585e-02,2.4268101e-02
3.1298518e+00,-7.3267216e-02,-1.5857577e-02,3.5420701e-03,-2.0783509e-01,-2.6636448e-02,-2.0658289e-01,4.2242412e-02,-4.6312148e-03,-6.5509073e-05,1.0415477e-01,-1.4589976e-01,1.2905256e-01
3.1398518e+00,-7.5650870e-02,-1.5810247e-02,3.6191613e-03,-2.3811286e-01,1.6176179e-02,-2.3811630e-01,4.1896565e-02,-6.1448879e-03,-6.4885973e-04,-3.4584689e-02,-1.5136745e-01,-5.8335121e-02
3.1498518e+00,-7.7954195e-02,-1.7153698e-02,3.6523279e-03,-2.3667409e-01,-1.2295332e-01,-2.3026685e-01,4.4732940e-02,-4.1630410e-03,-2.4523319e-03,2.8363779e-01,1.9818487e-01,-1.8034739e-01
3.1598518e+00,-8.0138433e-02,-1.7493498e-02,3.7595825e-03,-2.2034744e-01,-2.2623900e-02,-2.1796296e-01,4.6280690e-02,-5.5735671e-03,-2.6833141e-03,1.5477506e-01,-1.4105274e-01,-2.3098247e-02
3.1698518e+00,-8.2158756e-02,-1.8397201e-02,3.8700035e-03,-2.0654161e-01,-7.9887330e-02,-2.0189035e-01,4.7758132e-02,-3.6436238e-03,-2.1064790e-03,1.4774438e-01,1.9299451e-01,5.7683566e-02
3.1798520e+00,-8.4058104e-02,-1.8660648e-02,4.0911380e-03,-1.9119231e-01,-1.6008223e-02,-1.8981659e-01,4.9340559e-02,-4.9338607e-03,-1.0208023e-03,1.5823906e-01,-1.2902074e-01,1.0856519e-01
