time, x, y, z, vx, vy, vz, yaw, pitch, roll, yaw_rate, pitch_rate, roll_rate
0.0000000e+00,0.0000000e+00,0.0000000e+00,0.0000000e+00,0.0000000e+00,0.0000000e+00,0.0000000e+00,0.0000000e+00,0.0000000e+00,0.0000000e+00,0.0000000e+00,0.0000000e+00,0.0000000e+00
9.9999905e-03,-1.2392598e-04,9.4424339e-05,4.5795864e-05,-1.2396866e-02,9.4588916e-03,-1.2375797e-02,2.5910730e-04,-1.0692303e-03,-5.4106407e-04,2.5910754e-02,-1.0692313e-01,-5.4106459e-02
1.9999981e-02,-7.3691884e-04,-1.2595334e-03,-7.2572056e-04,-6.1880549e-02,-1.3573571e-01,-5.9949030e-02,2.4582656e-03,8.1141728e-03,-4.0630175e-03,2.1991604e-01,9.1834119e-01,-3.5219568e-01
2.9999971e-02,-9.5122185e-04,-1.4679237e-03,-8.6008141e-04,-2.1587554e-02,-2.0940928e-02,-2.1171645e-02,3.3611019e-03,8.1865508e-03,-4.0825481e-03,9.0283723e-02,7.2378049e-03,-1.9530552e-03
3.9999962e-02,-1.2626941e-03,-1.7161433e-03,-9.5592947e-04,-3.1359994e-02,-2.5013229e-02,-3.0778614e-02,3.4854592e-03,9.7076536e-03,-4.0667819e-03,1.2435742e-02,1.5211042e-01,1.5766219e-03
4.9999952e-02,-1.1584292e-03,-1.3740314e-03,-7.1016700e-04,1.0549659e-02,3.4230842e-02,1.0236486e-02,2.9934714e-03,4.9400118e-03,-1.9963684e-03,-4.9198834e-02,-4.7676463e-01,2.0704154e-01
5.9999943e-02,-9.3714066e-04,-9.2512925e-04,-5.3404484e-04,2.2253185e-02,4.4880511e-02,2.2023746e-02,2.4734722e-03,2.0445040e-03,-6.0312178e-04,-5.1999966e-02,-2.8955106e-01,1.3932479e-01
6.9999933e-02,-9.5557219e-04,-9.6112640e-04,-5.6077321e-04,-1.8535487e-03,-3.5991070e-03,-1.8339029e-03,2.5396816e-03,2.2202023e-03,-6.8286016e-04,6.6209457e-03,1.7569843e-02,-7.9738456e-03
7.9999924e-02,-1.2221893e-03,-1.4161095e-03,-7.8489339e-04,-2.6858234e-02,-4.5559690e-02,-2.6358039e-02,3.0729928e-03,5.4182675e-03,-2.1330529e-03,5.3331166e-02,3.1980683e-01,-1.4501941e-01
8.9999914e-02,-6.5296459e-04,-8.7973656e-04,-3.9350636e-04,5.7088153e-02,5.3732925e-02,5.6665930e-02,2.2944211e-03,3.9865077e-03,-7.5065596e-04,-7.7857244e-02,-1.4317612e-01,1.3823983e-01
9.9999905e-02,-1.2341257e-03,-1.5377123e-03,-7.6187844e-04,-5.8556563e-02,-6.6054299e-02,-5.7378253e-02,3.5168712e-03,8.0055635e-03,-3.6089777e-03,1.2224513e-01,4.0190596e-01,-2.8583244e-01
1.0999990e-01,-1.1166321e-03,-1.3592700e-03,-7.0632345e-04,1.1846355e-02,1.7893153e-02,1.1576320e-02,3.0475132e-03,7.2843484e-03,-3.6376841e-03,-4.6935842e-02,-7.2121572e-02,-2.8706421e-03
1.1999989e-01,-1.0270148e-03,-1.3531001e-03,-7.2262419e-04,8.9954279e-03,6.5155446e-04,8.9254691e-03,3.1446432e-03,7.0285808e-03,-3.5538462e-03,9.7130108e-03,-2.5576788e-02,8.3837919e-03
1.2999988e-01,-8.9276866e-04,-1.5411073e-03,-8.1392531e-04,1.3410174e-02,-1.8735546e-02,1.3529791e-02,3.4859103e-03,8.3163399e-03,-3.8187205e-03,3.4126737e-02,1.2877603e-01,-2.6487456e-02
1.3999987e-01,-1.1763836e-03,-1.2580186e-03,-7.7331731e-04,-2.8342980e-02,2.8253302e-02,-2.8435399e-02,3.4239344e-03,5.3786412e-03,-2.7734570e-03,-6.1975939e-03,-2.9377015e-01,1.0452645e-01
1.4999986e-01,-9.4167459e-04,-1.6980637e-03,-9.5428374e-04,2.3411887e-02,-4.3862026e-02,2.3794432e-02,3.5759827e-03,9.5901069e-03,-4.2042429e-03,1.5204843e-02,4.2114698e-01,-1.4307872e-01
1.5999985e-01,-8.5371202e-04,-1.5217896e-03,-8.1816900e-04,8.8828450e-03,1.7670645e-02,8.6207789e-03,3.2517286e-03,8.2728632e-03,-3.3373381e-03,-3.2425435e-02,-1.3172450e-01,8.6690556e-02
1.6999984e-01,-8.7401470e-04,-1.5351340e-03,-8.1326296e-04,-2.0414993e-03,-1.3448149e-03,-2.0120774e-03,3.2048805e-03,8.3735966e-03,-3.4356846e-03,-4.6848130e-03,1.0073344e-02,-9.8346578e-03
1.8000007e-01,-1.0359062e-03,-1.2478024e-03,-8.1251687e-04,-1.6141178e-02,2.8703403e-02,-1.6287618e-02,2.9627340e-03,4.7432256e-03,-2.3252235e-03,-2.4214101e-02,-3.6302879e-01,1.1104357e-01
1.9000006e-01,-9.3523621e-04,-1.1719192e-03,-7.4677673e-04,1.0105627e-02,7.5990899e-03,1.0020087e-02,2.9808905e-03,4.0656803e-03,-1.5951210e-03,1.8156542e-03,-6.7754598e-02,7.3010317e-02
2.0000005e-01,-8.6531729e-04,-1.0044716e-03,-5.8153704e-04,7.0435654e-03,1.6739692e-02,6.9520850e-03,2.8960531e-03,2.1867119e-03,-4.5807344e-04,-8.4837543e-03,-1.8789702e-01,1.1370486e-01
2.1000004e-01,-5.5570653e-04,-5.6844701e-04,-2.7880511e-04,3.1025913e-02,4.3636497e-02,3.0848130e-02,1.2598136e-03,2.3635897e-03,-3.1986910e-04,-1.6362410e-01,1.7687801e-02,1.3820448e-02
2.2000003e-01,-1.2408332e-03,-1.4685851e-03,-7.6934441e-04,-6.9050572e-02,-9.0348339e-02,-6.7525440e-02,2.9315183e-03,7.8914049e-03,-4.0111593e-03,1.6717063e-01,5.5278205e-01,-3.6912937e-01
2.3000002e-01,-1.1822052e-03,-1.6039209e-03,-7.8240349e-04,5.8375082e-03,-1.3504983e-02,5.9533224e-03,3.5231148e-03,8.3404932e-03,-3.8317108e-03,5.9159707e-02,4.4908870e-02,1.7944863e-02
2.4000001e-01,-1.2538576e-03,-1.5214747e-03,-8.3524296e-04,-7.1627829e-03,8.2128360e-03,-7.2041095e-03,3.4428586e-03,7.8653164e-03,-3.6302081e-03,-8.0256346e-03,-4.7517727e-02,2.0150286e-02
2.5000000e-01,-1.2412411e-03,-1.5321203e-03,-8.3696478e-04,1.2625210e-03,-1.0589103e-03,1.2655255e-03,3.5424834e-03,8.0174316e-03,-3.6931087e-03,9.9624899e-03,1.5211543e-02,-6.2900634e-03
2.5999999e-01,-1.0674972e-03,-1.4023120e-03,-8.3149760e-04,1.7467404e-02,1.3072548e-02,1.7211640e-02,2.7918880e-03,8.1238693e-03,-3.2761464e-03,-7.5059610e-02,1.0643774e-02,4.1696267e-02
2.6999998e-01,-6.6831666e-04,-7.7130617e-04,-3.8949531e-04,4.0075629e-02,6.3185134e-02,3.9625522e-02,1.9611184e-03,4.0976438e-03,-8.4867022e-04,-8.3077037e-02,-4.0262293e-01,2.4274785e-01
2.7999997e-01,-1.0496275e-03,-1.2207895e-03,-7.7584725e-04,-3.8349542e-02,-4.5009458e-02,-3.7838915e-02,3.1393191e-03,4.7700812e-03,-2.0344792e-03,1.1782019e-01,6.7243809e-02,-1.1858102e-01
2.8999996e-01,-1.0838711e-03,-1.4884741e-03,-8.4999868e-04,-3.5314720e-03,-2.6782754e-02,-3.1964176e-03,3.6088462e-03,8.1091844e-03,-3.0805376e-03,4.6952754e-02,3.3391064e-01,-1.0460594e-01
2.9999995e-01,-1.1116919e-03,-1.2323617e-03,-7.9073920e-04,-2.7075432e-03,2.5606711e-02,-2.8952387e-03,3.1198736e-03,4.6218529e-03,-1.9332967e-03,-4.8897314e-02,-3.4873349e-01,1.1472421e-01
3.0999994e-01,-9.7810396e-04,-1.4282662e-03,-8.6562465e-04,1.3346735e-02,-1.9521287e-02,1.3471669e-02,2.8332092e-03,7.9846996e-03,-3.2601833e-03,-2.8666464e-02,3.3628500e-01,-1.3268879e-01
3.1999993e-01,-4.9304900e-04,-7.0318611e-04,-3.1869683e-04,4.8693154e-02,7.2430143e-02,4.8433950e-02,2.7959183e-03,1.1957793e-03,3.0765702e-04,-3.7290912e-03,-6.7889268e-01,3.5678437e-01
3.2999992e-01,-1.6684545e-04,-1.9025090e-04,-1.7408130e-04,3.2643957e-02,5.1382744e-02,3.2456050e-02,-7.8077073e-05,2.6634379e-03,-8.4572515e-04,-2.8739981e-01,1.4676599e-01,-1.1533833e-01
3.3999991e-01,-4.0156772e-05,1.7678795e-04,5.5435605e-05,1.2668056e-02,3.6678600e-02,1.2742819e-02,-1.8519374e-04,-2.1779123e-03,-4.7166017e-04,-1.0711677e-02,-4.8413548e-01,3.7406533e-02
3.4999990e-01,-8.3214565e-04,-1.1318888e-03,-6.2517823e-04,-7.9774504e-02,-1.3085877e-01,-7.8634239e-02,3.1892316e-03,3.0977716e-03,-2.0042822e-03,3.3744286e-01,5.2756890e-01,-1.5326235e-01
3.5999990e-01,-9.7367338e-04,-8.6041541e-04,-5.8268008e-04,-1.4101472e-02,2.7151010e-02,-1.4196953e-02,2.1557219e-03,1.8914481e-03,-5.1171035e-04,-1.0335107e-01,-1.2063247e-01,1.4925733e-01
3.6999989e-01,-1.2052428e-03,-1.2350072e-03,-7.8535423e-04,-2.3293956e-02,-3.7527275e-02,-2.2908027e-02,2.2366416e-03,5.2140403e-03,-2.3028713e-03,8.0919794e-03,3.3225954e-01,-1.7911626e-01
3.7999988e-01,-1.1422956e-03,-1.3383112e-03,-7.3804327e-04,6.2790445e-03,-1.0315298e-02,6.3350529e-03,2.8024735e-03,5.1864001e-03,-2.1138616e-03,5.6583245e-02,-2.7640253e-03,1.8900980e-02
3.8999987e-01,-9.2362027e-04,-1.1033755e-03,-5.6370091e-04,2.1953776e-02,2.3492080e-02,2.1782621e-02,2.9791948e-03,2.9215255e-03,-7.4694414e-04,1.7672143e-02,-2.2648767e-01,1.3669188e-01
3.9999986e-01,-9.8655577e-04,-8.8670647e-04,-6.3334234e-04,-6.2417991e-03,2.1662931e-02,-6.3585093e-03,2.6365096e-03,3.2436039e-03,-8.5681529e-04,-3.4268553e-02,3.2207862e-02,-1.0987125e-02
4.0999985e-01,-9.4161784e-04,-1.1677098e-03,-6.6898884e-04,4.4266950e-03,-2.8085052e-02,4.6532316e-03,2.7015272e-03,5.9835507e-03,-1.9664202e-03,6.5017645e-03,2.7399494e-01,-1.1096060e-01
4.1999984e-01,-1.1139463e-03,-1.2982493e-03,-8.1218102e-04,-1.7338070e-02,-1.3127693e-02,-1.7070561e-02,3.1375121e-03,7.4685519e-03,-3.7404253e-03,4.3598535e-02,1.4850027e-01,-1.7740067e-01
4.3000007e-01,-1.1933943e-03,-1.4084367e-03,-7.7008581e-04,-8.0120295e-03,-1.1046600e-02,-7.8371560e-03,3.5877850e-03,7.1968031e-03,-3.5217256e-03,4.5026255e-02,-2.7174264e-02,2.1869461e-02
4.4000006e-01,-1.1481392e-03,-1.4564114e-03,-7.4321870e-04,4.5239109e-03,-4.7794533e-03,4.5461455e-03,3.5841386e-03,7.5557097e-03,-3.4570957e-03,-3.6463812e-04,3.5890700e-02,6.4630034e-03
4.5000005e-01,-9.4439059e-04,-1.4529220e-03,-7.6062124e-04,2.0445774e-02,4.2426993e-04,2.0302300e-02,3.7401536e-03,7.4632679e-03,-3.4284165e-03,1.5601513e-02,-9.2441945e-03,2.8679218e-03
4.6000004e-01,-7.8533560e-04,-7.7906315e-04,-5.8566689e-04,1.6069503e-02,6.7370357e-02,1.5806406e-02,2.3524686e-03,1.3886980e-03,-3.4646245e-04,-1.3876863e-01,-6.0745757e-01,3.0819570e-01
4.7000003e-01,-8.0035157e-04,-9.7127579e-04,-6.1658567e-04,-1.5593733e-03,-1.9219106e-02,-1.4702412e-03,2.9681755e-03,1.5923230e-03,-4.8543134e-04,6.1570742e-02,2.0362520e-02,-1.3896903e-02
4.8000002e-01,-8.1545206e-04,-9.4450653e-04,-5.6612165e-04,-1.5029547e-03,2.6783789e-03,-1.5145511e-03,2.9211135e-03,1.9510621e-03,-4.8408969e-04,-4.7062022e-03,3.5873948e-02,1.3416523e-04
4.9000001e-01,-4.8467737e-04,-6.0903551e-04,-3.1494648e-04,3.3151539e-02,3.3570976e-02,3.2979041e-02,1.8069725e-03,2.5337313e-03,-4.0744117e-04,-1.1141421e-01,5.8266970e-02,7.6648591e-03
5.0000000e-01,-8.8705945e-05,4.8804708e-05,-6.8894173e-05,3.9576489e-02,6.5741303e-02,3.9688813e-02,3.0005660e-05,-1.0489035e-03,5.7224308e-04,-1.7769685e-01,-3.5826382e-01,9.7968518e-02
5.0999999e-01,-8.0980117e-04,-9.6331677e-04,-6.1602438e-04,-7.2432527e-02,-1.0113255e-01,-7.1897434e-02,2.7963212e-03,1.6996087e-03,-5.5758142e-04,2.7663182e-01,2.7485148e-01,-1.1298256e-01
5.1999998e-01,-1.0002170e-03,-1.3800012e-03,-8.0042913e-04,-1.9224093e-02,-4.1717150e-02,-1.8749425e-02,3.2968584e-03,5.9171679e-03,-2.3777865e-03,5.0053768e-02,4.2175632e-01,-1.8202068e-01
5.2999997e-01,-1.0937101e-03,-1.4952858e-03,-8.0345986e-04,-9.4240404e-03,-1.1571043e-02,-9.2208256e-03,3.4031700e-03,8.0345781e-03,-3.8086761e-03,1.0631166e-02,2.1174122e-01,-1.4308910e-01
5.3999996e-01,-1.1128284e-03,-1.3168700e-03,-7.8666853e-04,-1.8674877e-03,1.7832320e-02,-2.0380493e-03,2.8825000e-03,7.4636918e-03,-3.7179173e-03,-5.2067045e-02,-5.7088684e-02,9.0758903e-03
5.4999995e-01,-1.1093170e-03,-1.2824039e-03,-7.6993876e-04,3.6238182e-04,3.4480241e-03,3.2480719e-04,2.8924599e-03,7.2578285e-03,-3.6372466e-03,9.9599387e-04,-2.0586349e-02,8.0670752e-03
5.5999994e-01,-1.2027768e-03,-1.5633892e-03,-9.8666418e-04,-9.4672372e-03,-2.8162832e-02,-9.0249583e-03,2.8782517e-03,9.9613319e-03,-4.3337778e-03,-1.4208305e-03,2.7035060e-01,-6.9653186e-02
5.6999993e-01,-1.2003422e-03,-1.5058105e-03,-8.8361859e-04,2.5972298e-04,5.7592469e-03,1.8765892e-04,2.6685547e-03,9.5242326e-03,-3.6967108e-03,-2.0969711e-02,-4.3709979e-02,6.3706762e-02
5.7999992e-01,-5.0379026e-04,-5.0193881e-04,-3.3623031e-04,6.9768481e-02,1.0066075e-01,6.9145391e-02,4.8473120e-04,4.4293940e-03,-9.2746655e-04,-2.1838256e-01,-5.0948435e-01,2.7692469e-01
5.8999991e-01,-8.1650417e-04,-7.5446802e-04,-5.2535232e-04,-3.1348389e-02,-2.5253075e-02,-3.1194156e-02,2.0731154e-03,2.0823981e-03,-7.8965538e-04,1.5883857e-01,-2.3469981e-01,1.3781130e-02
5.9999990e-01,-1.1080249e-03,-1.1405004e-03,-7.2127777e-04,-2.9307228e-02,-3.8628645e-02,-2.8962342e-02,2.8287082e-03,3.7192084e-03,-1.5807750e-03,7.5559353e-02,1.6368119e-01,-7.9112039e-02
6.0999990e-01,-4.2735933e-04,-5.5839802e-04,-2.1711388e-04,6.8137190e-02,5.8268081e-02,6.7946469e-02,1.3741651e-03,2.2257226e-03,1.3747160e-04,-1.4545445e-01,-1.4934872e-01,1.7182483e-01
6.1999989e-01,-4.7664347e-04,-5.1310558e-04,-3.3098456e-04,-4.9239540e-03,4.5218284e-03,-4.9396819e-03,1.1125730e-03,2.6146175e-03,-1.1713464e-04,-2.6159236e-02,3.8889522e-02,-2.5460649e-02
6.2999988e-01,-1.2183968e-03,-1.3818209e-03,-9.4400844e-04,-7.4648979e-02,-8.7050467e-02,-7.3487453e-02,3.0879684e-03,5.5380877e-03,-2.7766399e-03,1.9753973e-01,2.9234730e-01,-2.6595078e-01
6.3999987e-01,-1.1270320e-03,-1.6532957e-03,-9.9021437e-04,9.0834323e-03,-2.7092523e-02,9.3500985e-03,3.3608421e-03,9.2726412e-03,-4.1932686e-03,2.7287391e-02,3.7345570e-01,-1.4166300e-01
6.4999986e-01,-1.0459701e-03,-1.4260788e-03,-7.8143242e-04,8.2150263e-03,2.2751847e-02,7.9097632e-03,3.4278242e-03,7.2628412e-03,-3.8300565e-03,6.6982191e-03,-2.0098019e-01,3.6321243e-02
6.5999985e-01,-2.9851696e-05,8.8947860e-06,1.8198657e-05,1.0160037e-01,1.4350982e-01,1.0160609e-01,-8.1965780e-05,3.9357143e-05,-1.9448465e-06,-3.5097933e-01,-7.2234909e-01,3.8281153e-01
6.6999984e-01,-5.0296518e-04,-7.1287120e-04,-3.7495074e-04,-4.7474413e-02,-7.2250989e-02,-4.7033838e-02,1.8780195e-03,3.4627779e-03,-5.8256526e-04,1.9599872e-01,3.4234241e-01,-5.8062097e-02
6.8000007e-01,-1.1054486e-03,-1.2160916e-03,-8.0015507e-04,-6.0508211e-02,-5.0424892e-02,-5.9897179e-02,2.8156408e-03,4.5630496e-03,-1.9904478e-03,9.3759977e-02,1.1002465e-01,-1.4078504e-01
6.9000006e-01,-1.1555912e-03,-1.0583294e-03,-8.1286032e-04,-4.9896883e-03,1.5766278e-02,-5.0697997e-03,2.2214714e-03,4.1813492e-03,-2.0929445e-03,-5.9416994e-02,-3.8170083e-02,-1.0249675e-02
7.0000005e-01,-1.0753637e-03,-1.4033399e-03,-8.5125751e-04,7.9596324e-03,-3.4455883e-02,8.2758931e-03,2.6322728e-03,8.1369189e-03,-3.4609556e-03,4.1080179e-02,3.9555735e-01,-1.3680124e-01
7.1000004e-01,-1.0533171e-03,-1.3926838e-03,-7.8376584e-04,2.2148148e-03,1.0774981e-03,2.1886619e-03,2.6017534e-03,8.0376575e-03,-3.3539922e-03,-3.0519454e-03,-9.9261480e-03,1.0696347e-02
7.2000003e-01,-1.1847509e-03,-1.4526817e-03,-8.6002783e-04,-1.3203374e-02,-6.0796617e-03,-1.3046218e-02,2.5909383e-03,8.7158335e-03,-3.3898830e-03,-1.0815089e-03,6.7817668e-02,-3.5890836e-03
7.3000002e-01,-4.3621712e-04,-3.4616137e-04,-2.3640510e-04,7.4916328e-02,1.1075703e-01,7.4635095e-02,6.4748049e-04,2.0519119e-03,1.1685206e-04,-1.9434596e-01,-6.6639280e-01,3.5067384e-01
7.4000001e-01,-1.1176002e-03,-1.3016966e-03,-7.8035781e-04,-6.8668690e-02,-9.5874188e-02,-6.7148500e-02,2.8439591e-03,7.6243037e-03,-3.8060098e-03,2.1964807e-01,5.5723971e-01,-3.9228656e-01
7.5000000e-01,-1.1673839e-03,-1.3944207e-03,-8.1544124e-04,-5.0280125e-03,-9.2965582e-03,-4.8825400e-03,3.1078931e-03,8.0599989e-03,-4.1969095e-03,2.6393423e-02,4.3569559e-02,-3.9090013e-02
7.5999999e-01,-7.8719605e-04,-8.6415476e-04,-3.6835219e-04,3.8207300e-02,5.3028509e-02,3.7826787e-02,2.9670993e-03,3.0311242e-03,-8.2398734e-04,-1.4079400e-02,-5.0288795e-01,3.3729254e-01
7.6999998e-01,-1.0972084e-03,-1.4210431e-03,-8.1311067e-04,-3.1247342e-02,-5.5798324e-02,-3.0554193e-02,2.9540840e-03,6.5479639e-03,-2.6391443e-03,-1.3015253e-03,3.5168430e-01,-1.8151587e-01
7.7999997e-01,-8.6247531e-04,-1.1418755e-03,-6.8657806e-04,2.3580756e-02,2.7933338e-02,2.3345612e-02,2.7491023e-03,3.4704857e-03,-1.3117996e-03,-2.0498195e-02,-3.0774811e-01,1.3273459e-01
7.8999996e-01,-4.8249194e-04,-6.9929946e-04,-3.4951717e-04,3.8101872e-02,4.4299945e-02,3.7845134e-02,1.9296957e-03,3.0519246e-03,-4.7818673e-04,-8.1940733e-02,-4.1856149e-02,8.3361369e-02
7.9999995e-01,-4.6387030e-04,-7.2757402e-04,-3.7251952e-04,1.8601406e-03,-2.8222268e-03,1.8720995e-03,1.4265377e-03,4.2253828e-03,-1.0800698e-03,-5.0315847e-02,1.1734593e-01,-6.0188363e-02
8.0999994e-01,-2.2264283e-04,-5.1665632e-05,-9.0496393e-05,2.4125690e-02,6.7595408e-02,2.4107222e-02,5.0866747e-06,1.9192250e-04,-1.0678196e-04,-1.4214524e-01,-4.0334642e-01,9.7328877e-02
8.1999993e-01,-9.7714646e-04,-1.2678628e-03,-8.1753444e-04,-7.5951128e-02,-1.2177938e-01,-7.4686876e-02,2.6910351e-03,4.8415412e-03,-2.3046107e-03,2.6859510e-01,4.6496232e-01,-2.1978308e-01
8.2999992e-01,-1.1240099e-03,-1.0307885e-03,-7.9275615e-04,-1.4662307e-02,2.3681436e-02,-1.4752220e-02,2.2086668e-03,3.9711183e-03,-1.9318458e-03,-4.8236880e-02,-8.7042374e-02,3.7276518e-02
8.3999991e-01,-1.1560031e-03,-1.5353488e-03,-1.0037358e-03,-3.3601979e-03,-5.0475009e-02,-2.6960970e-03,2.9141502e-03,9.6839279e-03,-4.3413939e-03,7.0548409e-02,5.7128151e-01,-2.4095504e-01
8.4999990e-01,-6.0427549e-04,-8.7748205e-04,-4.1145759e-04,5.5364373e-02,6.5876865e-02,5.4872557e-02,2.2122807e-03,3.8608866e-03,-8.3698065e-04,-7.0187020e-02,-5.8230469e-01,3.5044166e-01
8.5999990e-01,-1.2285221e-03,-1.5500451e-03,-9.2581847e-04,-6.2855386e-02,-6.7673360e-02,-6.1535576e-02,2.6351293e-03,9.4049762e-03,-4.0716574e-03,4.2284903e-02,5.5440949e-01,-3.2346798e-01
8.6999989e-01,-8.6169722e-04,-1.0916942e-03,-6.1552167e-04,3.6846954e-02,4.5945423e-02,3.6378482e-02,2.3084193e-03,5.3450021e-03,-1.6020743e-03,-3.2671033e-02,-4.0599779e-01,2.4695854e-01
8.7997937e-01,-8.6658745e-04,-1.0804685e-03,-6.2139540e-04,-4.8819992e-04,1.1234669e-03,-4.9507951e-04,2.3191073e-03,5.1825692e-03,-1.5955064e-03,1.0710029e-03,-1.6276685e-02,6.5814197e-04
8.8997936e-01,-5.7716805e-04,-7.1815746e-04,-3.4653085e-04,2.9018488e-02,3.6282116e-02,2.8801140e-02,1.7545504e-03,3.5273107e-03,-4.4910794e-04,-5.6455752e-02,-1.6552601e-01,1.1463995e-01
8.9997935e-01,-5.8005978e-04,-7.1445602e-04,-3.5937133e-04,-2.8862124e-04,3.6976497e-04,-2.9020794e-04,1.9042476e-03,3.2086956e-03,-5.3082675e-04,1.4969739e-02,-3.1861540e-02,-8.1718893e-03
9.0997934e-01,-4.6440496e-04,-5.9623483e-04,-2.6374234e-04,1.1581735e-02,1.1862425e-02,1.1507836e-02,8.3418598e-04,4.3305487e-03,-5.5217627e-04,-1.0700626e-01,1.1218542e-01,-2.1349536e-03
9.1997933e-01,-4.8673590e-04,-3.9626990e-04,-2.3027424e-04,-2.2143166e-03,1.9993711e-02,-2.2764538e-03,9.3674358e-04,2.1660156e-03,2.0816622e-05,1.0255770e-02,-2.1645352e-01,5.7299344e-02
9.2997956e-01,-8.2868598e-04,-9.0742466e-04,-5.2297824e-04,-3.4341307e-02,-5.1073489e-02,-3.4107709e-02,2.7034329e-03,1.5173163e-03,-2.6388452e-04,1.7666489e-01,-6.4868436e-02,-2.8469463e-02
9.3997955e-01,-1.0672216e-03,-1.1550534e-03,-7.8519727e-04,-2.3966217e-02,-2.4782617e-02,-2.3719824e-02,2.8832392e-03,3.7279987e-03,-1.7344698e-03,1.7980651e-02,2.2106845e-01,-1.4705867e-01
9.4997954e-01,-1.1126132e-03,-1.4762955e-03,-9.8160062e-04,-4.6564040e-03,-3.2141306e-02,-4.2929440e-03,3.1446335e-03,7.1459503e-03,-3.5836690e-03,2.6139448e-02,3.4179548e-01,-1.8492010e-01
9.5997953e-01,-1.7186526e-04,1.2913536e-04,2.7054546e-05,9.4155817e-02,1.6043314e-01,9.4181687e-02,2.0199007e-04,-9.6802319e-04,-5.1572871e-04,-2.9426462e-01,-8.1139812e-01,3.0679433e-01
9.6997952e-01,-8.5408113e-04,-1.3628173e-03,-7.8115602e-04,-6.8958325e-02,-1.4946042e-01,-6.6887904e-02,3.2366705e-03,7.2166866e-03,-3.7321625e-03,3.0346833e-01,8.1847176e-01,-3.2164369e-01
9.7997952e-01,-9.5359182e-04,-1.6437037e-03,-9.6787341e-04,-1.0086205e-02,-2.8148160e-02,-9.6421230e-03,3.3017819e-03,9.4632363e-03,-4.2740149e-03,6.5111433e-03,2.2465518e-01,-5.4185288e-02
9.8997951e-01,-1.0365322e-03,-1.5802656e-03,-8.4771058e-04,-8.3023663e-03,6.2963609e-03,-8.3218282e-03,3.0167571e-03,8.7342017e-03,-3.3209165e-03,-2.8502503e-02,-7.2903530e-02,9.5309927e-02
9.9997950e-01,-9.2766437e-04,-7.8404229e-04,-5.9595287e-04,1.1062251e-02,7.9618705e-02,1.0735987e-02,2.1350420e-03,1.8242615e-03,-5.0420529e-04,-8.8171593e-02,-6.9099468e-01,2.8167139e-01
1.0099795e+00,-5.1480844e-04,-4.5442795e-04,-3.0995303e-04,4.1335162e-02,3.3006655e-02,4.1199879e-02,1.0622808e-03,2.1599347e-03,-3.5222599e-04,-1.0727623e-01,3.3567355e-02,1.5197945e-02
1.0199795e+00,-9.3613177e-04,-9.7816828e-04,-5.2733564e-04,-4.2293899e-02,-5.2348947e-02,-4.2001573e-02,2.6613396e-03,2.0728973e-03,-5.2919983e-04,1.5990603e-01,-8.7037465e-03,-1.7697401e-02
1.0299795e+00,-1.0537162e-03,-1.0639364e-03,-5.1840012e-04,-1.1791787e-02,-8.5827162e-03,-1.1720714e-02,2.9526515e-03,3.4643361e-03,-6.8546883e-04,2.9131220e-02,1.3914401e-01,-1.5626915e-02
1.0399795e+00,-6.8335256e-04,-8.0211901e-04,-4.6768664e-04,3.7122946e-02,2.6274215e-02,3.6883969e-02,1.8497067e-03,4.3584608e-03,-1.0313831e-03,-1.1029459e-01,8.9412558e-02,-3.4591462e-02
1.0499794e+00,-3.2259944e-04,-1.7202054e-04,-1.6108244e-04,3.6075003e-02,6.3147243e-02,3.5834754e-02,-3.5808987e-04,3.4615382e-03,-6.1616611e-04,-2.2077987e-01,-8.9692353e-02,4.1521740e-02
1.0599794e+00,-1.1462495e-03,-1.2823429e-03,-8.1880734e-04,-8.2998216e-02,-1.1146192e-01,-8.1140200e-02,2.7327598e-03,8.0292352e-03,-4.0147932e-03,3.0908526e-01,4.5677014e-01,-3.3986303e-01
1.0699794e+00,-1.1095057e-03,-1.3519442e-03,-7.6788795e-04,3.6657425e-03,-6.9423118e-03,3.7165112e-03,3.1748820e-03,7.9874186e-03,-3.6737751e-03,4.4212259e-02,-4.1816629e-03,3.4101846e-02
1.0799794e+00,-1.0383528e-03,-1.3151799e-03,-7.3574015e-04,7.1516620e-03,3.7075996e-03,7.0624687e-03,3.1823227e-03,7.6067521e-03,-3.4778040e-03,7.4407115e-04,-3.8066691e-02,1.9597124e-02
1.0899794e+00,-9.1723711e-04,-1.2843946e-03,-8.8221444e-04,1.2166366e-02,3.1719350e-03,1.2032319e-02,2.0523939e-03,9.8157769e-03,-4.0116058e-03,-1.1299298e-01,2.2090269e-01,-5.3380224e-02
1.0999794e+00,-9.7451663e-04,-1.1210808e-03,-7.8563568e-04,-5.6996626e-03,1.6317246e-02,-5.7960942e-03,2.4834168e-03,4.9203344e-03,-2.1462111e-03,4.3102332e-02,-4.8954471e-01,1.8653964e-01
1.1099794e+00,-9.5845408e-04,-1.1348339e-03,-8.0482038e-04,1.6068267e-03,-1.3703519e-03,1.6099244e-03,2.4385042e-03,5.5274217e-03,-2.4492074e-03,-4.4912678e-03,6.0708788e-02,-3.0299654e-02
1.1199794e+00,-9.6200659e-04,-1.0867606e-03,-7.9305057e-04,-3.4450401e-04,4.8063036e-03,-3.7903389e-04,2.4060911e-03,5.1129408e-03,-2.3137963e-03,-3.2413100e-03,-4.1448129e-02,1.3541125e-02
1.1299794e+00,-3.5392336e-04,-2.9473528e-04,-2.5386519e-04,6.0918200e-02,7.9128312e-02,6.0795186e-02,1.7025072e-03,4.8253593e-04,4.0997641e-04,-7.0358464e-02,-4.6304093e-01,2.7237753e-01
1.1399794e+00,-4.2585394e-04,-3.5193394e-04,-2.6121996e-04,-7.1993364e-03,-5.7143681e-03,-7.1911638e-03,1.7503749e-03,9.8639058e-04,5.1828872e-04,4.7867756e-03,5.0385513e-02,1.0831241e-02
1.1499794e+00,-3.2763681e-04,-3.8308888e-04,-3.1627547e-04,9.8357911e-03,-3.0600727e-03,9.8250680e-03,-2.3035010e-04,5.4154458e-03,-1.3602716e-03,-1.9807269e-01,4.4290594e-01,-1.8785621e-01
1.1599793e+00,-4.8009647e-04,-3.8756758e-04,-2.8082566e-04,-1.5265064e-02,-4.8026256e-04,-1.5225887e-02,8.4644150e-04,2.9748408e-03,-1.2279388e-03,1.0767926e-01,-2.4406074e-01,1.3233288e-02
1.1699793e+00,-1.0431615e-03,-7.6353731e-04,-5.5151776e-04,-5.6478839e-02,-3.7665836e-02,-5.6087584e-02,1.8976970e-03,3.1301543e-03,-1.7960204e-03,1.0512565e-01,1.5531368e-02,-5.6808217e-02
1.1799796e+00,-1.0254341e-04,1.0359162e-04,-4.8363485e-05,9.4008097e-02,8.6951658e-02,9.3888796e-02,-1.0558968e-03,1.5058413e-03,-4.2590680e-04,-2.9535262e-01,-1.6242758e-01,1.3700823e-01
1.1899796e+00,-1.0502669e-03,-7.9609738e-04,-5.6969150e-04,-9.4998769e-02,-9.0085111e-02,-9.4434933e-02,1.8446918e-03,3.0780702e-03,-6.3882329e-04,2.9005913e-01,1.5722303e-01,-2.1291669e-02
1.1999795e+00,-9.8758497e-04,-7.3973933e-04,-5.9591260e-04,6.2826161e-03,5.6408176e-03,6.2492374e-03,1.6825054e-03,2.4874068e-03,-7.8860015e-04,-1.6218656e-02,-5.9066388e-02,-1.4977701e-02
1.2099795e+00,-1.1953080e-03,-9.2078701e-04,-7.5779287e-04,-2.0841566e-02,-1.8169338e-02,-2.0646212e-02,1.6033673e-03,4.7310863e-03,-1.9392662e-03,-7.9138144e-03,2.2436816e-01,-1.1506671e-01
1.2199795e+00,-5.2984680e-04,-2.9138844e-04,-2.4508792e-04,6.6597506e-02,6.3082040e-02,6.6360003e-02,5.3578875e-04,2.6757198e-03,-2.6470025e-04,-1.0675796e-01,-2.0553685e-01,1.6745676e-01
1.2299795e+00,-9.3100057e-04,-1.3138113e-03,-7.4289911e-04,-4.0522512e-02,-1.0243917e-01,-3.9193634e-02,2.8474712e-03,7.8650788e-03,-2.8990705e-03,2.3116847e-01,5.1893640e-01,-2.6343727e-01
1.2399795e+00,-1.3596743e-04,3.0835985e-04,3.7608222e-05,7.9492389e-02,1.6215283e-01,7.9645722e-02,-2.8490636e-04,-1.0946412e-03,-4.4308850e-04,-3.1323806e-01,-8.9597285e-01,2.4559843e-01
1.2499795e+00,-1.4682106e-04,2.5667967e-04,1.6344292e-05,-1.0846297e-03,-5.1678206e-03,-1.0870608e-03,-2.4614474e-04,-4.3235798e-04,-4.9572563e-04,3.8761652e-03,6.6228381e-02,-5.2637181e-03
1.2599795e+00,-9.7291962e-04,-1.5341527e-03,-9.1049901e-04,-8.3566597e-02,-1.7962764e-01,-8.0437571e-02,3.1689937e-03,9.9219358e-03,-4.7269792e-03,3.4151417e-01,1.0354304e+00,-4.2312576e-01
1.2699795e+00,-1.0002197e-03,-1.0830836e-03,-8.3698382e-04,-2.6179112e-03,4.5100655e-02,-2.9360473e-03,2.6742733e-03,4.7491497e-03,-3.1320723e-03,-4.9472092e-02,-5.1727910e-01,1.5949085e-01
1.2799795e+00,-9.9364366e-04,-9.4631494e-04,-7.3229730e-04,6.9220028e-04,1.3677465e-02,6.0812295e-04,2.4103195e-03,3.4925076e-03,-2.4840087e-03,-2.6395401e-02,-1.2566433e-01,6.4806418e-02
1.2899795e+00,-7.9213761e-04,-8.5952637e-04,-5.8400174e-04,2.0188254e-02,8.6888818e-03,2.0108599e-02,2.0592998e-03,2.5612431e-03,-9.8308786e-04,-3.5102005e-02,-9.3126535e-02,1.5009223e-01
1.2999794e+00,-9.0595488e-04,-1.0443024e-03,-5.9741055e-04,-1.1435844e-02,-1.8500415e-02,-1.1290107e-02,2.1001077e-03,4.1257449e-03,-1.3474657e-03,4.0807902e-03,1.5645033e-01,-3.6437823e-02
1.3099794e+00,-9.4135138e-04,-1.0748945e-03,-6.8066776e-04,-3.5517966e-03,-3.0661483e-03,-3.5214381e-03,2.2579372e-03,4.2348144e-03,-1.4827489e-03,1.5782964e-02,1.0906954e-02,-1.3528331e-02
1.3199794e+00,-9.5488948e-04,-9.9800947e-04,-7.0149534e-04,-1.3393923e-03,7.6863317e-03,-1.3802449e-03,2.1450007e-03,3.7050278e-03,-1.5346106e-03,-1.1293661e-02,-5.2978705e-02,-5.1861693e-03
1.3299794e+00,-9.4246720e-04,-1.0268682e-03,-6.6386237e-04,1.2375768e-03,-2.8840091e-03,1.2511645e-03,2.2261977e-03,3.7086414e-03,-1.4302618e-03,8.1197147e-03,3.6135830e-04,1.0434882e-02
1.3399794e+00,-5.0292727e-04,-6.6862644e-04,-2.9940395e-04,4.4034707e-02,3.5968439e-02,4.3755045e-02,1.0483872e-03,4.3422430e-03,-9.8194852e-04,-1.1778117e-01,6.3360223e-02,4.4831375e-02
1.3499794e+00,-1.0687376e-03,-1.1782652e-03,-7.4493692e-04,-5.6913238e-02,-5.1268618e-02,-5.5969379e-02,2.4210778e-03,7.8659113e-03,-3.6995020e-03,1.3726919e-01,3.5236716e-01,-2.7175561e-01
1.3599794e+00,-1.0034187e-03,-1.2818054e-03,-7.5277097e-04,6.5225712e-03,-1.0323670e-02,6.5890267e-03,3.1129249e-03,7.7336930e-03,-3.5179021e-03,6.9184780e-02,-1.3221843e-02,1.8160009e-02
1.3699794e+00,-1.1835529e-03,-1.2161319e-03,-7.9603443e-04,-1.8055582e-02,6.4893232e-03,-1.7999529e-02,2.9542927e-03,7.3002280e-03,-3.4267019e-03,-1.5863236e-02,-4.3346538e-02,9.1200306e-03
1.3799794e+00,-1.0929635e-03,-1.1029123e-03,-8.1665846e-04,9.1216919e-03,1.1366640e-02,8.9392638e-03,2.5345958e-03,7.5338226e-03,-3.7682684e-03,-4.1969737e-02,2.3359475e-02,-3.4156683e-02
1.3899794e+00,-1.1409737e-03,-1.1218068e-03,-7.6451745e-04,-4.8233210e-03,-1.9138278e-03,-4.7689297e-03,2.4078376e-03,7.5249042e-03,-3.7046995e-03,-1.2675827e-02,-8.9183726e-04,6.3568963e-03
1.3999794e+00,-8.8316079e-04,-1.2797721e-03,-7.3155726e-04,2.5811642e-02,-1.5665992e-02,2.5830593e-02,2.7873189e-03,7.8525548e-03,-2.8920134e-03,3.7948162e-02,3.2765091e-02,8.1268681e-02
1.4099793e+00,-7.9231025e-04,-7.4852376e-04,-5.6068258e-04,9.2129675e-03,5.3119295e-02,8.9884428e-03,2.3524012e-03,1.7627177e-03,-3.2569648e-04,-4.3491814e-02,-6.0898430e-01,2.5663194e-01
1.4199793e+00,-7.6503802e-04,-8.8579747e-04,-6.2879269e-04,2.6998497e-03,-1.3725390e-02,2.7642513e-03,2.2235188e-03,2.9243312e-03,-1.1573841e-03,-1.2888243e-02,1.1616147e-01,-8.3168843e-02
1.4299796e+00,-8.2689216e-04,-9.1023626e-04,-6.4099979e-04,-6.1978090e-03,-2.4503980e-03,-6.1701018e-03,2.1531146e-03,3.2229395e-03,-1.1792638e-03,-7.0402622e-03,2.9860150e-02,-2.1879183e-03
1.4399796e+00,-7.4115486e-04,-9.1562902e-04,-6.6993404e-04,8.5831897e-03,-5.2020169e-04,8.5654563e-03,1.8348245e-03,4.0639129e-03,-1.2201977e-03,-3.1829038e-02,8.4097418e-02,-4.0933964e-03
1.4499795e+00,-8.5436199e-04,-1.0752257e-03,-7.7176541e-04,-1.1370656e-02,-1.5994988e-02,-1.1220415e-02,1.9942185e-03,5.1422114e-03,-1.6025806e-03,1.5939416e-02,1.0782995e-01,-3.8238321e-02
1.4599795e+00,-9.7321711e-05,-6.7869141e-05,-1.3221361e-04,7.5681214e-02,1.0089576e-01,7.5513670e-02,-4.2688119e-04,1.6890809e-03,-2.6584333e-04,-2.4211020e-01,-3.4531338e-01,1.3367385e-01
1.4699795e+00,-4.7840800e-05,2.3918251e-04,4.8094490e-05,4.9333309e-03,3.0702596e-02,4.9788617e-03,-4.7432497e-04,-9.9548443e-04,4.0439031e-05,-4.7443829e-03,-2.6845679e-01,3.0628266e-02
1.4799795e+00,-1.2615371e-03,-1.1268676e-03,-7.4764038e-04,-1.2205782e-01,-1.3694597e-01,-1.2029084e-01,2.5683447e-03,5.4118226e-03,-2.7857096e-03,3.0426726e-01,6.4073131e-01,-2.8261513e-01
1.4899795e+00,-1.0378122e-03,-1.2606708e-03,-8.0926699e-04,2.2414237e-02,-1.3285851e-02,2.2387038e-02,3.0364714e-03,7.2675534e-03,-3.6926623e-03,4.6812719e-02,1.8557326e-01,-9.0695362e-02
1.4999795e+00,-8.9703164e-04,-7.2092048e-04,-5.5705048e-04,1.4198302e-02,5.3966293e-02,1.3990744e-02,2.1920389e-03,1.5821711e-03,-1.3828962e-04,-8.4443331e-02,-5.6853877e-01,3.5543761e-01
1.5099795e+00,-1.1422080e-03,-7.5914026e-04,-7.9457517e-04,-2.4562782e-02,-3.8701683e-03,-2.4464880e-02,1.7540589e-03,3.7266167e-03,-1.5697282e-03,-4.3798047e-02,2.1444476e-01,-1.4314400e-01
1.5199795e+00,-1.1410494e-03,-9.1379987e-04,-7.4892023e-04,9.0026535e-05,-1.5465445e-02,1.8747826e-04,1.6857029e-03,4.6422611e-03,-2.0218379e-03,-6.8356014e-03,9.1564534e-02,-4.5211014e-02
1.5299795e+00,-1.0984443e-03,-9.3679617e-04,-7.7740003e-04,4.2659304e-03,-2.2855623e-03,4.2626660e-03,1.7537622e-03,5.0598429e-03,-2.2218027e-03,6.8059306e-03,4.1758219e-02,-1.9996490e-02
1.5399795e+00,-8.7367206e-04,-9.5860965e-04,-6.3318922e-04,2.2500949e-02,-2.1512197e-03,2.2456418e-02,2.2407232e-03,3.5848972e-03,-1.2754543e-03,4.8696148e-02,-1.4749471e-01,9.4634926e-02
1.5499794e+00,-3.8141210e-04,-4.3260933e-04,-2.6721528e-04,4.9275790e-02,5.2748701e-02,4.9016796e-02,4.7067602e-04,3.4982211e-03,-5.0788800e-04,-1.7700488e-01,-8.6676184e-03,7.6756703e-02
1.5599794e+00,-9.8248416e-04,-1.3050148e-03,-7.6172913e-04,-6.0575279e-02,-8.7511160e-02,-5.9237875e-02,2.9601982e-03,7.5351078e-03,-3.5003987e-03,2.4895246e-01,4.0368906e-01,-2.9925136e-01
1.5699794e+00,-1.0184241e-03,-1.2717850e-03,-7.7688098e-04,-3.5973169e-03,3.3068011e-03,-3.6055720e-03,2.8731609e-03,7.3729433e-03,-3.5921264e-03,-8.7037354e-03,-1.6216468e-02,-9.1727812e-03
1.5799794e+00,-1.1942920e-03,-9.9520223e-04,-7.7457633e-04,-1.7566682e-02,2.7617467e-02,-1.7670905e-02,2.3897425e-03,4.7019759e-03,-2.6197986e-03,-4.8341886e-02,-2.6709699e-01,9.7232881e-02
1.5899794e+00,-1.0398984e-03,-1.2664913e-03,-8.4327380e-04,1.5417349e-02,-2.7057247e-02,1.5586474e-02,2.9099707e-03,7.5235132e-03,-3.6977365e-03,5.2022862e-02,2.8215400e-01,-1.0779390e-01
1.5999794e+00,-1.0529071e-03,-1.0653610e-03,-7.6115280e-04,-1.2623440e-03,2.0109859e-02,-1.3854671e-03,2.0325228e-03,4.3198843e-03,-1.8137230e-03,-8.7744870e-02,-3.2036320e-01,1.8840153e-01
1.6099794e+00,-9.8005652e-04,-1.0983535e-03,-7.7019917e-04,7.2936821e-03,-3.2817198e-03,7.2843715e-03,2.1758993e-03,4.5875799e-03,-2.1725317e-03,1.4337668e-02,2.6769584e-02,-3.5880907e-02
1.6199794e+00,-8.5713589e-04,-8.0775155e-04,-6.9180699e-04,1.2372524e-02,2.9065826e-02,1.2197755e-02,2.2567932e-03,2.7307040e-03,-1.2126848e-03,8.0893892e-03,-1.8568777e-01,9.5984784e-02
1.6299794e+00,-1.0188330e-03,-1.0500168e-03,-8.6583955e-04,-1.6263440e-02,-2.4267577e-02,-1.6013458e-02,2.2894806e-03,4.8603417e-03,-2.3707104e-03,3.2687483e-03,2.1296397e-01,-1.1580267e-01
1.6399794e+00,-1.0006509e-03,-1.5027706e-03,-8.7445884e-04,1.7064889e-03,-4.5260715e-02,2.2431361e-03,2.6133111e-03,9.5230981e-03,-3.6367094e-03,3.2383079e-02,4.6627609e-01,-1.2660002e-01
1.6499794e+00,-1.0912193e-03,-1.2954533e-03,-7.9107028e-04,-9.0449625e-03,2.0671856e-02,-9.2044341e-03,2.0467053e-03,8.5997659e-03,-3.3805245e-03,-5.6660632e-02,-9.2333307e-02,2.5618516e-02
1.6599793e+00,-7.6416065e-04,-7.8721262e-04,-4.8529988e-04,3.2868963e-02,5.0984593e-02,3.2290001e-02,1.3281405e-03,6.2854772e-03,-2.9271465e-03,-7.1856544e-02,-2.3142909e-01,4.5337839e-02
1.6699793e+00,-1.0279610e-03,-1.2592081e-03,-7.5281614e-04,-2.6616916e-02,-4.7325557e-02,-2.5912310e-02,2.9471374e-03,7.8138742e-03,-3.7168362e-03,1.6189984e-01,1.5283985e-01,-7.8969045e-02
1.6799796e+00,-1.1149999e-03,-1.3148843e-03,-7.7933925e-04,-8.7508692e-03,-5.6138170e-03,-8.6262813e-03,2.6919421e-03,8.0669295e-03,-3.7094469e-03,-2.5518947e-02,2.5304951e-02,7.3891503e-04
1.6899796e+00,-1.1556783e-03,-1.1905993e-03,-8.5588460e-04,-4.0554758e-03,1.2404720e-02,-4.1519592e-03,2.3025196e-03,8.0761127e-03,-4.0039520e-03,-3.8942285e-02,9.1831638e-04,-2.9450543e-02
1.6999795e+00,-1.1399153e-03,-1.1998821e-03,-8.0613136e-04,1.5803460e-03,-9.1922754e-04,1.5775521e-03,2.3262210e-03,8.0814047e-03,-3.9479048e-03,2.3701441e-03,5.2920809e-04,5.6047294e-03
1.7099795e+00,-9.1654917e-04,-7.8211008e-04,-5.4110668e-04,2.2435014e-02,4.1768743e-02,2.2253785e-02,2.1678099e-03,1.7953682e-03,-3.5213186e-04,-1.5841125e-02,-6.2860425e-01,3.5957764e-01
1.7199795e+00,-1.1986963e-03,-1.0504905e-03,-7.8516558e-04,-2.8329729e-02,-2.6913280e-02,-2.8027257e-02,2.1793411e-03,4.8683722e-03,-2.0067797e-03,1.1531195e-03,3.0730069e-01,-1.6546494e-01
1.7299795e+00,-1.1517455e-03,-1.0714757e-03,-7.9188708e-04,4.6997374e-03,-2.0846649e-03,4.6966107e-03,2.2621660e-03,5.2160834e-03,-2.0056222e-03,8.2824978e-03,3.4771147e-02,1.1574613e-04
1.7399795e+00,-8.1009048e-04,-7.2179979e-04,-5.9829755e-04,3.4257540e-02,3.4952636e-02,3.4088650e-02,2.2609559e-03,1.8273503e-03,-3.8157336e-04,-1.2101360e-04,-3.3887363e-01,1.6240504e-01
1.7499795e+00,-7.6001608e-04,-7.6314506e-04,-5.9762858e-04,5.0008727e-03,-4.1373944e-03,5.0116453e-03,2.2042705e-03,1.6301819e-03,-5.1016372e-04,-5.6685403e-03,-1.9716859e-02,-1.2859048e-02
1.7599795e+00,-1.7254520e-04,1.4708205e-04,-4.9634902e-05,5.8736636e-02,9.1071487e-02,5.8682157e-02,-5.2581219e-04,3.0344766e-04,-6.3616605e-04,-2.7300853e-01,-1.3267355e-01,-1.2600245e-02
1.7699795e+00,-2.0764710e-04,1.9449208e-04,-2.8248889e-05,-3.5147429e-03,4.7402489e-03,-3.5066621e-03,-3.6578611e-04,-1.4995952e-04,-8.0260596e-04,1.6002624e-02,-4.5340761e-02,-1.6644007e-02
1.7799795e+00,-9.1880388e-04,-1.3384116e-03,-7.9589387e-04,-7.1817371e-02,-1.5373582e-01,-6.9429424e-02,2.5680472e-03,8.9625992e-03,-4.3433164e-03,2.9338361e-01,9.1125674e-01,-3.5407138e-01
1.7899795e+00,-9.3142665e-04,-1.3351834e-03,-7.9911642e-04,-1.2663841e-03,3.1546986e-04,-1.2600227e-03,2.5473196e-03,8.3940006e-03,-3.9149515e-03,-2.0727597e-03,-5.6859911e-02,4.2836526e-02
1.7999794e+00,-1.0681431e-03,-8.3636209e-04,-7.4140768e-04,-1.3618557e-02,4.9856103e-02,-1.3818990e-02,1.7740800e-03,3.6608764e-03,-2.5937416e-03,-7.7324042e-02,-4.7331287e-01,1.3212112e-01
1.8099794e+00,-1.0196198e-03,-1.2150904e-03,-8.5846921e-04,4.7892826e-03,-3.7843084e-02,5.1389287e-03,2.0995896e-03,7.9985181e-03,-3.4006151e-03,3.2550991e-02,4.3376458e-01,-8.0687427e-02
1.8199794e+00,-1.1738215e-03,-1.0913228e-03,-7.3981051e-04,-1.5420149e-02,1.2335185e-02,-1.5453518e-02,2.2941446e-03,4.9885727e-03,-1.8432208e-03,1.9455519e-02,-3.0099484e-01,1.5573958e-01
1.8299696e+00,-1.1569965e-03,-1.0094392e-03,-7.5051704e-04,1.7045778e-03,8.2003384e-03,1.6438425e-03,2.1388810e-03,4.5586454e-03,-1.7256928e-03,-1.5541565e-02,-4.3034838e-02,1.1764309e-02
1.8399696e+00,-1.2441937e-03,-1.1497307e-03,-7.7110288e-04,-8.7710173e-03,-1.4062704e-02,-8.6136080e-03,2.3390820e-03,6.2344128e-03,-2.1241205e-03,2.0020124e-02,1.6757691e-01,-3.9842807e-02
1.8499696e+00,-1.0414722e-03,-6.4059543e-04,-6.2714955e-04,2.0379329e-02,5.0940921e-02,2.0095259e-02,1.8075692e-03,3.1756704e-03,-7.4819424e-04,-5.3151334e-02,-3.0587453e-01,1.3759276e-01
1.8598955e+00,-7.5391711e-04,-4.7383262e-04,-5.0184622e-04,2.9005539e-02,1.6807865e-02,2.8931040e-02,1.2333937e-03,1.4765774e-03,-5.0054139e-04,-5.7846530e-02,-1.7117873e-01,2.4950312e-02
1.8698955e+00,-1.5856984e-04,3.5295929e-04,1.4248649e-05,5.9483760e-02,8.2606997e-02,5.9685921e-02,-3.9943939e-04,-1.6110176e-03,3.0219660e-04,-1.6328346e-01,-3.0875979e-01,8.0273875e-02
1.8798954e+00,-6.8852029e-05,3.3725687e-04,3.5451688e-05,8.9719211e-03,-1.5737967e-03,8.9710351e-03,-5.7713748e-04,-9.7322528e-04,8.6163494e-05,-1.7769826e-02,6.3779294e-02,-2.1603332e-02
1.8898954e+00,-1.0368759e-03,-1.1327238e-03,-8.3304424e-04,-9.7493149e-02,-1.4751216e-01,-9.5316118e-02,2.2732234e-03,7.6594263e-03,-3.6922693e-03,2.8503636e-01,8.6326598e-01,-3.7784364e-01
1.8998954e+00,-1.0374267e-03,-9.4691400e-04,-8.0693717e-04,-2.0066189e-05,1.8580611e-02,-1.4165518e-04,1.8927380e-03,4.6628964e-03,-2.9419718e-03,-3.8048573e-02,-2.9965327e-01,7.5029817e-02
1.9098954e+00,-1.7596666e-04,1.5505393e-04,-6.3731497e-05,8.6148930e-02,1.1025275e-01,8.6071736e-02,-4.8908304e-04,1.5955168e-04,-6.5902890e-04,-2.3818233e-01,-4.5033490e-01,2.2829451e-01
1.9198954e+00,-7.0463976e-04,-2.4642332e-04,-2.5391827e-04,-5.2983938e-02,-3.9897342e-02,-5.2940182e-02,1.9900710e-03,-2.7442693e-03,-6.9604826e-04,2.4791564e-01,-2.9038237e-01,-3.7019398e-03
1.9298956e+00,-9.3030979e-04,-1.0646880e-03,-7.7980274e-04,-2.2809608e-02,-8.1877446e-02,-2.2126073e-02,2.3381463e-03,4.7417082e-03,-2.3009966e-03,3.4806738e-02,7.4858061e-01,-1.6049116e-01
1.9398956e+00,-6.0298350e-04,-7.9588296e-04,-6.1600800e-04,3.2836804e-02,2.7052240e-02,3.2485963e-02,1.0003640e-03,6.2776174e-03,-2.3634056e-03,-1.3377836e-01,1.5359107e-01,-6.2409085e-03
1.9498956e+00,-1.0732072e-03,-1.0472016e-03,-8.5958123e-04,-4.7185720e-02,-2.5300997e-02,-4.6767455e-02,1.9291055e-03,5.5483190e-03,-2.4466511e-03,9.2874237e-02,-7.2929907e-02,-8.3245578e-03
1.9598956e+00,-1.0805976e-03,-1.1026624e-03,-8.2377431e-04,-7.5349067e-04,-5.5481067e-03,-7.0870179e-04,2.3218204e-03,5.1796311e-03,-2.1371431e-03,3.9271521e-02,-3.6868832e-02,3.0950834e-02
1.9698956e+00,-1.2085977e-03,-1.5340980e-03,-9.6856057e-04,-1.2975328e-02,-4.3233076e-02,-1.2312320e-02,2.7976342e-03,1.0013474e-02,-4.2794862e-03,4.7581433e-02,4.8338471e-01,-2.1423452e-01
1.9798956e+00,-1.1403353e-03,-1.3896892e-03,-7.9886226e-04,6.8948247e-03,1.4477070e-02,6.6791108e-03,2.9234052e-03,8.3375480e-03,-3.8743017e-03,1.2577106e-02,-1.6759272e-01,4.0518491e-02
1.9898956e+00,-4.7230264e-04,-2.7003148e-04,-2.0728496e-04,6.6894459e-02,1.1215780e-01,6.6388910e-02,1.7764081e-04,3.0617480e-03,-1.0669498e-03,-2.7457670e-01,-5.2758050e-01,2.8073546e-01
1.9998956e+00,-1.2917943e-04,3.2897315e-04,-1.8061366e-05,3.4264668e-02,5.9928463e-02,3.4311215e-02,-9.9196237e-04,-1.7679146e-04,-3.4251203e-04,-1.1696043e-01,-3.2385425e-01,7.2443845e-02
2.0098956e+00,-8.7063773e-05,2.6828349e-04,2.8643521e-05,4.2142923e-03,-6.0703321e-03,4.2068841e-03,-5.0759578e-04,-8.3107953e-04,8.4899325e-05,4.8436705e-02,-6.5428869e-02,4.2741176e-02
2.0198956e+00,-8.7150391e-04,-9.9070953e-04,-5.8758448e-04,-7.8839014e-02,-1.2612779e-01,-7.7677575e-02,2.3337932e-03,5.2785553e-03,-1.2924056e-03,2.8413917e-01,6.1096406e-01,-1.3773062e-01
2.0298955e+00,-1.0567658e-03,-1.3223512e-03,-7.9442556e-04,-1.8673128e-02,-3.3266035e-02,-1.8193128e-02,2.6433696e-03,8.2338505e-03,-3.2071174e-03,3.0957664e-02,2.9552980e-01,-1.9147136e-01
2.0398955e+00,-7.5747932e-04,-8.1012914e-04,-5.6054567e-04,3.0059251e-02,5.1387038e-02,2.9512447e-02,1.1162554e-03,6.6778714e-03,-2.4560037e-03,-1.5271156e-01,-1.5559806e-01,7.5111438e-02
2.0498955e+00,-1.0137420e-03,-8.5447887e-04,-7.5316559e-04,-2.5684342e-02,-4.4962955e-03,-2.5557407e-02,1.8014101e-03,4.2042561e-03,-1.9568620e-03,6.8515535e-02,-2.4736177e-01,4.9914218e-02
2.0598955e+00,-9.8844261e-04,-1.1021782e-03,-8.3792816e-04,2.4734570e-03,-2.4762927e-02,2.6517270e-03,2.4999704e-03,5.1314724e-03,-2.1541838e-03,6.9856096e-02,9.2721714e-02,-1.9732198e-02
2.0698955e+00,-8.8226382e-04,-1.4979715e-03,-1.0667886e-03,1.0569976e-02,-3.9485986e-02,1.1006266e-02,2.4768782e-03,1.1083310e-02,-4.7345183e-03,-2.3092248e-03,5.9518433e-01,-2.5803369e-01
2.0798955e+00,-8.0832539e-04,-1.2292688e-03,-8.6217644e-04,7.4930913e-03,2.6914698e-02,7.1276540e-03,2.5075720e-03,8.6998500e-03,-4.3218378e-03,3.0693822e-03,-2.3834622e-01,4.1268087e-02
2.0898955e+00,-1.3586553e-04,1.8632370e-04,-2.7527931e-05,6.7233993e-02,1.4156747e-01,6.7241083e-02,-4.1529988e-04,-2.9499472e-04,-6.9528909e-04,-2.9228747e-01,-8.9948533e-01,3.6265522e-01
2.0998955e+00,-6.8508089e-04,-7.5579483e-04,-5.6918696e-04,-5.5199491e-02,-9.4458975e-02,-5.4214113e-02,1.3239402e-03,5.8693772e-03,-2.7937019e-03,1.7392417e-01,6.1643778e-01,-2.0984148e-01
2.1098955e+00,-1.2390371e-03,-1.6118717e-03,-1.1123592e-03,-5.5835940e-02,-8.6029905e-02,-5.4288617e-02,2.6312776e-03,1.0380961e-02,-3.8924765e-03,1.3073387e-01,4.5115880e-01,-1.0987757e-01
2.1198955e+00,-1.2526180e-03,-1.1472059e-03,-8.5050266e-04,-1.2702605e-03,4.6459366e-02,-1.6583859e-03,1.9646184e-03,6.5322269e-03,-2.5457714e-03,-6.6665978e-02,-3.8487378e-01,1.3467065e-01
2.1298954e+00,-8.7637497e-04,-8.8764845e-04,-6.0034809e-04,3.7722270e-02,2.6008094e-02,3.7489913e-02,1.9524890e-03,3.3527085e-03,-1.2584916e-03,-1.2129411e-03,-3.1795214e-01,1.2872810e-01
2.1398954e+00,-4.8282011e-04,-4.0527225e-04,-2.9760569e-04,3.9394349e-02,4.8382901e-02,3.9137795e-02,9.3352323e-05,3.7958452e-03,-8.7250250e-04,-1.8591385e-01,4.4313716e-02,3.8598943e-02
2.1498954e+00,-9.2510963e-04,-7.2023278e-04,-5.3960393e-04,-4.4308689e-02,-3.1532051e-02,-4.4123474e-02,1.7073461e-03,2.5253522e-03,-5.8768283e-04,1.6139953e-01,-1.2704942e-01,2.8481994e-02
2.1598954e+00,-9.5143998e-04,-8.2020724e-04,-6.0379708e-04,-2.6569196e-03,-9.9988306e-03,-2.6036643e-03,2.2656178e-03,2.8136700e-03,-4.7055796e-04,5.5827229e-02,2.8831803e-02,1.1712498e-02
2.1698954e+00,-1.2791126e-03,-1.4562310e-03,-1.0014269e-03,-3.3063582e-02,-6.3827706e-02,-3.2023186e-02,2.6149826e-03,9.6250382e-03,-3.9777186e-03,3.4936508e-02,6.8113747e-01,-3.5071639e-01
2.1798956e+00,-1.2961706e-03,-1.0511709e-03,-7.4139616e-04,-1.6053386e-03,4.0499330e-02,-1.9256937e-03,2.5951024e-03,5.5390259e-03,-2.7583419e-03,-1.9879755e-03,-4.0859187e-01,1.2193487e-01
2.1898956e+00,-1.0528979e-03,-1.1345109e-03,-7.3273006e-04,2.4396635e-02,-8.2106468e-03,2.4299791e-02,2.5194172e-03,7.6077707e-03,-3.7234615e-03,-7.5685280e-03,2.0687467e-01,-9.6512052e-02
2.1998956e+00,-8.6187899e-04,-9.2922520e-04,-6.2841008e-04,1.9206003e-02,2.0611728e-02,1.8907007e-02,2.2080161e-03,6.6070351e-03,-3.0836692e-03,-3.1140139e-02,-1.0007365e-01,6.3979297e-02
2.2098956e+00,-7.5691364e-04,-1.1402180e-03,-7.9787080e-04,1.0493504e-02,-2.1030189e-02,1.0637336e-02,2.1266882e-03,8.6654977e-03,-3.9954406e-03,-8.1327949e-03,2.0584646e-01,-9.1177228e-02
2.2198956e+00,-1.0567677e-03,-1.3492128e-03,-1.0093208e-03,-3.0150861e-02,-2.1040925e-02,-2.9719464e-02,2.8038088e-03,7.5700642e-03,-3.5730807e-03,6.7712128e-02,-1.0954346e-01,4.2236024e-02
2.2298956e+00,-6.8525531e-04,-1.0999779e-03,-7.0718275e-04,3.7310844e-02,2.5124967e-02,3.6854481e-02,2.0205540e-03,7.4852102e-03,-2.9460724e-03,-7.8325561e-02,-8.4854076e-03,6.2700895e-02
2.2398956e+00,-8.1611200e-04,-1.1689005e-03,-7.0073314e-04,-1.3131304e-02,-6.9271265e-03,-1.3021415e-02,2.4856627e-03,5.1692005e-03,-2.1828158e-03,4.6510920e-02,-2.3160120e-01,7.6325730e-02
2.2498956e+00,-6.4567004e-04,-9.6323560e-04,-5.7184849e-04,1.7115314e-02,2.0651881e-02,1.6868833e-02,1.6338378e-03,6.6858906e-03,-2.2039545e-03,-8.5182578e-02,1.5166916e-01,-2.1138726e-03
2.2598956e+00,-8.7258897e-04,-1.1564588e-03,-6.7719779e-04,-2.2764099e-02,-1.9507782e-02,-2.2459761e-02,1.1266716e-03,9.3577307e-03,-2.2248436e-03,-5.0716662e-02,2.6718426e-01,-2.0889123e-03
2.2698956e+00,-8.4720373e-04,-6.3104897e-04,-3.3838557e-04,2.5633622e-03,5.2552511e-02,2.2607542e-03,4.8223729e-04,5.2958694e-03,1.9740400e-04,-6.4443494e-02,-4.0618652e-01,2.4222499e-01
2.2798955e+00,-8.3592715e-04,3.1644854e-04,4.5658536e-05,1.0201405e-03,9.4750406e-02,1.1812260e-03,-1.1345776e-03,-5.6518326e-04,1.4993174e-05,-1.6168164e-01,-5.8610582e-01,-1.8241100e-02
2.2898955e+00,-2.1930544e-03,-9.1326703e-04,-6.2315609e-04,-1.3626760e-01,-1.2327688e-01,-1.3487751e-01,1.8124441e-03,4.0803833e-03,-2.4500408e-03,2.9470245e-01,4.6455710e-01,-2.4650363e-01
2.2998955e+00,-2.7549951e-03,-7.6985349e-04,-5.3597923e-04,-5.6296952e-02,1.4203684e-02,-5.6126137e-02,9.5493734e-04,3.4105551e-03,-2.0761389e-03,-8.5750754e-02,-6.6982885e-02,3.7390226e-02
2.3098955e+00,-3.0412310e-03,-7.0883670e-04,-4.7948867e-04,-2.8668151e-02,6.0157091e-03,-2.8597227e-02,7.1686039e-04,3.7253723e-03,-1.7105080e-03,-2.3807717e-02,3.1481753e-02,3.6563116e-02
2.3198955e+00,-3.3375083e-03,-6.9142475e-04,-7.0973791e-04,-2.9687674e-02,1.5792752e-03,-2.9576807e-02,2.4206690e-04,5.7179948e-03,-2.0387016e-03,-4.7479394e-02,1.9926244e-01,-3.2819383e-02
2.3298955e+00,-3.5473202e-03,-5.3312540e-04,-5.6750476e-04,-2.1021177e-02,1.5713510e-02,-2.1028693e-02,-3.1669393e-04,5.2314548e-03,-1.6670931e-03,-5.5876136e-02,-4.8654049e-02,3.7160884e-02
2.3398955e+00,-3.9357810e-03,-5.4031474e-04,-4.7950427e-04,-3.8909041e-02,-9.2701760e-04,-3.8778672e-02,-2.9938110e-05,5.3356040e-03,-1.6217391e-03,2.8675609e-02,1.0414933e-02,4.5353973e-03
2.3498955e+00,-4.4623640e-03,-4.5560350e-04,-4.3013315e-04,-5.2739655e-02,8.1849853e-03,-5.2622233e-02,-2.9620867e-04,5.1434199e-03,-1.4974419e-03,-2.6627081e-02,-1.9218433e-02,1.2429740e-02
2.3598955e+00,-4.9276333e-03,-3.2894665e-04,-4.9955115e-04,-4.6586534e-02,1.2430685e-02,-4.6530748e-02,-4.1368366e-04,4.6398827e-03,-1.1683759e-03,-1.1747510e-02,-5.0353766e-02,3.2906632e-02
2.3698955e+00,-4.8419008e-03,9.2743181e-04,1.1090747e-04,8.1872980e-03,1.2566286e-01,8.5856991e-03,-3.0655906e-03,-9.3116628e-05,8.9825100e-05,-2.6519094e-01,-4.7330038e-01,1.2582022e-01
2.3798954e+00,-6.1587182e-03,-2.3306514e-04,-7.2873447e-04,-1.3194439e-01,-1.1691906e-01,-1.3064608e-01,-1.0399279e-03,5.5918765e-03,-2.9148474e-03,2.0256646e-01,5.6849985e-01,-3.0046754e-01
2.3898954e+00,-6.8059615e-03,-1.2034733e-04,-7.6053934e-04,-6.4942887e-02,1.0802503e-02,-6.4585396e-02,-1.4570095e-03,5.8087024e-03,-3.1280594e-03,-4.1708200e-02,2.1682612e-02,-2.1321215e-02
2.3998954e+00,-7.4707068e-03,1.1699646e-04,-6.9479354e-04,-6.6718196e-02,2.3260970e-02,-6.6397844e-02,-1.9452442e-03,5.1868100e-03,-2.9764389e-03,-4.8823513e-02,-6.2189296e-02,1.5162065e-02
2.4098954e+00,-7.9486001e-03,8.0086536e-05,-7.7813989e-04,-4.7925026e-02,-4.1181563e-03,-4.7618333e-02,-2.4599408e-03,6.5001723e-03,-3.0360610e-03,-5.1469714e-02,1.3133635e-01,-5.9622173e-03
2.4198954e+00,-8.2324670e-03,3.5601044e-04,-6.1358254e-04,-2.8531336e-02,2.7359633e-02,-2.8466940e-02,-3.1379098e-03,5.0558113e-03,-2.0513944e-03,-6.7796961e-02,-1.4443623e-01,9.8466753e-02
2.4298956e+00,-8.4354274e-03,7.3794842e-04,-3.9034574e-04,-2.0458811e-02,3.8049737e-02,-2.0400354e-02,-3.8739989e-03,3.1600075e-03,-7.6069512e-04,-7.3607224e-02,-1.8957604e-01,1.2906697e-01
2.4398956e+00,-8.7523943e-03,8.0771270e-04,-4.1040545e-04,-3.1756451e-02,6.6820739e-03,-3.1700345e-02,-4.6644243e-03,4.6217188e-03,-8.6922240e-04,-7.9042622e-02,1.4617127e-01,-1.0852738e-02
2.4498956e+00,-8.7883007e-03,1.5581373e-03,-5.3667024e-05,-4.0266395e-03,7.5020557e-02,-3.5874676e-03,-5.8563752e-03,-9.3428979e-05,9.5137191e-04,-1.1919520e-01,-4.7151523e-01,1.8205960e-01
2.4598956e+00,-9.3772441e-03,1.7437040e-03,9.3596285e-05,-5.8976475e-02,1.8296054e-02,-5.8893808e-02,-6.2463424e-03,-1.8266540e-03,5.5482769e-04,-3.8996753e-02,-1.7332266e-01,-3.9654459e-02
2.4698956e+00,-1.0099888e-02,1.6190331e-03,-4.1582650e-07,-7.2241864e-02,-1.2856416e-02,-7.2218797e-02,-6.0426573e-03,-6.5246560e-04,-7.4851092e-04,2.0368527e-02,1.1741895e-01,-1.3033399e-01
2.4798956e+00,-1.0730815e-02,1.4684253e-03,-2.3661474e-04,-6.3149184e-02,-1.5556841e-02,-6.2915642e-02,-6.1353161e-03,1.7359209e-03,-2.3809660e-03,-9.2658860e-03,2.3883888e-01,-1.6324567e-01
2.4898956e+00,-1.0832775e-02,1.5480445e-03,-1.6392095e-04,-1.0258877e-02,7.8808948e-03,-1.0195895e-02,-6.5368660e-03,1.3940500e-03,-1.0834583e-03,-4.0155031e-02,-3.4187124e-02,1.2975090e-01
2.4998956e+00,-1.0872125e-02,1.1353963e-03,-1.3543948e-04,-3.6935096e-03,-4.1303339e-02,-3.7616556e-03,-5.8773367e-03,4.1752872e-03,-2.6587575e-04,6.5952986e-02,2.7812399e-01,8.1758328e-02
2.5098956e+00,-1.1501152e-02,1.2671710e-03,-3.3205364e-04,-6.3058935e-02,1.2504880e-02,-6.2883640e-02,-6.0821026e-03,4.6104314e-03,-1.2283749e-03,-2.0476600e-02,4.3514461e-02,-9.6250007e-02
2.5198956e+00,-1.2061258e-02,1.2017868e-03,-4.3206579e-04,-5.6072992e-02,-7.2204955e-03,-5.5864384e-02,-6.6684204e-03,5.5240915e-03,-1.9148665e-03,-5.8631838e-02,9.1366096e-02,-6.8649227e-02
2.5298955e+00,-1.2573906e-02,1.8823112e-03,-3.6027735e-04,-5.1907054e-02,6.7582712e-02,-5.1240111e-02,-8.0409883e-03,1.0815182e-03,-1.8871582e-03,-1.3725693e-01,-4.4425776e-01,2.7708348e-03
2.5398955e+00,-1.2902346e-02,1.7360185e-03,-2.0904042e-04,-3.2799206e-02,-1.4905957e-02,-3.2764338e-02,-7.3841164e-03,1.0542636e-03,-1.9532234e-03,6.5687254e-02,-2.7254631e-03,-6.6065242e-03
2.5498955e+00,-1.2682147e-02,2.2613193e-03,1.1439720e-04,2.1606624e-02,5.2632550e-02,2.2184264e-02,-7.7734727e-03,-3.0383923e-03,1.9749838e-04,-3.8935665e-02,-4.0926598e-01,2.1507238e-01
2.5598955e+00,-1.2681826e-02,2.1722304e-03,2.4205329e-04,1.1019226e-04,-8.9082937e-03,2.4691916e-05,-8.7728814e-03,-8.2389646e-04,-4.5004091e-05,-9.9940966e-02,2.2144980e-01,-2.4250270e-02
2.5698955e+00,-1.2755162e-02,1.9904216e-03,1.6853612e-05,-7.1764929e-03,-1.8262701e-02,-7.2855831e-03,-8.5330931e-03,2.7210145e-03,2.3097411e-04,2.3978848e-02,3.5449144e-01,2.7597847e-02
2.5798955e+00,-1.2853357e-02,2.6834286e-03,1.3956204e-04,-1.0470135e-02,6.9215945e-02,-9.7452295e-03,-9.4706780e-03,-1.1535411e-03,5.3246561e-04,-9.3758574e-02,-3.8745593e-01,3.0149179e-02
2.5898955e+00,-1.3521933e-02,1.9606289e-03,-9.1345391e-05,-6.6365314e-02,-7.3031145e-02,-6.6531168e-02,-8.1871610e-03,3.0934414e-03,-1.5215385e-03,1.2835182e-01,4.2469866e-01,-2.0540061e-01
2.5998955e+00,-1.3615280e-02,2.0756823e-03,1.3630783e-04,-9.4265711e-03,1.1423362e-02,-9.3430253e-03,-7.9176799e-03,8.2723162e-04,-1.1708991e-04,2.6948134e-02,-2.2662120e-01,1.4044499e-01
2.6098955e+00,-1.4378828e-02,2.2530984e-03,2.1358695e-04,-7.6547072e-02,1.7001192e-02,-7.6331041e-02,-9.1534801e-03,5.3429263e-04,-4.3127489e-04,-1.2358013e-01,-2.9293927e-02,-3.1418529e-02
2.6198955e+00,-1.4882476e-02,2.4033441e-03,6.5537567e-05,-5.0602210e-02,1.4496991e-02,-5.0281384e-02,-9.7324851e-03,7.3026344e-04,-1.8596280e-03,-5.7900553e-02,1.9597099e-02,-1.4283545e-01
2.6298954e+00,-1.5330721e-02,2.5699680e-03,-1.3026886e-04,-4.5113385e-02,1.6137339e-02,-4.4726713e-02,-1.0237234e-02,1.4610066e-03,-2.6951558e-03,-5.0474927e-02,7.3074388e-02,-8.3552862e-02
2.6398954e+00,-1.5656850e-02,2.1384164e-03,-2.9108086e-04,-3.2300625e-02,-4.3598206e-02,-3.2333424e-02,-9.5082847e-03,4.1593029e-03,-3.0539918e-03,7.2894983e-02,2.6982989e-01,-3.5883632e-02
2.6498954e+00,-1.5588654e-02,1.9310757e-03,-4.1617860e-05,7.0216906e-03,-2.0632705e-02,6.9212755e-03,-9.4308363e-03,5.2642098e-03,-1.0041493e-03,7.7448491e-03,1.1049079e-01,2.0498445e-01
2.6598954e+00,-1.5951327e-02,1.8266326e-03,-2.8004166e-04,-3.6206936e-02,-1.1119990e-02,-3.6126483e-02,-1.0114521e-02,8.5529242e-03,-1.3000614e-03,-6.8368539e-02,3.2887176e-01,-2.9591241e-02
2.6698954e+00,-1.6204796e-02,2.1577486e-03,-1.9842607e-04,-2.5736730e-02,3.2636350e-02,-2.5569596e-02,-1.0861045e-02,7.7835393e-03,-1.2498401e-03,-7.4652482e-02,-7.6938565e-02,5.0221382e-03
2.6798956e+00,-1.5914614e-02,3.5012474e-03,4.9684925e-04,2.7168903e-02,1.3471000e-01,2.9123359e-02,-1.3490345e-02,-5.5107609e-04,1.1605632e-03,-2.6292394e-01,-8.3344246e-01,2.4103481e-01
2.6898956e+00,-1.6948208e-02,2.5960088e-03,-6.8376512e-06,-1.0239886e-01,-9.2143029e-02,-1.0288388e-01,-1.1408178e-02,4.3252451e-03,-7.6243646e-04,2.0821689e-01,4.8763259e-01,-1.9230015e-01
2.6998956e+00,-1.7911606e-02,2.7370919e-03,9.3135904e-05,-9.6582020e-02,1.2715660e-02,-9.6291472e-02,-1.1729353e-02,2.7184114e-03,-8.6403465e-04,-3.2117524e-02,-1.6068353e-01,-1.0159829e-02
2.7098956e+00,-1.8351963e-02,3.2198390e-03,2.8226826e-04,-4.4623282e-02,4.7767984e-02,-4.3996732e-02,-1.2115472e-02,-6.8777750e-04,-1.3627624e-04,-3.8611992e-02,-3.4061921e-01,7.2775911e-02
2.7198956e+00,-1.8888177e-02,3.2915980e-03,1.4242758e-04,-5.3722219e-02,6.4509906e-03,-5.3612723e-02,-1.2926631e-02,5.8188019e-04,-2.3274375e-04,-8.1115899e-02,1.2696589e-01,-9.6467607e-03
2.7298956e+00,-1.9479831e-02,3.1751057e-03,8.4764481e-05,-5.9037179e-02,-1.2540427e-02,-5.9111429e-02,-1.2765693e-02,2.3148205e-03,-4.2653833e-04,1.6093791e-02,1.7329419e-01,-1.9379477e-02
2.7398956e+00,-2.0083160e-02,3.1494061e-03,8.4237085e-05,-6.0300822e-02,-3.5917994e-03,-6.0312830e-02,-1.3112060e-02,3.8294376e-03,-1.1243019e-04,-3.4636734e-02,1.5146186e-01,3.1410845e-02
2.7498956e+00,-2.0543562e-02,3.5756295e-03,2.5344216e-04,-4.6614463e-02,4.1827919e-02,-4.6190859e-02,-1.4198003e-02,2.9593162e-03,5.7081929e-04,-1.0859446e-01,-8.7012225e-02,6.8325013e-02
2.7598956e+00,-2.0865335e-02,4.6126601e-03,6.0601699e-04,-3.3857284e-02,1.0322526e-01,-3.1989579e-02,-1.6774365e-02,-2.3799869e-03,1.7071112e-03,-2.5763638e-01,-5.3393082e-01,1.1362930e-01
2.7698956e+00,-2.2268620e-02,3.7070948e-03,1.2611332e-04,-1.3908237e-01,-9.3369365e-02,-1.3972476e-01,-1.5407243e-02,4.7268968e-03,-1.1804985e-03,1.3671233e-01,7.1068905e-01,-2.8876125e-01
2.7798955e+00,-2.2755860e-02,4.6477856e-03,5.4516935e-04,-5.0247367e-02,9.3322578e-02,-4.8612526e-02,-1.6426778e-02,-1.3650610e-03,3.1432925e-04,-1.0195362e-01,-6.0919637e-01,1.4948292e-01
2.7898955e+00,-2.3818028e-02,4.4012632e-03,2.7390936e-04,-1.0601852e-01,-2.6647720e-02,-1.0593296e-01,-1.6562582e-02,2.2620346e-03,-2.1149971e-03,-1.3580384e-02,3.6270991e-01,-2.4293286e-01
2.7998955e+00,-2.4004920e-02,4.5723619e-03,4.5100552e-04,-1.8994512e-02,1.6785031e-02,-1.8675937e-02,-1.6446165e-02,8.1351394e-04,-1.4176517e-03,1.1641728e-02,-1.4485220e-01,6.9734606e-02
2.8098955e+00,-2.4295621e-02,4.1748341e-03,3.6242358e-04,-2.8421192e-02,-4.0371705e-02,-2.8858097e-02,-1.6710556e-02,4.7896935e-03,-6.6776402e-04,-2.6439145e-02,3.9761833e-01,7.4988838e-02
2.8198955e+00,-2.4258489e-02,5.2122570e-03,8.2225088e-04,1.5767776e-03,1.0380999e-01,3.3255770e-03,-2.0529222e-02,3.7583305e-03,1.6137787e-03,-3.8186700e-01,-1.0313640e-01,2.2815449e-01
2.8298955e+00,-2.5975246e-02,4.4139449e-03,1.6134588e-05,-1.7039204e-01,-8.4446519e-02,-1.7074401e-01,-1.8770276e-02,8.2242727e-03,-1.4273994e-03,1.7589479e-01,4.4659464e-01,-3.0411810e-01
2.8398955e+00,-2.6486941e-02,5.1643422e-03,4.4550342e-04,-5.2630081e-02,7.3884112e-02,-5.1369655e-02,-1.9688347e-02,2.6087783e-03,1.3533593e-04,-9.1807196e-02,-5.6154998e-01,1.5627368e-01
2.8498955e+00,-2.7568162e-02,5.5592623e-03,4.7214081e-04,-1.0892049e-01,3.7260043e-02,-1.0811322e-01,-2.0510912e-02,5.7040306e-05,-1.0215652e-04,-8.2256622e-02,-2.5517404e-01,-2.3749267e-02
2.8598955e+00,-2.8486958e-02,5.2723967e-03,5.0147064e-04,-9.1291091e-02,-3.0717177e-02,-9.1809847e-02,-2.0235147e-02,1.9315405e-03,-1.1646446e-04,2.7576529e-02,1.8745020e-01,-1.4307958e-03
2.8698955e+00,-2.9428996e-02,5.2924766e-03,5.1239638e-04,-9.4252960e-02,-3.3111689e-04,-9.4175635e-02,-2.0821276e-02,4.0071057e-03,-2.9383702e-04,-5.8612935e-02,2.0755672e-01,-1.7737273e-02
2.8798954e+00,-3.0075496e-02,5.6916301e-03,6.0818068e-04,-6.5477533e-02,3.8308345e-02,-6.4789298e-02,-2.2013967e-02,2.6920804e-03,5.4824986e-04,-1.1926919e-01,-1.3150265e-01,8.4208769e-02
2.8898954e+00,-3.0981862e-02,6.4636341e-03,7.8625574e-04,-9.2328708e-02,7.5131847e-02,-9.0667222e-02,-2.3073669e-02,-4.7482241e-04,7.1677536e-04,-1.0597032e-01,-3.1669059e-01,1.6852566e-02
2.8998954e+00,-3.2607873e-02,6.1645221e-03,5.4610084e-04,-1.6214199e-01,-3.4199184e-02,-1.6221417e-01,-2.3256888e-02,3.1724453e-03,-1.7249854e-03,-1.8321913e-02,3.6472711e-01,-2.4417631e-01
2.9098954e+00,-3.3566000e-02,6.2143087e-03,5.4628684e-04,-9.6101559e-02,2.3197546e-03,-9.5624736e-02,-2.3916606e-02,3.8295948e-03,-2.0590112e-03,-6.5971796e-02,6.5715020e-02,-3.3402615e-02
2.9198954e+00,-3.4271359e-02,7.1473830e-03,7.6057138e-04,-7.2969330e-02,9.1520014e-02,-7.0402411e-02,-2.5673204e-02,-7.6559062e-04,-8.7057235e-04,-1.7565999e-01,-4.5951898e-01,1.1884400e-01
2.9298956e+00,-3.5003318e-02,7.0262481e-03,8.8450060e-04,-7.2893405e-02,-1.4077271e-02,-7.3142925e-02,-2.5329284e-02,1.5609533e-03,-4.0298947e-04,3.4391166e-02,2.3264907e-01,4.6757218e-02
2.9398794e+00,-3.5824144e-02,7.6285983e-03,1.0261752e-03,-8.3757374e-02,5.8044258e-02,-8.2307652e-02,-2.6987468e-02,5.8485437e-04,6.8910613e-04,-1.6608784e-01,-9.7768496e-02,1.0938701e-01
2.9498794e+00,-3.6719665e-02,7.9835402e-03,1.0390568e-03,-9.0424909e-02,3.2861802e-02,-8.9679894e-02,-2.8433556e-02,8.0448892e-04,1.1184773e-03,-1.4460893e-01,2.1963476e-02,4.2937156e-02
2.9598794e+00,-3.7969799e-02,8.5281147e-03,9.5912177e-04,-1.2643678e-01,5.0792809e-02,-1.2512478e-01,-2.9698774e-02,-5.7160211e-04,1.1088191e-03,-1.2652187e-01,-1.3760923e-01,-9.6581994e-04
2.9698794e+00,-3.9996829e-02,8.1998283e-03,5.6199307e-04,-2.0207850e-01,-3.9961390e-02,-2.0204511e-01,-3.0481358e-02,4.7999209e-03,-2.3214214e-03,-7.8258507e-02,5.3715282e-01,-3.4302438e-01
2.9798794e+00,-4.1254818e-02,8.5978637e-03,8.5613624e-04,-1.2719967e-01,3.5666912e-02,-1.2563146e-01,-3.0842234e-02,1.8983695e-03,-1.8536215e-03,-3.6087615e-02,-2.9015542e-01,4.6780042e-02
2.9898794e+00,-4.2434900e-02,8.7296337e-03,7.6666906e-04,-1.1869406e-01,9.1328926e-03,-1.1770236e-01,-3.1348440e-02,2.8794303e-03,-2.8068424e-03,-5.0620645e-02,9.8106165e-02,-9.5322182e-02
2.9998794e+00,-4.3445571e-02,8.8208751e-03,6.8945898e-04,-1.0158081e-01,5.3202407e-03,-1.0082378e-01,-3.2487168e-02,5.1213449e-03,-2.6809906e-03,-1.1387287e-01,2.2419168e-01,1.2585186e-02
3.0098794e+00,-4.4163190e-02,9.2548130e-03,7.8454868e-04,-7.3237160e-02,4.0757537e-02,-7.1817387e-02,-3.2570896e-02,3.8519883e-03,-1.3957277e-03,-8.3728440e-03,-1.2693578e-01,1.2852642e-01
3.0198793e+00,-4.5298336e-02,9.4488635e-03,6.9415950e-04,-1.1442361e-01,1.4893810e-02,-1.1328340e-01,-3.4171983e-02,5.4896838e-03,-2.7544186e-03,-1.6010890e-01,1.6376970e-01,-1.3586922e-01
3.0298793e+00,-4.6104930e-02,1.0277045e-02,9.8416021e-04,-8.3662059e-02,7.9904111e-02,-8.0540408e-02,-3.5483815e-02,5.9822380e-06,-1.4300092e-03,-1.3118333e-01,-5.4837067e-01,1.3244107e-01
3.0398793e+00,-4.7725066e-02,9.5413183e-03,6.9292483e-04,-1.5960889e-01,-8.0529474e-02,-1.6108957e-01,-3.5354609e-02,7.9053491e-03,-1.8348207e-03,1.2920666e-02,7.8993744e-01,-4.0481190e-02
3.0498762e+00,-4.9072821e-02,9.5904577e-03,5.5834433e-04,-1.3526506e-01,-1.3684464e-03,-1.3445133e-01,-3.6224247e-02,1.0398128e-02,-2.6589860e-03,-8.6990877e-02,2.4935546e-01,-8.2442159e-02
3.0598762e+00,-4.9707686e-02,1.1662276e-02,1.3492648e-03,-7.1869457e-02,2.0439928e-01,-6.3570428e-02,-4.0492811e-02,6.7553905e-04,-7.5439317e-04,-4.2685675e-01,-9.7225987e-01,1.9045946e-01
3.0698762e+00,-5.1404303e-02,1.2179794e-02,1.2788792e-03,-1.7182624e-01,4.5264224e-02,-1.6933819e-01,-4.0752560e-02,-2.7602874e-03,-1.1608317e-03,-2.5975003e-02,-3.4358297e-01,-4.0643888e-02
3.0798762e+00,-5.3160285e-02,1.1520409e-02,9.8066088e-04,-1.7307878e-01,-7.3396023e-02,-1.7514070e-01,-4.0128020e-02,2.6590664e-03,-1.5216826e-03,6.2454146e-02,5.4193590e-01,-3.6085126e-02
3.0898762e+00,-5.4912359e-02,1.1563452e-02,1.0265052e-03,-1.7556900e-01,-3.7820277e-03,-1.7485747e-01,-4.0772781e-02,5.3818507e-03,-1.8943427e-03,-6.4476239e-02,2.7227869e-01,-3.7266051e-02
3.0998762e+00,-5.6517191e-02,1.1846904e-02,9.6270521e-04,-1.6179962e-01,2.0663647e-02,-1.6033452e-01,-4.1302498e-02,6.4323023e-03,-1.7633417e-03,-5.2971726e-02,1.0504526e-01,1.3100110e-02
3.1098762e+00,-5.8250228e-02,1.2575897e-02,1.0976058e-03,-1.7665895e-01,6.4670918e-02,-1.7318206e-01,-4.3452570e-02,3.6488188e-03,-2.0335044e-03,-2.1500739e-01,-2.7834861e-01,-2.7016288e-02
3.1198761e+00,-6.0096979e-02,1.3554474e-02,1.0313045e-03,-1.8950675e-01,8.8883988e-02,-1.8431750e-01,-4.5911299e-02,2.1443838e-03,-2.9003153e-03,-2.4587312e-01,-1.5044365e-01,-8.6681176e-02
3.1298761e+00,-6.1932395e-02,1.3431216e-02,1.1038027e-03,-1.8335875e-01,-2.1719052e-02,-1.8285226e-01,-4.6078096e-02,5.2048349e-03,-3.1624736e-03,-1.6679732e-02,3.0604540e-01,-2.6215859e-02
3.1398761e+00,-6.3672409e-02,1.4179447e-02,1.3651368e-03,-1.7764823e-01,6.5829254e-02,-1.7395171e-01,-4.8144885e-02,3.0668634e-03,-1.4225717e-03,-2.0667915e-01,-2.1379735e-01,1.7399036e-01
3.1498761e+00,-6.4932442e-02,1.5084489e-02,1.5527622e-03,-1.3041678e-01,8.3859634e-02,-1.2611007e-01,-5.0448940e-02,1.3918317e-03,-7.7826956e-05,-2.3040569e-01,-1.6750333e-01,1.3447460e-01
