time, x, y, z, vx, vy, vz, yaw, pitch, roll, yaw_rate, pitch_rate, roll_rate
0.0000000e+00,0.0000000e+00,0.0000000e+00,0.0000000e+00,0.0000000e+00,0.0000000e+00,0.0000000e+00,0.0000000e+00,0.0000000e+00,0.0000000e+00,0.0000000e+00,0.0000000e+00,0.0000000e+00
9.9999905e-03,-1.7754353e-05,3.4179500e-05,-3.6584257e-06,-1.7763390e-03,3.4171250e-03,-1.7761287e-03,-1.2623540e-04,3.4019276e-04,-2.6510626e-04,-1.2623552e-02,3.4019309e-02,-2.6510651e-02
1.9999981e-02,-7.3230334e-05,2.1894370e-05,-2.9896305e-05,-5.5492472e-03,-1.2278309e-03,-5.5461105e-03,3.8716711e-04,2.6408588e-04,-2.1065735e-04,5.1340300e-02,-7.6106954e-03,5.4448964e-03
2.9999971e-02,-5.4888912e-05,3.4653942e-05,-3.9098167e-05,1.8351188e-03,1.2756913e-03,1.8333545e-03,3.1956957e-04,1.7404648e-04,-3.0929429e-04,-6.7597602e-03,-9.0039491e-03,-9.8637039e-03
3.9999962e-02,-1.6320287e-05,5.0095607e-06,2.7442880e-05,3.8575476e-03,-2.9636785e-03,3.8567706e-03,9.6485122e-05,2.9422699e-04,-2.5088576e-04,-2.2308466e-02,1.2018063e-02,5.8408589e-03
4.9999952e-02,-3.3920162e-05,1.6765501e-05,-2.7869375e-05,-1.7600398e-03,1.1751505e-03,-1.7602356e-03,1.3344135e-04,3.8607157e-04,-1.1788052e-04,3.6956266e-03,9.1844660e-03,1.3300537e-02
5.9999943e-02,-8.3062718e-05,-4.3130180e-05,-2.0736617e-05,-4.9181558e-03,-5.9916016e-03,-4.9078871e-03,1.4183687e-04,5.5502803e-04,-6.2002197e-04,8.3955219e-04,1.6895663e-02,-5.0214194e-02
6.9999933e-02,-1.3011471e-04,-1.3357048e-04,-5.0850398e-05,-4.7122949e-03,-9.0463154e-03,-4.6937165e-03,3.6936469e-04,8.5479116e-04,-7.9746982e-04,2.2752804e-02,2.9976342e-02,-1.7744801e-02
7.9994440e-02,-9.9761138e-05,-1.0187369e-04,-3.6801792e-05,3.0395453e-03,3.1733352e-03,3.0325025e-03,1.3528659e-04,7.6628870e-04,-6.8860728e-04,-2.3420675e-02,-8.8551099e-03,1.0892237e-02
8.9994431e-02,-5.1231818e-05,1.6581876e-05,-4.6947483e-05,4.8547561e-03,1.1841915e-02,4.8600268e-03,2.5252348e-04,-4.9968886e-04,2.4142474e-04,1.1723701e-02,-1.2659788e-01,9.3003291e-02
9.9994659e-02,-2.7061106e-05,-1.2984569e-04,1.5891607e-05,2.4095492e-03,-1.4642312e-02,2.4251198e-03,4.1976833e-04,4.6357950e-04,5.4597013e-04,1.6724102e-02,9.6324632e-02,3.0453842e-02
1.0999465e-01,-6.6110589e-05,-1.6168562e-04,1.8763417e-05,-3.9046114e-03,-3.1843878e-03,-3.9049733e-03,5.2195000e-04,6.2215053e-04,5.1254001e-04,1.0218177e-02,1.5857118e-02,-3.3430150e-03
1.1999464e-01,-1.5530320e-04,-5.3325296e-05,-4.5321738e-05,-8.9154624e-03,1.0839762e-02,-8.9185578e-03,4.6196310e-04,4.4874054e-05,-1.3445568e-04,-5.9986958e-03,-5.7727703e-02,-6.4699631e-02
1.2999463e-01,-1.3276699e-04,-2.7027571e-05,-1.6846242e-05,2.2546263e-03,2.6289267e-03,2.2536100e-03,3.2670582e-04,-4.9642438e-05,-6.3847046e-05,-1.3525741e-02,-9.4516582e-03,7.0608700e-03
1.3999462e-01,-1.1437036e-04,-1.1203554e-05,-3.4447044e-05,1.8401939e-03,1.5822546e-03,1.8392627e-03,1.9788481e-04,1.1711021e-04,-1.1763911e-04,-1.2882113e-02,1.6675281e-02,-5.3792118e-03
1.4999461e-01,-8.9603868e-05,-1.2325889e-04,3.6339085e-05,2.4708249e-03,-1.1203994e-02,2.4894522e-03,5.1005884e-04,1.1324091e-03,4.4959000e-05,3.1217433e-02,1.0152999e-01,1.6259827e-02
1.5999460e-01,-9.2996886e-05,-1.9186572e-04,1.8099287e-05,-3.4193007e-04,-6.8611884e-03,-3.2632875e-04,3.6344623e-04,1.8711572e-03,-3.9651991e-04,-1.4661275e-02,7.3874871e-02,-4.4147933e-02
1.6999459e-01,-4.3364510e-05,3.2749379e-05,-1.5851914e-05,4.9629940e-03,2.2465258e-02,4.9465962e-03,-1.0703447e-04,6.4506010e-04,-4.3445948e-04,-4.7048115e-02,-1.2260982e-01,-3.7939605e-03
1.7999458e-01,-8.8896859e-06,1.2482910e-04,3.4594702e-05,3.4473997e-03,9.2074782e-03,3.4489147e-03,7.7344512e-07,-1.4508118e-04,2.7000268e-05,1.0780802e-02,-7.9014202e-02,4.6146018e-02
1.8999457e-01,-1.1060236e-05,1.0176305e-04,4.2052246e-05,-2.1708686e-04,-2.3065535e-03,-2.1759130e-04,2.3623564e-05,-2.2250689e-04,1.0525185e-04,2.2850140e-03,-7.7425792e-03,7.8251661e-03
1.9999456e-01,-4.2054451e-05,7.6665888e-05,-4.4389947e-06,-3.0999085e-03,-2.5074558e-03,-3.1007718e-03,4.4021093e-04,-2.8983183e-04,2.0015328e-04,4.1658776e-02,-6.7325003e-03,9.4901514e-03
2.0999455e-01,-1.0370992e-04,-1.1921133e-04,-7.3854591e-05,-6.1741872e-03,-1.9594390e-02,-6.1357133e-03,1.6641653e-04,1.2484272e-03,-8.7210832e-04,-2.7379466e-02,1.5382605e-01,-1.0722626e-01
2.1999454e-01,-3.5491480e-05,-6.1064668e-05,-7.3865046e-05,6.8252658e-03,5.8225965e-03,6.8116680e-03,-1.5905152e-04,1.0036365e-03,-6.3640527e-04,-3.2546836e-02,-2.4479093e-02,2.3570327e-02
2.2999454e-01,-4.8619152e-05,1.9677125e-05,-5.9986129e-05,-1.3128519e-03,8.0741412e-03,-1.3129667e-03,5.4502560e-06,4.0348180e-05,-9.7119714e-05,1.6450193e-02,-9.6328928e-02,5.3928607e-02
2.3999453e-01,-6.3976946e-05,-1.3273018e-05,-6.0493837e-05,-1.5358408e-03,-3.2952464e-03,-1.5352297e-03,-1.3387116e-05,1.3572750e-04,-6.7699061e-05,-1.8837390e-03,9.5379408e-03,2.9420680e-03
2.4999452e-01,-6.2349484e-05,-2.3268940e-05,-6.0031435e-05,1.6272235e-04,-9.9958904e-04,1.6279532e-04,3.8558694e-05,6.3533178e-05,-8.9355648e-05,5.1945860e-03,-7.2194388e-03,-2.1656607e-03
2.5999451e-01,-1.1072099e-04,-6.1292332e-05,-5.9087844e-05,-4.8391957e-03,-3.8015487e-03,-4.8357389e-03,3.2215865e-04,1.5806248e-04,-1.6859710e-04,2.8360023e-02,9.4529392e-03,-7.9241524e-03
2.6999450e-01,-1.0391835e-04,-3.2120706e-06,-3.8621764e-05,6.8183569e-04,5.8077492e-03,6.8110355e-04,2.5686752e-04,-1.5800267e-04,-1.1594296e-04,-6.5291193e-03,-3.1606545e-02,5.2654183e-03
2.7999449e-01,-6.3637685e-05,-7.6410133e-05,4.1336167e-05,4.0241348e-03,-7.3182490e-03,4.0348405e-03,2.3567304e-04,6.2326009e-04,5.4858153e-04,-2.1194506e-03,7.8126350e-02,6.6452512e-02
2.8999448e-01,-2.8511080e-04,-3.0313800e-06,-4.2198667e-04,-2.2158643e-02,7.3391003e-03,-2.2135612e-02,6.8022628e-04,6.2554777e-04,-7.3656364e-04,4.4455367e-02,2.2876816e-04,-1.2851464e-01
2.9999447e-01,-9.7536529e-05,6.7756077e-05,-1.9314650e-05,1.8756747e-02,7.0746077e-03,1.8759706e-02,1.1950548e-04,-1.0144906e-04,8.2282055e-05,-5.6072134e-02,-7.2699752e-02,8.1884647e-02
3.0999446e-01,-6.8014872e-05,9.2257402e-05,-2.0275821e-05,2.9514603e-03,2.4484462e-03,2.9542770e-03,1.5170473e-04,-4.2004608e-04,3.6576176e-04,3.2199281e-03,-3.1859733e-02,2.8347997e-02
3.1999445e-01,-5.1393987e-05,7.3516414e-05,-3.9537786e-05,1.6621674e-03,-1.8740793e-03,1.6620366e-03,-1.1185007e-04,-9.9116395e-05,7.9596043e-05,-2.6355505e-02,3.2092999e-02,-2.8616599e-02
3.2999444e-01,-1.2616552e-05,5.7457738e-05,-3.5233424e-05,3.8791030e-03,-1.6039591e-03,3.8771816e-03,-3.0400366e-04,1.8857495e-04,-2.2380975e-04,-1.9215377e-02,2.8769162e-02,-3.0340609e-02
3.3999443e-01,-7.4045513e-05,2.1840617e-05,-5.7813599e-05,-6.1456516e-03,-3.5638232e-03,-6.1389281e-03,2.1724866e-04,5.6063766e-04,-3.2171455e-04,5.2125282e-02,3.7206306e-02,-9.7904887e-03
3.4999466e-01,-6.3235858e-05,-2.4548014e-06,-6.7960585e-05,1.0804969e-03,-2.4293161e-03,1.0817668e-03,3.3702486e-04,4.9426465e-04,-3.4699971e-04,1.1977346e-02,-6.6371484e-03,-2.5284580e-03
3.5999465e-01,-8.2892018e-05,-8.6172677e-05,-6.6713810e-05,-1.9665231e-03,-8.3737319e-03,-1.9564429e-03,-1.7752615e-05,9.6988898e-04,-5.3629911e-04,-3.5477782e-02,4.7562478e-02,-1.8929958e-02
3.6999464e-01,-2.6833037e-05,-2.8844782e-05,-4.2691853e-05,5.6056925e-03,5.7374159e-03,5.6013851e-03,-2.7892561e-04,5.4570355e-04,-2.4767408e-04,-2.6117325e-02,-4.2418584e-02,2.8862530e-02
3.7999463e-01,-2.4966764e-05,4.7765853e-05,-2.6761579e-05,1.8631747e-04,7.6610887e-03,1.8620289e-04,-4.1197826e-05,5.4694762e-05,-2.9984939e-05,2.3772801e-02,-4.9100925e-02,2.1768935e-02
3.8999462e-01,-4.1417612e-05,2.1819243e-05,5.3390200e-06,-1.6450731e-03,-2.5960647e-03,-1.6428875e-03,-2.5046921e-04,6.0187038e-04,-3.8708709e-04,-2.0927158e-02,5.4717614e-02,-3.5710249e-02
3.9999461e-01,-7.4782189e-05,-4.0089808e-05,-3.5371759e-05,-3.3380253e-03,-6.1925561e-03,-3.3318401e-03,8.8154855e-05,5.8170900e-04,-3.0533913e-04,3.3862438e-02,-2.0161395e-03,8.1748035e-03
4.0999460e-01,-9.8228986e-05,-1.8124845e-05,-5.9320975e-05,-2.3445559e-03,2.1969137e-03,-2.3444190e-03,2.3266071e-04,5.5564234e-05,-1.6422049e-04,1.4450599e-02,-5.2614527e-02,1.4111878e-02
4.1999459e-01,-2.7019962e-05,6.1631587e-05,-7.5753685e-05,7.1192861e-03,7.9755852e-03,7.1226054e-03,-1.1986836e-04,-1.2904380e-04,9.3668154e-05,-3.5252940e-02,-1.8460821e-02,2.5788889e-02
4.2999458e-01,-3.2819492e-05,7.9339626e-05,-4.8003398e-05,-5.8015211e-04,1.7708492e-03,-5.7962180e-04,-1.1966042e-04,-1.9493199e-04,2.3074424e-05,2.0793897e-05,-6.5888248e-03,-7.0593797e-03
4.3999457e-01,-3.7957638e-05,-1.2469637e-04,4.3975251e-05,-5.0991960e-04,-2.0404486e-02,-4.8230889e-04,-1.9315498e-04,1.5418915e-03,-8.8760179e-05,-7.3494634e-03,1.7368251e-01,-1.1183471e-02
4.4999456e-01,-1.4302039e-04,-4.4833451e-05,-3.4484329e-05,-1.0505351e-02,7.9869133e-03,-1.0506753e-02,3.1429377e-04,2.5584232e-04,-1.5002622e-04,5.0744923e-02,-1.2860504e-01,-6.1266102e-03
4.5999455e-01,-9.8504336e-05,6.8363747e-06,-4.9174841e-05,4.4513770e-03,5.1675438e-03,4.4511968e-03,-2.3734213e-06,1.2259694e-04,4.9535545e-05,-3.1666749e-02,-1.3324550e-02,1.9956196e-02
4.6999454e-01,-4.3772136e-05,-1.4933725e-04,5.0036905e-05,5.4669882e-03,-1.5611892e-02,5.4950637e-03,3.0061609e-04,1.2998789e-03,2.8169271e-04,3.0298980e-02,1.1772831e-01,2.3215739e-02
4.7999454e-01,4.7690945e-06,-1.3132705e-04,8.4121555e-05,4.8535912e-03,1.8083361e-03,4.8519441e-03,-3.5539575e-05,1.4716641e-03,9.7326420e-05,-3.3615599e-02,1.7178541e-02,-1.8436647e-02
4.8999453e-01,-6.3017474e-05,-6.6414373e-05,-2.9404913e-05,-6.7811883e-03,6.4851554e-03,-6.7819933e-03,-7.1645314e-06,8.9539141e-04,-3.6570215e-04,2.8375071e-03,-5.7627328e-02,-4.6302902e-02
4.9999452e-01,-1.2118735e-04,-7.5094923e-06,3.4514242e-06,-5.8163599e-03,5.8909379e-03,-5.8171755e-03,3.8184985e-04,3.0544286e-04,-2.7800996e-04,3.8901475e-02,-5.8994911e-02,8.7692273e-03
5.0999451e-01,-5.0122177e-05,-2.1851142e-05,-2.8565672e-05,7.1102947e-03,-1.4274458e-03,7.1041042e-03,-1.7096798e-04,7.7503403e-04,-4.9628741e-04,-5.5281836e-02,4.6959161e-02,-2.1827765e-02
5.1999450e-01,-1.2437589e-05,-1.0165275e-05,-5.8445911e-05,3.7703435e-03,1.1726256e-03,3.7653253e-03,-3.0178074e-04,7.7024162e-04,-5.9297644e-04,-1.3081288e-02,-4.7924096e-04,-9.6689126e-03
5.2999449e-01,3.3820965e-05,-1.4305242e-04,1.3471805e-05,4.6283417e-03,-1.3279790e-02,4.6489840e-03,-1.4448031e-04,1.7830943e-03,-1.2149922e-04,1.5730058e-02,1.0128536e-01,4.7147767e-02
5.3999448e-01,-1.2976287e-05,3.3084553e-05,-5.3366834e-05,-4.6865925e-03,1.7609084e-02,-4.6902728e-03,-2.9062490e-04,6.9786491e-04,-3.7276786e-04,-1.4614473e-02,-1.0852304e-01,-2.5126888e-02
5.4999447e-01,-4.8286461e-05,6.9358397e-06,-5.4028243e-05,-3.5326380e-03,-2.6180941e-03,-3.5270149e-03,-7.4800155e-05,8.3788243e-04,-5.1350197e-04,2.1582495e-02,1.4001765e-02,-1.4073425e-02
5.5999446e-01,-9.6939124e-06,4.7982364e-05,-1.3130940e-05,3.8594853e-03,4.1080106e-03,3.8554610e-03,-3.0535082e-04,5.6423040e-04,-3.8363588e-04,-2.3055088e-02,-2.7365228e-02,1.2986621e-02
5.6999445e-01,-1.3456233e-05,1.1994471e-05,-6.5440825e-05,-3.7452086e-04,-3.5991391e-03,-3.7462348e-04,-5.0826520e-04,4.1451072e-04,-3.1269160e-04,-2.0291457e-02,-1.4971982e-02,7.0944353e-03
5.7999444e-01,-4.5018998e-05,8.8229393e-06,-7.1113658e-05,-3.1564422e-03,-3.1683499e-04,-3.1561488e-03,5.6696552e-05,-4.4202514e-05,-4.5840768e-05,5.6496229e-02,-4.5871367e-02,2.6685108e-02
5.8999443e-01,-4.4511609e-05,9.3402674e-05,-4.1963612e-05,5.2460933e-05,8.4579270e-03,5.7609099e-05,2.0735519e-04,-8.0838914e-04,6.2631845e-04,1.5065879e-02,-7.6418736e-02,6.7215986e-02
5.9999466e-01,-1.0463128e-04,-4.0545164e-04,-8.6965372e-05,-6.0344912e-03,-4.9905011e-02,-5.8138940e-03,4.7491764e-04,3.9878563e-03,1.7102108e-04,2.6755632e-02,4.7961357e-01,-4.5528694e-02
6.0999465e-01,-5.9190443e-05,-1.1358379e-04,4.0346113e-05,4.5487355e-03,2.9188479e-02,4.5287121e-03,2.5437035e-04,6.2201209e-04,6.1078442e-04,-2.2054751e-02,-3.3658474e-01,4.3976376e-02
6.1999464e-01,-8.3593821e-05,2.5502840e-04,-1.7831818e-04,-2.4506333e-03,3.6865812e-02,-2.3598414e-03,-2.6228616e-04,-2.1666869e-03,-2.5616311e-04,-5.1665700e-02,-2.7887017e-01,-8.6694836e-02
6.2999463e-01,-7.6365465e-05,-4.2385222e-05,-1.3750152e-05,7.2929007e-04,-2.9740691e-02,7.4477321e-04,-2.0629567e-04,7.4839372e-04,-4.4035356e-04,5.5990545e-03,2.9150834e-01,-1.8419062e-02
6.3999462e-01,-5.1562147e-05,-4.0588009e-05,-2.5426679e-05,2.4818901e-03,1.8154958e-04,2.4786439e-03,6.1590649e-05,7.9912254e-04,-6.2305697e-04,2.6788658e-02,5.0728875e-03,-1.8270359e-02
6.4999461e-01,-3.2795179e-05,3.5075664e-05,-3.8090562e-05,1.8787567e-03,7.5668016e-03,1.8729136e-03,2.0436816e-04,4.3253327e-04,-2.7272894e-04,1.4277765e-02,-3.6658962e-02,3.5032836e-02
6.5999460e-01,-2.6347707e-05,7.5744662e-05,-5.3521513e-05,6.4466370e-04,4.0671885e-03,6.4303279e-04,-5.3346457e-05,3.8903229e-04,-2.0603594e-04,-2.5771486e-02,-4.3501016e-03,6.6693060e-03
6.6999459e-01,1.1104317e-05,8.1087987e-05,-7.1278475e-05,3.7453565e-03,5.3459259e-04,3.7450184e-03,-1.0615824e-04,-3.6873084e-05,-5.5349507e-05,-5.2811838e-03,-4.2590578e-02,1.5068658e-02
6.7999077e-01,4.4335753e-06,-3.1321556e-05,-8.8762635e-05,-6.6462380e-04,-1.1246108e-02,-6.5554566e-04,-2.7407702e-04,1.0144870e-03,-5.6439816e-04,-1.6798301e-02,1.0517623e-01,-5.0924340e-02
6.8999076e-01,4.7962844e-05,1.1427256e-05,-6.2564407e-05,4.3545378e-03,4.2789644e-03,4.3473124e-03,-1.4511792e-04,7.9270995e-04,-5.1178304e-04,1.2895922e-02,-2.2177725e-02,5.2615172e-03
6.9999075e-01,-2.7739475e-05,1.1779308e-05,-3.7532654e-05,-7.5744182e-03,2.8523811e-05,-7.5660857e-03,-1.1028796e-04,7.7273473e-04,-5.5169761e-04,3.4829994e-03,-1.9975232e-03,-3.9914603e-03
7.0999074e-01,1.0081763e-05,-5.0669143e-05,3.1949378e-05,3.7803198e-03,-6.2423658e-03,3.7880326e-03,1.0472008e-04,7.6110962e-04,3.0495374e-04,2.1500824e-02,-1.1625129e-03,8.5665216e-02
7.1999073e-01,1.2158598e-05,-6.9929212e-05,3.1572581e-05,2.0725066e-04,-1.9259321e-03,2.0882450e-04,1.5821689e-04,5.2578927e-04,6.1786751e-04,5.3496861e-03,-2.3532057e-02,3.1291408e-02
7.2999072e-01,-5.7360129e-05,-1.8699751e-04,3.5502546e-05,-6.9532107e-03,-1.1716399e-02,-6.9344240e-03,4.8769654e-05,1.4255085e-03,-1.0939627e-04,-1.0944734e-02,8.9972009e-02,-7.2726448e-02
7.3999071e-01,-1.5385660e-04,-1.1897219e-05,-1.3284506e-04,-9.6628994e-03,1.7505082e-02,-9.6454100e-03,-1.9371850e-04,3.2089841e-04,-1.0213824e-03,-2.4248839e-02,-1.1046111e-01,-9.1198702e-02
7.4999070e-01,-1.2386314e-04,9.8624033e-05,-1.2176140e-04,2.9999732e-03,1.1049477e-02,3.0085083e-03,-4.5611004e-05,-9.3089016e-04,-3.7613996e-04,1.4810764e-02,-1.2517898e-01,6.4524308e-02
7.5999069e-01,-9.6706672e-05,1.2160606e-04,-1.3463719e-04,2.7153543e-03,2.2972632e-03,2.7167403e-03,-3.6121015e-04,-7.0766101e-04,-1.9715647e-04,-3.1559945e-02,2.2322936e-02,1.7898365e-02
7.6999068e-01,-6.4736084e-05,4.7864033e-05,-4.0144428e-05,3.1974989e-03,-7.3742294e-03,3.1965782e-03,-9.3835969e-05,-1.0014293e-04,7.9708919e-05,2.6737444e-02,6.0751866e-02,2.7686566e-02
7.7999067e-01,-1.1139383e-04,-1.2892701e-04,-5.6795097e-05,-4.6688836e-03,-1.7684881e-02,-4.6407766e-03,-2.6052681e-05,1.2121933e-03,-7.6448612e-04,6.7783353e-03,1.3123375e-01,-8.4419584e-02
7.8999066e-01,-1.1895422e-04,-1.1471207e-04,-9.2959594e-05,-7.5606443e-04,1.4209572e-03,-7.5702668e-04,2.8140104e-04,9.9313043e-04,-5.6186727e-04,3.0745401e-02,-2.1906310e-02,2.0261904e-02
7.9999065e-01,-1.8621696e-05,1.3495733e-06,-5.9741881e-05,1.0032171e-02,1.1618923e-02,1.0019589e-02,-3.5730533e-04,9.1410036e-04,-3.0468864e-04,-6.3870698e-02,-7.9030146e-03,2.5717888e-02
8.0999064e-01,8.2983771e-06,5.9245096e-05,-3.4822398e-05,2.6910115e-03,5.7911112e-03,2.6896659e-03,-1.6654098e-04,4.1069147e-04,1.2692285e-05,1.9076453e-02,-5.0340937e-02,3.1738123e-02
8.1999063e-01,-4.7181534e-06,6.3826194e-05,4.8775203e-06,-1.3016434e-03,4.5785718e-04,-1.3017543e-03,-7.3684072e-06,1.8703686e-04,1.0990671e-05,1.5917272e-02,-2.2365483e-02,-1.7016156e-04
8.2999063e-01,-3.0880477e-05,1.0670840e-05,-3.3907554e-05,-2.6168374e-03,-5.3175828e-03,-2.6114776e-03,-1.2825795e-04,6.5314922e-04,-4.9101926e-04,-1.2088966e-02,4.6611280e-02,-5.0201041e-02
8.3999062e-01,-1.1183763e-04,-4.2527873e-05,-3.9939596e-05,-8.1016326e-03,-5.3219862e-03,-8.0884210e-03,3.5993488e-04,6.2101352e-04,-4.9365443e-04,4.8819330e-02,-3.2135722e-03,-2.6351663e-04
8.4999084e-01,-3.5203395e-05,-2.2317449e-05,-5.7488159e-05,7.6662593e-03,2.0301392e-03,7.6578172e-03,-2.5111717e-04,9.4253489e-04,-4.5933515e-04,-6.1103806e-02,3.2151400e-02,3.4318488e-03
8.5999084e-01,2.0020433e-05,9.3443008e-06,3.1813980e-05,5.5225622e-03,3.1701537e-03,5.5199325e-03,-1.6915615e-04,5.5093703e-04,-1.2853834e-04,8.1961101e-03,-3.9159823e-02,3.3079712e-02
8.6999083e-01,-1.5709775e-05,1.1004020e-05,6.1958558e-06,-3.5740162e-03,1.6328810e-04,-3.5721556e-03,-2.3440933e-04,5.1690525e-04,-2.6680603e-04,-6.5253242e-03,-3.4031814e-03,-1.3826782e-02
8.7999082e-01,-4.8288343e-05,-1.1314498e-05,-4.9046255e-05,-3.2584738e-03,-2.2351259e-03,-3.2550015e-03,-3.1667062e-04,6.8811593e-04,-4.0551963e-04,-8.2261376e-03,1.7121084e-02,-1.3871373e-02
8.8999081e-01,-4.6830128e-05,3.5396059e-05,-7.4946890e-05,1.4576266e-04,4.6710375e-03,1.4660723e-04,-1.3758502e-05,-1.6930740e-04,-3.6150315e-05,3.0291241e-02,-8.5742414e-02,3.6936967e-02
8.9999080e-01,-4.0095869e-05,4.9925989e-05,-8.1544500e-05,6.7325676e-04,1.4528023e-03,6.7401046e-04,1.7802965e-07,-2.8482679e-04,2.5254088e-04,1.3936545e-03,-1.1551951e-02,2.8869147e-02
9.0999079e-01,-1.3210458e-05,8.3943520e-05,-7.3461021e-05,2.6876547e-03,3.4010952e-03,2.6902682e-03,-7.3855116e-05,-3.1960200e-04,2.3714032e-04,-7.4033216e-03,-3.4775236e-03,-1.5400575e-03
9.1999078e-01,-1.4520785e-04,-2.7816571e-04,-2.3622913e-04,-1.3218691e-02,-3.6240942e-02,-1.3098118e-02,6.8850131e-04,2.9714662e-03,4.5360454e-04,7.6235715e-02,3.2910714e-01,2.1646442e-02
9.2999077e-01,-3.0183674e-05,9.2219817e-05,-3.6937432e-05,1.1504091e-02,3.7026083e-02,1.1540962e-02,2.2499483e-04,-8.6042929e-04,5.7975728e-04,-4.6350692e-02,-3.8318992e-01,1.2615286e-02
9.3999076e-01,-6.9666249e-05,-1.1148632e-04,3.9048119e-05,-3.9563637e-03,-2.0372466e-02,-3.9306555e-03,4.2863020e-04,8.9519273e-04,1.5920591e-04,2.0363556e-02,1.7556237e-01,-4.2055177e-02
9.4999075e-01,-1.3692508e-04,-2.8130198e-05,-5.3209346e-05,-6.7272177e-03,8.3325547e-03,-6.7283595e-03,2.2346578e-04,6.7923625e-04,-4.7453447e-04,-2.0516461e-02,-2.1595668e-02,-6.3374098e-02
9.5999074e-01,-8.8670999e-05,2.1225145e-04,-1.5527625e-04,4.8179661e-03,2.4035500e-02,4.8461962e-03,-5.3203222e-04,-1.0865268e-03,-1.1078740e-03,-7.5549873e-02,-1.7657647e-01,-6.3334014e-02
9.6999073e-01,-2.1528450e-05,3.8478672e-05,-2.6792190e-05,6.7224778e-03,-1.7371776e-02,6.7203157e-03,-3.9512524e-04,4.2634137e-04,-2.0121457e-04,1.3690711e-02,1.5128696e-01,9.0666030e-02
9.7999072e-01,-3.8692168e-05,1.1335211e-05,-2.7242549e-05,-1.7167836e-03,-2.7159636e-03,-1.7134059e-03,-1.0174356e-04,8.4002001e-04,-4.0002509e-04,2.9338196e-02,4.1367904e-02,-1.9881071e-02
9.8999071e-01,-1.9939168e-05,5.8599768e-05,-2.2026959e-05,1.8757002e-03,4.7275187e-03,1.8722328e-03,-9.2785192e-05,4.7214487e-04,-4.4638808e-04,8.9583757e-04,-3.6787549e-02,-4.6363035e-03
9.9999070e-01,-1.8467492e-05,-2.1216082e-05,-6.4767888e-05,1.4870230e-04,-7.9814419e-03,1.5365634e-04,-1.8194616e-04,8.2339271e-04,-5.6003052e-04,-8.9161052e-03,3.5124818e-02,-1.1364255e-02
1.0099907e+00,1.6098428e-05,4.9472095e-07,-8.1876330e-05,3.4561388e-03,2.1722714e-03,3.4563049e-03,-1.1718107e-04,2.2680634e-04,5.8482118e-05,6.4765152e-03,-5.9658695e-02,6.1851323e-02
1.0199831e+00,-1.4495017e-05,5.3726608e-05,-9.4252942e-05,-3.0600977e-03,5.3278982e-03,-3.0621548e-03,1.3489992e-04,-7.4165243e-05,2.8314657e-04,2.5227370e-02,-3.0120166e-02,2.2483620e-02
1.0299830e+00,-3.5614419e-05,-2.1634652e-05,-6.3364594e-05,-2.1119275e-03,-7.5385276e-03,-2.1033941e-03,-1.4088208e-04,9.9517051e-04,-4.9587745e-04,-2.7578226e-02,1.0693368e-01,-7.7902477e-02
1.0399830e+00,-2.7423823e-05,-1.9834626e-05,-4.9805512e-05,8.1948881e-04,1.8080216e-04,8.1845557e-04,-2.1609388e-04,7.6044140e-04,-5.7072612e-04,-7.5211875e-03,-2.3472934e-02,-7.4848742e-03
1.0499830e+00,-1.0469921e-05,7.0158420e-05,-6.2314225e-05,1.6941827e-03,8.9990731e-03,1.6978734e-03,-1.3197011e-04,-2.7335645e-04,1.2688346e-05,8.4123854e-03,-1.0337988e-01,5.8341503e-02
1.0599830e+00,-3.3510747e-05,3.4211787e-05,-7.4701360e-05,-2.3040973e-03,-3.5939851e-03,-2.3051354e-03,2.8439258e-05,-2.6733847e-04,3.8924000e-05,1.6040952e-02,6.0179827e-04,2.6235680e-03
1.0699830e+00,-9.6576228e-05,1.3448328e-05,-7.6329800e-05,-6.3074284e-03,-2.0757852e-03,-6.3058651e-03,8.2115784e-05,-7.1042173e-06,-1.1159224e-04,5.3676577e-03,2.6023450e-02,-1.5051638e-02
1.0799830e+00,-1.3011019e-04,1.4865948e-04,-1.0544785e-04,-3.3557019e-03,1.3523968e-02,-3.3396176e-03,-2.6181916e-05,-8.7501605e-04,-5.8114838e-04,-1.0829780e-02,-8.6791266e-02,-4.6955659e-02
1.0899830e+00,-1.3636607e-04,1.4853222e-04,-1.1504645e-04,-6.2578977e-04,-1.2084774e-05,-6.2539990e-04,1.6765938e-05,-1.0084402e-03,-3.2142352e-04,4.2947895e-03,-1.3342428e-02,2.5972511e-02
1.0999832e+00,-1.4830870e-04,-2.6236293e-04,-2.2289727e-04,-1.2180356e-03,-4.1091503e-02,-1.0621402e-03,5.8737473e-04,3.2230753e-03,2.7938840e-04,5.7059573e-02,4.2314186e-01,6.0079817e-02
1.1099832e+00,-7.0886162e-05,-1.5909524e-04,-1.1331475e-04,7.7435803e-03,1.0342009e-02,7.7205815e-03,3.0442164e-04,2.2745617e-03,2.3554927e-04,-2.8295336e-02,-9.4851441e-02,-4.3839175e-03
1.1199832e+00,-7.4165496e-07,5.9713375e-05,-2.0678084e-05,7.0144595e-03,2.1883470e-02,7.0063808e-03,-4.9713325e-05,3.1927928e-04,-1.5539808e-04,-3.5413530e-02,-1.9552843e-01,-3.9094772e-02
1.1299832e+00,2.5025776e-05,-6.1792167e-05,2.6187284e-05,2.5687240e-03,-1.2149506e-02,2.5897197e-03,5.9644647e-04,1.0042580e-03,3.0031938e-04,6.4616041e-02,6.8497941e-02,4.5571789e-02
1.1399832e+00,-7.0328629e-05,5.5142356e-05,-8.1597512e-05,-9.5373008e-03,1.1690339e-02,-9.5374296e-03,1.1894598e-04,4.4668553e-04,-3.4007043e-04,-4.7750094e-02,-5.5757303e-02,-6.4039042e-02
1.1499832e+00,-1.3617116e-05,9.2196419e-06,-6.2053041e-05,5.6743650e-03,-4.5873445e-03,5.6719384e-03,-3.1715116e-04,5.5240243e-04,-3.0901671e-04,-4.3609756e-02,1.0571699e-02,3.1053748e-03
1.1599832e+00,2.0713483e-05,-1.2163220e-05,-2.0908542e-05,3.4338189e-03,-2.1363759e-03,3.4334981e-03,-1.4650919e-04,4.1050667e-04,-1.2887125e-04,1.7064213e-02,-1.4189590e-02,1.8014563e-02
1.1699831e+00,2.1886298e-05,1.5204646e-05,-5.4037359e-06,1.1711508e-04,2.7368638e-03,1.1569521e-04,-7.0239042e-05,5.7022966e-04,-2.1961838e-04,7.6270225e-03,1.5972314e-02,-9.0747219e-03
1.1799831e+00,-2.4636383e-05,5.0409768e-05,-7.2155053e-05,-4.6541071e-03,3.5180320e-03,-4.6523164e-03,2.3411123e-05,5.5736107e-04,-4.1212369e-04,9.3650254e-03,-1.2868599e-03,-1.9250549e-02
1.1899831e+00,-1.0630902e-05,1.8269641e-05,-4.4520888e-05,1.4024117e-03,-3.2122223e-03,1.4027989e-03,-3.8595483e-04,8.9393454e-04,-4.4411940e-04,-4.0936634e-02,3.3657379e-02,-3.1995745e-03
1.1999831e+00,-4.1759428e-05,6.8396663e-05,-4.9442822e-05,-3.1132331e-03,5.0127640e-03,-3.1123862e-03,-7.5552248e-05,-9.3906410e-05,4.0347879e-07,3.1040288e-02,-9.8784190e-02,4.4452330e-02
1.2099831e+00,-2.5612175e-05,8.2210422e-05,-5.7458093e-05,1.6142937e-03,1.3806952e-03,1.6157429e-03,-5.1287805e-05,-4.7351119e-04,2.2432130e-04,2.4264467e-03,-3.7960514e-02,2.2391803e-02
1.2199831e+00,-1.5209695e-05,6.7611133e-05,-7.4763342e-05,1.0401448e-03,-1.4602132e-03,1.0399562e-03,-9.1236176e-05,-3.6315252e-04,2.2822177e-04,-3.9948409e-03,1.1035877e-02,3.9004739e-04
1.2299831e+00,-1.3098497e-04,-6.4895910e-06,-2.7944269e-04,-1.1576790e-02,-7.4156940e-03,-1.1574692e-02,3.4254314e-04,8.2751699e-04,2.8379582e-04,4.3377973e-02,1.1906706e-01,5.5574111e-03
1.2399189e+00,-1.5580044e-04,-2.3476355e-04,-2.3981716e-04,-2.5147311e-03,-2.2979680e-02,-2.4343298e-03,8.1029301e-04,2.8159354e-03,5.8115293e-04,4.7076958e-02,2.0012553e-01,2.9927679e-02
1.2499189e+00,-9.8127053e-05,3.8812440e-05,-3.5788182e-05,5.7711938e-03,2.7356427e-02,5.7691784e-03,1.1651946e-04,-9.1235263e-05,-1.1472335e-04,-6.9377421e-02,-2.9071735e-01,-6.9587695e-02
1.2599189e+00,-8.6383023e-05,-5.2147537e-05,-3.6742617e-05,1.1771944e-03,-9.0946571e-03,1.1820352e-03,-2.3384672e-04,9.1213796e-04,-5.6499518e-04,-3.5036651e-02,1.0033742e-01,-4.5027226e-02
1.2699189e+00,-1.5721047e-05,-9.9082656e-05,5.2195751e-05,7.0622690e-03,-4.6892448e-03,7.0729714e-03,2.2387878e-04,8.2779234e-04,4.0812302e-04,4.5772593e-02,-8.4345692e-03,9.7311913e-02
1.2799189e+00,-6.8575430e-05,-1.5425669e-05,-5.1457915e-05,-5.2881328e-03,8.3612865e-03,-5.2897458e-03,-9.4930294e-05,7.4118473e-04,-3.5865484e-04,-3.1880937e-02,-8.6607696e-03,-7.6677859e-02
1.2899189e+00,-7.0760100e-05,3.0631898e-05,-6.2462701e-05,-2.1773841e-04,4.6056806e-03,-2.2087756e-04,1.7297219e-04,5.3801028e-04,-3.1058086e-04,2.6790274e-02,-2.0317464e-02,4.8074033e-03
1.2999189e+00,-4.6708364e-05,2.1474579e-05,-5.5341591e-05,2.4066297e-03,-9.1387983e-04,2.4044264e-03,-1.2607382e-04,6.4460585e-04,-5.5659602e-04,-2.9904630e-02,1.0659567e-02,-2.4601540e-02
1.3099189e+00,-2.9214548e-05,9.2963408e-06,-7.3506154e-05,1.7505131e-03,-1.2162593e-03,1.7493421e-03,-1.8362925e-04,7.1154081e-04,-5.1822464e-04,-5.7555478e-03,6.6935022e-03,3.8371419e-03
1.3198731e+00,-3.0325116e-05,8.6089187e-05,-4.3451674e-05,-1.1039262e-04,7.7146170e-03,-1.1201703e-04,1.5357336e-04,5.9514402e-05,-8.7773426e-05,3.3875362e-02,-6.5502550e-02,4.3243114e-02
1.3298731e+00,-2.5244580e-05,4.2734324e-06,-7.7880306e-05,5.0969218e-04,-8.1810901e-03,5.1431535e-04,-1.6675691e-04,7.9888869e-04,-5.3902853e-04,-3.2033057e-02,7.3937500e-02,-4.5125554e-02
1.3398731e+00,-3.3958464e-05,1.3712065e-05,-6.7169625e-05,-8.7204095e-04,9.4308091e-04,-8.7158516e-04,-1.6217476e-04,7.3675763e-04,-5.7247744e-04,4.5821454e-04,-6.2131126e-03,-3.3448938e-03
1.3498733e+00,-6.1829255e-05,5.0962014e-05,-5.0058437e-05,-2.7870876e-03,3.7254898e-03,-2.7861676e-03,1.5417012e-04,-5.4003108e-05,-2.3200733e-04,3.1633764e-02,-7.9074264e-02,3.4046231e-02
1.3598733e+00,-6.3604811e-05,9.8156948e-06,-5.7781890e-05,-1.7816898e-04,-4.1146038e-03,-1.7768556e-04,1.4139931e-04,-3.9177177e-05,-1.7657851e-04,-1.2770827e-03,1.4825946e-03,5.5428873e-03
1.3698733e+00,-7.0670338e-05,-1.6825646e-04,1.1564614e-05,-7.1440254e-04,-1.7807632e-02,-6.8836368e-04,4.4177677e-04,1.0224753e-03,2.4901789e-05,3.0037776e-02,1.0616534e-01,2.0148049e-02
1.3798733e+00,-1.1792033e-04,-1.5806665e-04,9.0372856e-06,-4.7238768e-03,1.0169326e-03,-4.7265711e-03,4.9533780e-04,9.2882314e-04,1.3147861e-04,5.3561074e-03,-9.3652207e-03,1.0657692e-02
1.3898733e+00,-1.4212711e-04,1.1616013e-04,-1.3085909e-04,-2.4228196e-03,2.7424782e-02,-2.3948693e-03,-4.9729284e-05,-9.1293186e-04,-3.2018590e-04,-5.4506760e-02,-1.8417568e-01,-4.5166494e-02
1.3998733e+00,-1.2602474e-04,1.0607712e-04,-1.3308280e-04,1.6106786e-03,-1.0097119e-03,1.6089149e-03,-6.5332589e-05,-9.4103324e-04,-2.3235846e-04,-1.5603320e-03,-2.8101402e-03,8.7827524e-03
1.4098732e+00,-9.7399566e-05,2.1547889e-04,-1.1456156e-04,2.8611260e-03,1.0936329e-02,2.8786131e-03,-1.2693451e-04,-1.4706747e-03,2.0007779e-06,-6.1601983e-03,-5.2964198e-02,2.3435946e-02
1.4198732e+00,-1.0932146e-04,5.8109106e-05,-1.2136103e-05,-1.1950112e-03,-1.5736857e-02,-1.1911610e-03,1.7407120e-04,6.0213953e-05,-6.8413202e-05,3.0100601e-02,1.5308901e-01,-7.0414047e-03
1.4298732e+00,-1.2820597e-04,-3.9350422e-05,-5.4589447e-05,-1.8933667e-03,-9.7465623e-03,-1.8804186e-03,4.0825976e-04,7.2827242e-04,-4.9505568e-04,2.3418878e-02,6.6805910e-02,-4.2664289e-02
1.4398732e+00,-1.0667383e-05,3.3228793e-05,-2.7267887e-05,1.1755391e-02,7.2697909e-03,1.1745015e-02,-3.1038894e-04,6.9925972e-04,-3.2118072e-04,-7.1864939e-02,-2.9012724e-03,1.7387513e-02
1.4498732e+00,-1.7980566e-05,-1.0131847e-05,-8.6931400e-05,-7.3067803e-04,-4.3369138e-03,-7.2693193e-04,-2.2388563e-04,9.3565209e-04,-4.5111024e-04,8.6503386e-03,2.3639260e-02,-1.2992964e-02
1.4598732e+00,-5.5458378e-05,4.6843603e-05,-9.0713973e-05,-3.7476705e-03,5.6968514e-03,-3.7489614e-03,1.5142165e-04,3.3791055e-04,-1.9975174e-04,3.7530765e-02,-5.9774211e-02,2.5135874e-02
1.4698732e+00,3.5388160e-05,-9.0082128e-06,-6.7654019e-05,9.0898952e-03,-5.5774435e-03,9.0841855e-03,-1.0104396e-04,7.5152707e-04,-5.1401475e-04,-2.5246585e-02,4.1361691e-02,-3.1426332e-02
1.4798732e+00,-7.1957366e-06,-1.9408072e-05,-6.2356952e-05,-4.2610169e-03,-1.0451068e-03,-4.2545146e-03,-1.8398859e-04,1.0191259e-03,-6.6116082e-04,-8.2944714e-03,2.6759904e-02,-1.4714621e-02
1.4898732e+00,-3.2767567e-06,4.7175712e-05,-5.0175226e-05,3.8926909e-04,6.6588661e-03,3.8630050e-04,-4.2113664e-04,8.1459689e-04,-4.4629239e-04,-2.3714828e-02,-2.0452915e-02,2.1486864e-02
1.4998732e+00,-6.4075475e-05,-1.6656396e-04,4.3768051e-06,-6.0793646e-03,-2.1387607e-02,-6.0323122e-03,-1.3770377e-04,2.1109773e-03,-3.9981561e-04,2.8343314e-02,1.2963817e-01,4.6476821e-03
1.5098732e+00,-7.0128780e-05,-2.1404174e-04,3.6654505e-06,-6.0513578e-04,-4.7491658e-03,-5.9457344e-04,-1.0606460e-04,2.2006154e-03,-5.0925403e-04,3.1639201e-03,8.9638139e-03,-1.0943852e-02
1.5198731e+00,-1.0778337e-04,-1.4495120e-05,-5.0555489e-05,-3.7664699e-03,1.9952594e-02,-3.7755018e-03,5.2417710e-05,6.0601868e-04,-5.4534831e-04,1.5848246e-02,-1.5945982e-01,-3.6094308e-03
1.5298731e+00,-3.6251005e-05,1.5003941e-04,-1.3004831e-05,7.1474931e-03,1.6451444e-02,7.1636416e-03,-2.1071805e-04,-4.9329541e-04,3.1916454e-04,-2.6313601e-02,-1.0993151e-01,8.6451367e-02
1.5398731e+00,-6.5362353e-05,9.5013148e-05,-3.1043922e-05,-2.9100518e-03,-5.5026993e-03,-2.9120942e-03,-1.8126265e-04,-1.5780543e-04,3.0318786e-05,2.9455429e-03,3.3549030e-02,-2.8884603e-02
1.5498731e+00,-6.4072389e-06,3.5671314e-05,2.1548463e-06,5.8944803e-03,-5.9293194e-03,5.9014503e-03,-1.9699470e-04,6.2855307e-04,3.7404020e-04,-1.5732070e-03,7.8635925e-02,3.4372174e-02
1.5598731e+00,-3.6025400e-05,-9.6405428e-05,-8.1027750e-06,-2.9589440e-03,-1.3213884e-02,-2.9369458e-03,-2.9609098e-04,1.8043888e-03,-3.4981592e-04,-9.9096376e-03,1.1758368e-01,-7.2385681e-02
1.5698731e+00,-5.2829860e-05,-4.0639666e-05,-3.8996060e-05,-1.6803115e-03,5.5744935e-03,-1.6874965e-03,-5.3641795e-05,1.1862166e-03,2.5897118e-04,2.4244942e-02,-6.1817272e-02,6.0878769e-02
1.5798731e+00,-5.9717450e-05,1.0551533e-04,-6.5458192e-05,-6.9196544e-04,1.4615309e-02,-6.8987461e-04,-2.2109923e-04,7.4523857e-05,3.7254035e-05,-1.6745760e-02,-1.1116938e-01,-2.2171736e-02
1.5898731e+00,-9.0180102e-06,1.2480954e-04,5.5250351e-07,5.0702632e-03,1.9339414e-03,5.0679126e-03,-5.3837093e-04,3.5291854e-04,-2.6707718e-04,-3.1727200e-02,2.7839495e-02,-3.0433151e-02
1.5998733e+00,-3.1164397e-07,8.9103874e-05,-1.6491323e-05,8.7261928e-04,-3.5696291e-03,8.7212091e-04,-4.3998960e-04,5.4257047e-04,-4.9597372e-04,9.8379077e-03,1.8964758e-02,-2.2889130e-02
1.6098733e+00,-1.0609051e-04,3.6135134e-05,-3.2314582e-05,-1.0583784e-02,-5.3006135e-03,-1.0570135e-02,1.5819191e-04,5.1154442e-04,-4.7742520e-04,5.9818208e-02,-3.1026080e-03,1.8548536e-03
1.6198733e+00,-3.5939089e-05,-1.2466972e-04,1.9610437e-05,7.0175723e-03,-1.6067884e-02,7.0415849e-03,-8.1976740e-05,1.7134277e-03,-1.5755443e-04,-2.4016888e-02,1.2018845e-01,3.1987108e-02
1.6298733e+00,-2.0503652e-05,6.3279953e-06,-5.2574236e-05,1.5402044e-03,1.3101533e-02,1.5319937e-03,-3.1958983e-04,8.1731339e-04,-5.4810136e-04,-2.3761332e-02,-8.9611519e-02,-3.9054730e-02
1.6398733e+00,-2.4977829e-06,6.7174943e-05,-5.5916234e-05,1.7992469e-03,6.0866592e-03,1.7953020e-03,-3.9890241e-04,6.9038728e-04,-6.0313314e-04,-7.9312657e-03,-1.2692623e-02,-5.5031835e-03
1.6498733e+00,-1.6775838e-05,1.2590650e-04,-7.3431251e-05,-1.4295440e-03,5.8723206e-03,-1.4295249e-03,-2.1060303e-04,3.7784070e-04,-3.5042058e-04,1.8829957e-02,-3.1254688e-02,2.5271280e-02
1.6598732e+00,-1.2403123e-05,1.6019960e-04,-4.6474610e-05,4.3667166e-04,3.4293164e-03,4.3784656e-04,-1.7819013e-04,-1.7068558e-04,-2.4622475e-05,3.2412928e-03,-5.4852680e-02,3.2579841e-02
1.6698732e+00,8.5337973e-06,1.0365073e-04,-3.9227309e-05,2.0971167e-03,-5.6527454e-03,2.0960639e-03,-4.7659860e-04,5.4815983e-04,-3.4767839e-04,-2.9840875e-02,7.1884609e-02,-3.2305622e-02
1.6798732e+00,-8.5086986e-06,6.5777407e-05,-6.2725982e-05,-1.7030551e-03,-3.7893557e-03,-1.7009543e-03,-5.3888372e-04,6.4727270e-04,-4.9600967e-04,-6.2285179e-03,9.9112961e-03,-1.4833142e-02
1.6898732e+00,-5.2005484e-05,-9.1853227e-05,-2.3229831e-05,-4.3504173e-03,-1.5767447e-02,-4.3330809e-03,5.0725150e-05,1.0571893e-03,1.4932230e-05,5.8960943e-02,4.0991697e-02,5.1094239e-02
1.6998732e+00,-3.4108083e-05,-8.5342968e-05,-1.6788193e-05,1.7893079e-03,6.5270607e-04,1.7895638e-03,-1.7106207e-05,9.2127294e-04,2.3615173e-04,-6.7831422e-03,-1.3591646e-02,2.2121971e-02
1.7098732e+00,-1.2488293e-04,-7.9948386e-05,-3.1364109e-04,-9.0773044e-03,5.2045483e-04,-9.0787917e-03,1.5943554e-04,2.2527790e-03,1.1328195e-05,1.7654192e-02,1.3315073e-01,-2.2482375e-02
1.7198732e+00,-7.0114223e-05,2.8230668e-04,-7.3847286e-05,5.4654208e-03,3.6220421e-02,5.5219937e-03,-3.4230231e-04,-1.2715615e-03,-1.7260159e-04,-5.0173834e-02,-3.5243439e-01,-1.8392996e-02
1.7298732e+00,-1.2187469e-04,2.0359661e-04,-9.4496579e-05,-5.1761567e-03,-7.8669147e-03,-5.1821757e-03,-1.7171770e-04,-9.6332945e-04,-2.8147506e-04,1.7058477e-02,3.0823235e-02,-1.0887358e-02
1.7398732e+00,-1.1695222e-04,3.0379674e-04,-1.7187702e-04,4.8910492e-04,1.0019127e-02,5.1315474e-04,-3.4617573e-04,-2.1190343e-03,-6.6350370e-04,-1.7445819e-02,-1.1557060e-01,-3.8202900e-02
1.7498732e+00,-3.0271406e-05,-6.1027478e-05,4.3851723e-05,8.6611295e-03,-3.6476095e-02,8.7017549e-03,1.3895275e-04,8.7103798e-04,2.1814153e-04,4.8512894e-02,2.9900752e-01,8.8164607e-02
1.7598732e+00,-3.0912799e-05,4.8299386e-05,-5.4830371e-05,-6.9346189e-05,1.0932595e-02,-7.5102745e-05,-4.7302016e-04,1.0063253e-03,-5.5338977e-04,-6.1197349e-02,1.3528742e-02,-7.7153204e-02
1.7698731e+00,-3.8840845e-05,4.0756164e-05,-7.4381099e-05,-7.9303723e-04,-7.5534777e-04,-7.9159684e-04,-2.8900769e-04,1.0047261e-03,-5.6762070e-04,1.8401265e-02,-1.5991809e-04,-1.4230946e-03
1.7798731e+00,-1.2607072e-05,4.2986297e-05,-8.9132529e-05,2.6246026e-03,2.2573002e-04,2.6219240e-03,-2.4503690e-04,7.9084720e-04,-4.8708818e-04,4.3970831e-03,-2.1387910e-02,8.0532602e-03
1.7898731e+00,4.0816029e-05,1.1309409e-04,-5.5642863e-05,5.3403365e-03,7.0156269e-03,5.3379368e-03,-5.3085144e-04,3.7569394e-04,-3.2644296e-04,-2.8581482e-02,-4.1515365e-02,1.6064537e-02
1.7998731e+00,6.9120856e-06,5.0357227e-05,-7.4716332e-05,-3.3894341e-03,-6.2780576e-03,-3.3832730e-03,-4.3136245e-04,8.5746350e-04,-5.1426599e-04,9.9489083e-03,4.8177002e-02,-1.8782321e-02
1.8098731e+00,-2.4103252e-05,2.3661587e-05,-8.1382171e-05,-3.1021899e-03,-2.6741176e-03,-3.0969596e-03,-4.3727127e-04,1.0312391e-03,-5.8723780e-04,-5.9088172e-04,1.7377576e-02,-7.2971879e-03
1.8198731e+00,-1.0084090e-05,-7.9113580e-06,3.8037812e-07,1.4021887e-03,-3.1555734e-03,1.4055237e-03,-1.5538547e-04,1.0729537e-03,1.5653471e-04,2.8188607e-02,4.1714632e-03,7.4377322e-02
1.8298731e+00,-5.7222672e-06,-1.0994260e-05,1.3615305e-05,4.3621229e-04,-3.0762524e-04,4.3662251e-04,-1.6642879e-04,1.3579068e-03,4.9737586e-05,-1.1043334e-03,2.8495341e-02,-1.0679723e-02
1.8398731e+00,-1.4568185e-05,1.1319090e-04,9.0174597e-06,-8.9077559e-04,1.2417885e-02,-8.8741476e-04,-4.8201165e-04,2.4324611e-04,-2.2289770e-04,-3.1558316e-02,-1.1146618e-01,-2.7263555e-02
1.8498733e+00,-9.6286493e-05,6.7065922e-05,-4.0373853e-05,-8.1727461e-03,-4.6108188e-03,-8.1714294e-03,-1.0202007e-05,-2.0281424e-04,-1.4067501e-04,4.7179885e-02,-4.4605014e-02,8.2220807e-03
1.8598733e+00,-9.7939834e-05,1.8137628e-04,-1.2242467e-04,-1.6884030e-04,1.1431188e-02,-1.5144194e-04,-3.0247260e-04,-1.2109893e-03,-2.9289297e-04,-2.9227087e-02,-1.0081761e-01,-1.5221810e-02
1.8698733e+00,-1.2406092e-04,1.7581936e-04,-1.4181440e-04,-2.6128186e-03,-5.5398552e-04,-2.6117651e-03,-3.1526546e-04,-9.6902962e-04,-3.3822883e-04,-1.2792878e-03,2.4195996e-02,-4.5335907e-03
1.8798733e+00,-5.3537041e-05,-1.2843657e-05,2.8230559e-05,7.0407115e-03,-1.8867188e-02,7.0617391e-03,2.8357891e-04,1.6022172e-04,8.9749865e-04,5.9884494e-02,1.1292524e-01,1.2357287e-01
1.8898733e+00,-1.4083021e-04,-3.6119344e-04,-1.1205616e-04,-8.7550074e-03,-3.4859592e-02,-8.6045896e-03,8.2762501e-04,3.6703965e-03,3.6024630e-04,5.4404662e-02,3.5101781e-01,-5.3725286e-02
1.8998733e+00,-3.7393715e-05,-2.0086953e-05,5.6724820e-05,1.0346775e-02,3.4115386e-02,1.0325013e-02,2.5836238e-04,7.1370212e-04,5.5062789e-04,-5.6926317e-02,-2.9566972e-01,1.9038178e-02
1.9098732e+00,-6.8452404e-06,1.2529109e-04,-2.1050247e-05,3.0467903e-03,1.4541369e-02,3.0459841e-03,-6.1224691e-04,5.5206363e-04,-2.7541002e-04,-8.7061012e-02,-1.6163865e-02,-8.2603870e-02
1.9198732e+00,-7.5424816e-06,1.1919423e-04,-1.8998619e-05,-6.9374341e-05,-6.0976528e-04,-6.9379214e-05,-6.1771784e-04,5.2204176e-04,-3.8426724e-04,-5.4709343e-04,-3.0021892e-03,-1.0885733e-02
1.9298732e+00,-6.8622107e-05,6.9619639e-05,-6.8721906e-05,-6.1095476e-03,-4.9608063e-03,-6.1036740e-03,-9.6996184e-05,4.5040551e-04,-3.3733321e-04,5.2072215e-02,-7.1636320e-03,4.6934081e-03
1.9398732e+00,-2.6023858e-05,6.1353113e-05,-1.3103704e-05,4.2611764e-03,-8.2373306e-04,4.2590469e-03,-2.6484566e-04,4.2079453e-04,-2.6499294e-04,-1.6784963e-02,-2.9611005e-03,7.2340334e-03
1.9498732e+00,5.7004266e-06,8.8615700e-05,-7.0525894e-05,3.1723575e-03,2.7298329e-03,3.1694327e-03,-5.6422113e-04,5.6215427e-04,-4.6182696e-04,-2.9937576e-02,1.4135987e-02,-1.9683421e-02
1.9598732e+00,1.4072698e-05,9.4391743e-05,-6.6039052e-05,8.3725316e-04,5.7864914e-04,8.3648133e-04,-5.5389340e-04,6.9395955e-04,-4.1247190e-04,1.0327744e-03,1.3180540e-02,4.9355108e-03
1.9698732e+00,5.5759881e-06,7.2731316e-06,6.8103079e-06,-8.4980480e-04,-8.7127720e-03,-8.4023211e-04,2.1161766e-05,1.0893893e-03,6.0468712e-05,5.7505571e-02,3.9543018e-02,4.7294106e-02
1.9798732e+00,-1.9591207e-05,3.5584213e-05,-5.2269867e-05,-2.5189870e-03,2.8279455e-03,-2.5180143e-03,-3.5688784e-04,9.0074843e-04,-4.9872788e-04,-3.7804997e-02,-1.8864109e-02,-5.5919713e-02
1.9898732e+00,-6.4473780e-05,2.8635959e-05,-2.8950436e-05,-4.4907560e-03,-7.0007491e-04,-4.4849496e-03,-4.2360600e-04,7.4637855e-04,-6.2162728e-04,-6.6718228e-03,-1.5437003e-02,-1.2289951e-02
1.9998732e+00,-5.2812760e-05,8.2271915e-05,-6.9377945e-05,1.1642579e-03,5.3638174e-03,1.1669497e-03,-2.8099385e-04,-9.4910069e-05,2.8983975e-04,1.4261229e-02,-8.4128943e-02,9.1146789e-02
2.0098732e+00,-6.9771471e-05,-1.2134611e-04,-1.7482511e-06,-1.6986436e-03,-2.0363451e-02,-1.6734012e-03,1.5814287e-04,1.1256666e-03,2.6480391e-04,4.3913714e-02,1.2205779e-01,-2.5035861e-03
2.0198731e+00,-7.3184005e-05,-1.4521069e-04,3.8975685e-06,-3.4083876e-04,-2.3871881e-03,-3.3654371e-04,-2.2311591e-04,1.9241412e-03,-3.4437944e-04,-3.8125914e-02,7.9847531e-02,-6.0918393e-02
2.0298731e+00,-1.1340300e-04,2.0528044e-04,-1.1295862e-04,-4.0344571e-03,3.5051199e-02,-3.9913265e-03,-2.9138054e-04,-8.0540248e-04,-5.8220186e-04,-6.8264698e-03,-2.7295463e-01,-2.3782264e-02
2.0398731e+00,-9.6369840e-05,5.1240118e-05,-5.2840408e-05,1.7035703e-03,-1.5404253e-02,1.7011985e-03,-2.6008377e-05,-1.4722939e-04,8.7125701e-05,2.6537242e-02,6.5817372e-02,6.6932820e-02
2.0498731e+00,-7.3351063e-05,9.7663179e-07,-1.0896676e-04,2.3019130e-03,-5.0244700e-03,2.3059551e-03,-1.0338488e-04,7.1409828e-04,2.1136623e-04,-7.7376576e-03,8.6132849e-02,1.2424065e-02
2.0597818e+00,-5.9250055e-06,5.3875572e-05,-4.6390299e-05,6.8034514e-03,5.3482292e-03,6.7985212e-03,-6.9784297e-04,7.1072245e-04,-3.5705675e-04,-5.9993694e-02,-3.4069488e-04,-5.7366188e-02
2.0697818e+00,3.1613306e-05,-4.3753057e-05,1.2051730e-05,3.7591571e-03,-9.7548846e-03,3.7692425e-03,-4.8726276e-04,1.6370543e-03,-1.5071100e-04,2.1058041e-02,9.2633272e-02,2.0634594e-02
2.0797818e+00,-4.1921271e-05,-7.0717049e-06,-8.7818964e-06,-7.3516079e-03,3.6601886e-03,-7.3592803e-03,1.8717007e-05,1.0992804e-03,2.4313387e-04,5.0598025e-02,-5.3777441e-02,3.9384524e-02
2.0897818e+00,-6.0246791e-05,-6.0826509e-05,-5.4268332e-07,-1.8340125e-03,-5.3775672e-03,-1.8249715e-03,3.0796506e-04,1.4469177e-03,1.0727513e-04,2.8924833e-02,3.4763768e-02,-1.3585887e-02
2.0997820e+00,-1.2177423e-07,9.2566973e-05,-2.6926581e-05,6.0094665e-03,1.5344232e-02,6.0018935e-03,-3.3230605e-04,5.3912059e-04,-3.6599412e-04,-6.4025646e-02,-9.0777637e-02,-4.7325842e-02
2.1097820e+00,9.5734175e-06,1.3765444e-04,-4.4429497e-05,9.6885797e-04,4.5089512e-03,9.6925227e-04,-1.9900973e-04,7.2768146e-06,-2.4259858e-04,1.3329645e-02,-5.3184428e-02,1.2339566e-02
2.1197820e+00,-1.8238515e-06,1.6336167e-04,-6.0976216e-05,-1.1407456e-03,2.5705584e-03,-1.1390855e-03,-4.0072279e-04,-2.5478457e-04,1.0921724e-05,-2.0171325e-02,-2.6206164e-02,2.5352054e-02
2.1297820e+00,-4.0810871e-05,1.2515632e-04,-5.7404185e-05,-3.8979370e-03,-3.8217568e-03,-3.8982804e-03,-2.6991774e-04,4.2563749e-05,-6.7376793e-05,1.3080517e-02,2.9734860e-02,-7.8298592e-03
2.1397820e+00,-2.1206812e-05,-9.2600354e-05,3.1816384e-06,1.9650336e-03,-2.1771792e-02,1.9986750e-03,-1.7476131e-04,1.7952667e-03,-4.1850201e-04,9.5156524e-03,1.7527046e-01,-3.5112556e-02
2.1497819e+00,-7.9808672e-05,-1.8821709e-04,-7.0426740e-06,-5.8637960e-03,-9.5747584e-03,-5.8351828e-03,-1.7558581e-05,2.2192287e-03,-6.4392453e-04,1.5720288e-02,4.2396244e-02,-2.2542273e-02
2.1597819e+00,-8.7058563e-05,4.4870048e-05,-6.4388148e-05,-7.2791457e-04,2.3308554e-02,-7.2788199e-04,-1.2153166e-04,1.2804727e-04,-1.2695715e-04,-1.0397318e-02,-2.0911834e-01,5.1696787e-02
2.1697819e+00,-9.6128405e-05,5.1276829e-05,-6.8914061e-05,-9.0704345e-04,6.4060485e-04,-9.0697878e-04,-1.0943892e-04,-2.8035760e-05,1.2896545e-05,1.2092747e-03,-1.5608318e-02,1.3985383e-02
2.1797819e+00,-8.6140543e-05,-1.5567621e-05,-3.4489612e-05,1.0024123e-03,-6.6831276e-03,1.0040004e-03,-4.6106883e-04,8.6158211e-04,-5.4407860e-04,-3.5163024e-02,8.8961872e-02,-5.5697568e-02
2.1897819e+00,-9.0322065e-05,-6.1544229e-07,-5.7135842e-05,-4.1916736e-04,1.4946797e-03,-4.1906469e-04,-5.0038295e-04,7.8894654e-04,-6.3782847e-04,-3.9314163e-03,-7.2635643e-03,-9.3749958e-03
2.1997819e+00,-6.3929576e-05,-5.4933901e-05,-1.7950839e-05,2.6384993e-03,-5.4298377e-03,2.6441419e-03,3.0906189e-05,7.9295148e-04,2.2135273e-04,5.3128965e-02,4.0049435e-04,8.5918202e-02
2.2097819e+00,-2.2107252e-05,-4.2004854e-05,-2.1427015e-05,4.1807388e-03,1.2980303e-03,4.1821463e-03,-2.1608521e-04,1.0090579e-03,2.9120389e-04,-2.4699163e-02,2.1610662e-02,6.9851228e-03
2.2197819e+00,-3.1013961e-05,-1.2436497e-04,5.1709196e-05,-8.9028430e-04,-8.2374598e-03,-8.7764107e-04,-7.0128597e-05,1.5589190e-03,-2.1358885e-04,1.4595675e-02,5.4986167e-02,-5.0479322e-02
2.2297819e+00,-6.9262678e-06,1.0025786e-04,-2.8673770e-06,2.3965246e-03,2.2464524e-02,2.4002693e-03,-5.7767460e-04,3.4618248e-04,-3.0282163e-04,-5.0754649e-02,-1.2127377e-01,-8.9232865e-03
2.2397819e+00,-4.3054744e-05,3.0596458e-05,-3.9701340e-05,-3.6102947e-03,-6.9722645e-03,-3.6035939e-03,-4.5194281e-04,1.2432282e-03,-1.6394729e-04,1.2573191e-02,8.9704655e-02,1.3887447e-02
2.2497818e+00,-2.0352596e-05,1.2150053e-04,-1.1640494e-05,2.2655960e-03,9.0925481e-03,2.2662929e-03,-5.6360252e-04,3.7641799e-04,-2.2146111e-04,-1.1165981e-02,-8.6681100e-02,-5.7513869e-03
2.2597818e+00,1.1161892e-05,-5.1229646e-05,1.6615078e-05,3.1543116e-03,-1.7267965e-02,3.1762757e-03,-1.3363247e-04,1.4693438e-03,-1.7504118e-04,4.2997046e-02,1.0929269e-01,4.6419976e-03
2.2697818e+00,-9.1390572e-06,-1.0605060e-04,2.0228701e-05,-2.0308351e-03,-5.4853677e-03,-2.0205103e-03,7.1895643e-05,1.6854307e-03,-1.6952099e-04,2.0552831e-02,2.1608704e-02,5.5201896e-04
2.2797818e+00,-4.5951665e-05,-1.0342264e-04,-3.5166890e-05,-3.6813985e-03,2.5773028e-04,-3.6814882e-03,2.4277304e-04,1.6188843e-03,-5.3815454e-05,1.7087756e-02,-6.6546435e-03,1.1570565e-02
2.2897818e+00,-5.7911774e-05,6.7854879e-05,-6.6867407e-05,-1.1980778e-03,1.7127387e-02,-1.1993985e-03,-1.0150534e-04,2.1685642e-04,-2.7357777e-04,-3.4427871e-02,-1.4020292e-01,-2.1976252e-02
2.2997818e+00,-5.1950508e-05,9.8893740e-06,-2.9174854e-05,5.9895712e-04,-5.7957696e-03,6.0091743e-04,-4.2657681e-04,8.8841960e-04,-5.9961482e-04,-3.2507179e-02,6.7156382e-02,-3.2603736e-02
2.3097818e+00,-6.8580413e-05,-9.6307181e-06,-2.4424931e-05,-1.6632368e-03,-1.9541070e-03,-1.6602836e-03,-4.0052024e-04,8.6089656e-04,-6.1755707e-04,2.6056599e-03,-2.7523062e-03,-1.7942269e-03
2.3197818e+00,-8.5070942e-05,6.0781624e-05,-5.4969879e-05,-1.6497233e-03,7.0411948e-03,-1.6485824e-03,-5.1735008e-05,-2.3771990e-05,-1.8471174e-04,3.4878556e-02,-8.8466939e-02,4.3284575e-02
2.3297818e+00,-4.0438813e-05,-8.8660467e-05,6.6986626e-06,4.4578782e-03,-1.4941244e-02,4.4785013e-03,3.0677213e-04,9.7239019e-04,1.6897400e-04,3.5850748e-02,9.9616313e-02,3.5368608e-02
2.3397818e+00,-8.1612945e-06,6.1073938e-06,-1.4376746e-06,3.2269234e-03,9.4777842e-03,3.2256817e-03,8.2470809e-05,3.8892700e-04,4.9962263e-04,-2.2430154e-02,-5.8346375e-02,3.3064894e-02
2.3497820e+00,-4.0896672e-05,-1.8073307e-05,1.0251348e-05,-3.2715499e-03,-2.4194394e-03,-3.2743224e-03,1.0678648e-04,5.4174478e-04,6.6302439e-04,2.4315113e-03,1.5281429e-02,1.6339803e-02
2.3597820e+00,-7.9135221e-05,1.1518261e-04,-4.7812119e-05,-3.8281078e-03,1.3324772e-02,-3.8225083e-03,-3.4295015e-04,-1.2542860e-04,8.3834474e-05,-4.4973706e-02,-6.6717402e-02,-5.7919047e-02
2.3697820e+00,-1.0330139e-04,-7.1553884e-05,-4.8206691e-05,-2.4133927e-03,-1.8677860e-02,-2.3872596e-03,-2.2222369e-04,1.5226723e-03,-3.8213057e-04,1.2072658e-02,1.6481025e-01,-4.6596549e-02
2.3797820e+00,-4.9273870e-05,8.3191435e-05,-3.1271069e-05,5.3968934e-03,1.5479382e-02,5.3947617e-03,-4.9683663e-04,3.9875774e-04,-3.3790384e-04,-2.7461321e-02,-1.1239157e-01,4.4226772e-03
2.3897820e+00,-1.6686525e-05,-3.9661330e-05,3.4537690e-05,3.2617928e-03,-1.2280210e-02,3.2747814e-03,-2.2768441e-04,1.3272786e-03,-7.9217805e-05,2.6915248e-02,9.2852179e-02,2.5868628e-02
2.3997819e+00,1.9282929e-05,-6.0225975e-05,-2.9478203e-05,3.5986133e-03,-2.0494838e-03,3.5992686e-03,-1.8344209e-04,1.7575512e-03,-3.5794875e-04,4.4242366e-03,4.3027298e-02,-2.7873121e-02
2.4097819e+00,1.4045507e-04,-4.8074355e-05,4.1095084e-06,1.2117420e-02,1.2311790e-03,1.2115415e-02,-4.0419689e-05,1.2814274e-03,-2.0073832e-05,1.4302253e-02,-4.7612426e-02,3.3787524e-02
2.4197819e+00,2.1965534e-04,5.8456308e-05,-5.0031695e-05,7.9196692e-03,1.0656455e-02,7.9158530e-03,2.4343891e-05,4.5100706e-04,7.8814698e-05,6.4763642e-03,-8.3042114e-02,9.8888625e-03
2.4297819e+00,2.2169700e-04,1.0728712e-05,-5.0503931e-05,2.0438467e-04,-4.7726101e-03,2.0752107e-04,-4.5026015e-05,7.0344523e-04,-1.4729353e-05,-6.9369972e-03,2.5243841e-02,-9.3544140e-03
2.4397819e+00,1.8117598e-04,1.1956492e-04,1.3331851e-05,-4.0581881e-03,1.0879303e-02,-4.0576400e-03,-5.5604719e-04,5.1145880e-04,-7.6164662e-06,-5.1102166e-02,-1.9198662e-02,7.1128932e-04
2.4497819e+00,-1.2507903e-06,-1.3034888e-04,4.0842852e-05,-1.8246639e-02,-2.5033115e-02,-1.8181458e-02,-1.7976352e-04,2.1107194e-03,-4.6259735e-04,3.7628402e-02,1.5992621e-01,-4.5498132e-02
2.4597819e+00,-2.5789343e-04,-1.2177274e-04,3.8353346e-05,-2.5666443e-02,8.1357003e-04,-2.5663567e-02,2.7264866e-04,1.9889673e-03,-9.3106304e-05,4.5241261e-02,-1.2175213e-02,3.6949140e-02
2.4697819e+00,-4.3945656e-04,-1.2944566e-04,2.0437519e-05,-1.8149365e-02,-7.9812508e-04,-1.8161966e-02,4.7780453e-05,1.7453127e-03,3.8562513e-04,-2.2486842e-02,-2.4365492e-02,4.7873189e-02
2.4797819e+00,-6.6089034e-04,7.9886482e-06,-4.6196887e-05,-2.2153666e-02,1.3700622e-02,-2.2159660e-02,-7.0706914e-04,1.2261990e-03,-2.5050224e-05,-7.5485031e-02,-5.1911418e-02,-4.1067575e-02
2.4897819e+00,-8.3400644e-04,2.0575062e-04,6.7947382e-05,-1.7319674e-02,1.9765209e-02,-1.7316147e-02,-8.5565543e-04,-2.2022080e-04,5.1215255e-04,-1.4858643e-02,-1.4464211e-01,5.3720329e-02
2.4997818e+00,-1.1529010e-03,1.9704525e-04,8.3939084e-05,-3.1859169e-02,-8.9687794e-04,-3.1919039e-02,-6.4271821e-04,1.8309877e-04,9.3239794e-04,2.1293741e-02,4.0331995e-02,4.2024579e-02
2.5097818e+00,-1.6362377e-03,1.8533392e-04,1.4040382e-04,-4.8302498e-02,-1.2418702e-03,-4.8363155e-02,-7.9932508e-04,6.6378364e-04,6.2606090e-04,-1.5660701e-02,4.8068533e-02,-3.0633733e-02
2.5197818e+00,-2.2367965e-03,6.8191026e-04,-1.3149461e-04,-6.0206309e-02,4.9747845e-02,-5.9830333e-02,-1.7023942e-03,-3.2127359e-03,-1.0982715e-03,-9.0306994e-02,-3.8765232e-01,-1.7243340e-01
2.5297818e+00,-2.3520259e-03,3.0375428e-04,1.7012255e-04,-1.1471101e-02,-3.7834629e-02,-1.1512332e-02,-1.3569833e-03,2.9463129e-04,4.5764202e-05,3.4541117e-02,3.5073705e-01,1.1440368e-01
2.5397818e+00,-2.3296907e-03,5.7628749e-04,3.1747708e-04,2.1968729e-03,2.7252436e-02,2.2805153e-03,-1.2408963e-03,-1.6215301e-03,1.2696188e-03,1.1608712e-02,-1.9161632e-01,1.2238557e-01
2.5497818e+00,-2.3648656e-03,8.3606838e-04,2.4021324e-04,-3.5279573e-03,2.5985656e-02,-3.4506829e-03,-7.1644777e-04,-2.8865739e-03,2.3153509e-03,5.2444903e-02,-1.2650451e-01,1.0457332e-01
2.5597818e+00,-2.7163054e-03,9.0446678e-04,1.8954139e-04,-3.5088488e-02,6.9007616e-03,-3.5187547e-02,-1.0405020e-03,-2.7697254e-03,1.7801499e-03,-3.2405458e-02,1.1684862e-02,-5.3520153e-02
2.5697818e+00,-3.1072609e-03,1.0026448e-03,1.6318030e-04,-3.9076708e-02,9.8488796e-03,-3.9106658e-02,-2.0962765e-03,-2.8895235e-03,1.0067474e-03,-1.0557754e-01,-1.1979821e-02,-7.7340322e-02
2.5797818e+00,-3.6435506e-03,8.8051896e-04,2.7338555e-04,-5.3543797e-02,-1.2251944e-02,-5.3705140e-02,-2.4987601e-03,-1.7622698e-03,1.0163912e-03,-4.0248400e-02,1.1272548e-01,9.6437701e-04
2.5897818e+00,-3.9889841e-03,8.2725269e-04,3.5354608e-04,-3.4488815e-02,-5.4118947e-03,-3.4584631e-02,-2.9669459e-03,-4.9740253e-04,1.1171697e-03,-4.6818631e-02,1.2648684e-01,1.0077863e-02
2.5997820e+00,-4.4056177e-03,1.1071681e-03,2.2324706e-04,-4.1712331e-02,2.7957095e-02,-4.1635148e-02,-2.9898149e-03,-2.1811252e-03,8.0564016e-04,-2.2868469e-03,-1.6836841e-01,-3.1152243e-02
2.6097820e+00,-4.7533603e-03,1.3798388e-03,7.6028818e-05,-3.4805150e-02,2.7275423e-02,-3.4736878e-02,-2.8071995e-03,-3.0493729e-03,1.3091012e-03,1.8261560e-02,-8.6824849e-02,5.0346151e-02
2.6197820e+00,-5.2442101e-03,1.2557743e-03,1.3470005e-04,-4.8978207e-02,-1.2464854e-02,-4.9176841e-02,-2.8590951e-03,-1.6657568e-03,1.4483204e-03,-5.1895674e-03,1.3836174e-01,1.3921938e-02
2.6297820e+00,-5.5246556e-03,1.2771133e-03,2.1091263e-04,-2.8032554e-02,2.0942951e-03,-2.8059582e-02,-3.8311616e-03,-2.4179409e-03,7.1268058e-04,-9.7206738e-02,-7.5218481e-02,-7.3564055e-02
2.6397820e+00,-5.7189942e-03,1.0235563e-03,3.0858690e-04,-1.9322159e-02,-2.5411100e-02,-1.9472924e-02,-3.6514604e-03,-7.9236597e-04,9.7767980e-04,1.7970132e-02,1.6255764e-01,2.6499947e-02
2.6497819e+00,-5.6710949e-03,1.0373190e-03,3.0384957e-04,4.7773485e-03,1.3939259e-03,4.7973926e-03,-3.8833224e-03,-1.9572141e-04,1.5030186e-03,-2.3186216e-02,5.9664513e-02,5.2533931e-02
2.6597819e+00,-5.7534749e-03,1.0510701e-03,4.0367275e-04,-8.2232702e-03,1.3480008e-03,-8.2571791e-03,-3.5559390e-03,-2.6584721e-04,2.3727390e-03,3.2738372e-02,-7.0125862e-03,8.6972118e-02
2.6697819e+00,-6.0773028e-03,1.4757411e-03,2.6341985e-04,-3.2490342e-02,4.2411644e-02,-3.2347843e-02,-4.1088912e-03,-2.4049110e-03,2.0576272e-03,-5.5295278e-02,-2.1390658e-01,-3.1511206e-02
2.6797819e+00,-6.6149008e-03,1.8117442e-03,3.1462593e-04,-5.3878439e-02,3.3513385e-02,-5.3695377e-02,-5.5660357e-03,-3.9579839e-03,1.2566495e-03,-1.4571458e-01,-1.5530744e-01,-8.0097847e-02
2.6897819e+00,-7.3270508e-03,1.4129949e-03,5.3553618e-04,-7.0888534e-02,-4.0279569e-02,-7.1313095e-02,-5.6042284e-03,8.5765541e-05,1.4305386e-03,-3.8192805e-03,4.0437533e-01,1.7388924e-02
2.6997819e+00,-8.0195890e-03,1.6000246e-03,5.5381554e-04,-6.9292240e-02,1.8329421e-02,-6.9315366e-02,-6.2522562e-03,-8.6241279e-04,1.1144519e-03,-6.4802840e-02,-9.4817924e-02,-3.1608701e-02
2.7097819e+00,-8.3076987e-03,1.6988369e-03,5.3251144e-04,-2.8859298e-02,9.7224151e-03,-2.8816697e-02,-6.4960501e-03,-9.9015794e-04,5.3033620e-04,-2.4379412e-02,-1.2774527e-02,-5.8411621e-02
2.7197819e+00,-8.2452116e-03,1.6323870e-03,6.1560621e-04,6.2723681e-03,-6.6113835e-03,6.2606705e-03,-5.8434662e-03,-4.8105248e-04,2.4094255e-03,6.5258453e-02,5.0910595e-02,1.8790911e-01
2.7297819e+00,-8.1687866e-03,1.6403900e-03,5.7584489e-04,7.6143682e-03,8.5594903e-04,7.6645211e-03,-6.5271406e-03,7.5497152e-04,2.9719773e-03,-6.8367503e-02,1.2360252e-01,5.6255239e-02
2.7397819e+00,-8.3612712e-03,2.0358999e-03,4.0960001e-04,-1.9462442e-02,3.9435203e-02,-1.9270962e-02,-7.0321357e-03,-1.0628880e-03,3.3030036e-03,-5.0499564e-02,-1.8178613e-01,3.3102665e-02
2.7497818e+00,-9.0375291e-03,2.2651803e-03,4.5012763e-04,-6.7622969e-02,2.2614521e-02,-6.7734230e-02,-7.3981727e-03,-2.7652650e-03,2.5203926e-03,-3.6603732e-02,-1.7023787e-01,-7.8261180e-02
2.7597818e+00,-9.8886842e-03,2.2652225e-03,4.8703634e-04,-8.5038844e-02,-3.9696626e-04,-8.5191350e-02,-7.4191075e-03,-2.7031838e-03,8.7417691e-04,-2.0934809e-03,6.2081266e-03,-1.6462172e-01
2.7697818e+00,-1.0539717e-02,2.2625964e-03,6.1886441e-04,-6.5016534e-02,-6.3488547e-04,-6.5187526e-02,-7.4165451e-03,-1.6959977e-03,1.2755735e-03,2.5624207e-04,1.0071871e-01,4.0139695e-02
2.7797818e+00,-1.1163632e-02,2.4903377e-03,5.0284382e-04,-6.2546940e-02,2.2471218e-02,-6.2345829e-02,-8.2309675e-03,-3.3883528e-03,4.8019802e-04,-8.1442319e-02,-1.6923567e-01,-7.9537622e-02
2.7897818e+00,-1.1486923e-02,2.5575747e-03,6.5420121e-04,-3.2340681e-02,6.5523348e-03,-3.2352751e-02,-8.5376774e-03,-3.2409837e-03,1.3808513e-03,-3.0671019e-02,1.4736917e-02,9.0065409e-02
2.7997818e+00,-1.1761971e-02,2.9553328e-03,3.7932105e-04,-2.7849267e-02,3.9689426e-02,-2.7282141e-02,-8.9853437e-03,-5.9241040e-03,4.2992755e-04,-4.4766673e-02,-2.6831228e-01,-9.5092461e-02
2.8097818e+00,-1.1820439e-02,2.9815851e-03,4.1564401e-04,-5.8591109e-03,2.6034288e-03,-5.8442199e-03,-8.5168903e-03,-4.8007691e-03,1.6803491e-03,4.6845385e-02,1.1233360e-01,1.2504228e-01
2.8197818e+00,-1.2222729e-02,2.8575582e-03,4.2244271e-04,-4.0035358e-02,-1.2624326e-02,-4.0353078e-02,-9.2086388e-03,-3.6770800e-03,1.9306359e-03,-6.9174919e-02,1.1236902e-01,2.5028696e-02
2.8297818e+00,-1.2859102e-02,2.9038604e-03,4.1339916e-04,-6.3589647e-02,4.1747787e-03,-6.3716521e-02,-1.0103379e-02,-2.9460951e-03,1.4328577e-03,-8.9474111e-02,7.3098552e-02,-4.9777865e-02
2.8397818e+00,-1.3547504e-02,3.0712369e-03,7.1495737e-04,-6.8890113e-02,1.6057797e-02,-6.8952327e-02,-1.0877314e-02,-1.0136855e-03,1.8601749e-03,-7.7393602e-02,1.9324115e-01,4.2731758e-02
2.8497820e+00,-1.4502289e-02,3.4362376e-03,8.2565766e-04,-9.5842651e-02,3.5656505e-02,-9.5427563e-02,-1.1936915e-02,-3.1370188e-03,6.5404885e-04,-1.0595763e-01,-2.1232847e-01,-1.2060984e-01
2.8597820e+00,-1.5220185e-02,3.5402683e-03,8.3937668e-04,-7.1883541e-02,9.7240684e-03,-7.1791041e-02,-1.2404147e-02,-2.9559973e-03,4.1367462e-04,-4.6723253e-02,1.8102169e-02,-2.4037446e-02
2.8697820e+00,-1.5663093e-02,3.6335770e-03,8.8353638e-04,-4.4366459e-02,8.8981740e-03,-4.4304270e-02,-1.2690132e-02,-2.9353755e-03,8.8594542e-04,-2.8598574e-02,2.0621768e-03,4.7227125e-02
2.8797820e+00,-1.5939792e-02,3.5085510e-03,9.0742185e-04,-2.7455835e-02,-1.2806598e-02,-2.7743877e-02,-1.2580370e-02,-1.5546612e-03,1.9685803e-03,1.0976294e-02,1.3807157e-01,1.0826359e-01
2.8897820e+00,-1.6042399e-02,3.5720521e-03,9.3877404e-04,-1.0293848e-02,6.2444527e-03,-1.0292321e-02,-1.1880588e-02,-1.6199989e-03,4.0440856e-03,6.9978196e-02,-6.5337829e-03,2.0755073e-01
2.8997819e+00,-1.6456742e-02,3.7913778e-03,9.9787251e-04,-4.1480273e-02,2.1559934e-02,-4.1583737e-02,-1.1630187e-02,-2.6605223e-03,4.9680359e-03,2.5040151e-02,-1.0405244e-01,9.2395120e-02
2.9097819e+00,-1.7474623e-02,4.1242041e-03,1.0231540e-03,-1.0186406e-01,3.2352314e-02,-1.0201202e-01,-1.2872405e-02,-3.7485888e-03,3.3750630e-03,-1.2422190e-01,-1.0880675e-01,-1.5929745e-01
2.9197819e+00,-1.8794478e-02,4.2035258e-03,9.5892263e-04,-1.3196205e-01,6.2559640e-03,-1.3209921e-01,-1.4734038e-02,-2.0382053e-03,9.5493757e-04,-1.8616345e-01,1.7103851e-01,-2.4201277e-01
2.9297819e+00,-1.9916384e-02,4.4694414e-03,9.8324547e-04,-1.1259613e-01,2.4965986e-02,-1.1215822e-01,-1.6015572e-02,-1.5558436e-03,5.4576401e-05,-1.2815358e-01,4.8236212e-02,-9.0036203e-02
2.9397819e+00,-2.0679108e-02,4.7559653e-03,9.6146485e-04,-7.6780152e-02,2.7580621e-02,-7.6158097e-02,-1.7046602e-02,-3.0510781e-03,-3.9822921e-04,-1.0310303e-01,-1.4952359e-01,-4.5280604e-02
2.9497819e+00,-2.1264026e-02,4.8786371e-03,1.0468691e-03,-5.8638944e-02,1.1519413e-02,-5.8496614e-02,-1.6611328e-02,-3.8534221e-03,8.3052024e-04,4.3527382e-02,-8.0234475e-02,1.2287506e-01
2.9597819e+00,-2.1711330e-02,5.0736182e-03,1.0848111e-03,-4.4985412e-02,1.8891634e-02,-4.4734904e-02,-1.7365037e-02,-3.8674659e-03,1.7155560e-03,-7.5370962e-02,-1.4043834e-03,8.8503665e-02
2.9697819e+00,-2.2111505e-02,5.2247579e-03,1.2682788e-03,-4.0150542e-02,1.4585141e-02,-4.0080480e-02,-1.7033362e-02,-3.8632799e-03,2.9595017e-03,3.3167527e-02,4.1860126e-04,1.2439469e-01
2.9797819e+00,-2.3138910e-02,5.5660612e-03,8.7537167e-04,-1.0331207e-01,3.2778498e-02,-1.0260768e-01,-1.8598095e-02,-5.4987879e-03,4.4273483e-04,-1.5647343e-01,-1.6355095e-01,-2.5167693e-01
2.9897819e+00,-2.3862038e-02,5.4972572e-03,1.0552339e-03,-7.2071487e-02,-8.0244098e-03,-7.2435915e-02,-1.9335568e-02,-3.4910406e-03,1.3111141e-03,-7.3747420e-02,2.0077492e-01,8.6838007e-02
2.9997818e+00,-2.4625923e-02,5.3159210e-03,1.2826198e-03,-7.5831930e-02,-1.9575548e-02,-7.6586951e-02,-1.9463904e-02,-5.4037855e-04,2.4738193e-03,-1.2833595e-02,2.9506649e-01,1.1627063e-01
3.0097818e+00,-2.5448948e-02,5.7194273e-03,1.3399680e-03,-8.2894070e-02,3.8716460e-02,-8.2493712e-02,-2.0376114e-02,-6.1884672e-04,2.5913283e-03,-9.1221014e-02,-7.8468243e-03,1.1750913e-02
3.0197818e+00,-2.6281993e-02,6.1191727e-03,1.4573098e-03,-8.3830280e-02,3.8541920e-02,-8.3452225e-02,-2.0178866e-02,-3.0697121e-03,3.1630342e-03,1.9724767e-02,-2.4508678e-01,5.7170638e-02
3.0297818e+00,-2.7328370e-02,6.5490460e-03,1.6040212e-03,-1.0515922e-01,4.1314895e-02,-1.0478884e-01,-2.1230691e-02,-5.3249994e-03,3.5074088e-03,-1.0518258e-01,-2.2552894e-01,3.4437492e-02
3.0397818e+00,-2.8344067e-02,6.8432721e-03,1.5377215e-03,-1.0187651e-01,2.7768113e-02,-1.0172825e-01,-2.2110332e-02,-5.8758914e-03,3.1350397e-03,-8.7964199e-02,-5.5089254e-02,-3.7236942e-02
3.0497818e+00,-2.9356493e-02,6.7370879e-03,1.4865612e-03,-1.0069801e-01,-1.2572640e-02,-1.0156167e-01,-2.2883687e-02,-3.5416960e-03,2.7150092e-03,-7.7335554e-02,2.3341976e-01,-4.2003094e-02
3.0597818e+00,-3.0156537e-02,6.8604460e-03,1.4178277e-03,-8.0128942e-02,1.0688597e-02,-8.0116867e-02,-2.3921739e-02,-3.3688554e-03,1.8446040e-03,-1.0380534e-01,1.7284086e-02,-8.7040600e-02
3.0697818e+00,-3.0859886e-02,7.1413973e-03,1.4033674e-03,-7.0937320e-02,2.6428067e-02,-7.0376098e-02,-2.5363862e-02,-1.7858036e-03,1.2433728e-03,-1.4421239e-01,1.5830532e-01,-6.0123180e-02
3.0797818e+00,-3.1428236e-02,7.3638826e-03,1.4321656e-03,-5.7273695e-02,2.0851082e-02,-5.6924509e-02,-2.5730004e-02,-1.2663808e-03,2.0201771e-03,-3.6614288e-02,5.1942332e-02,7.7680509e-02
3.0897818e+00,-3.2264986e-02,7.7687776e-03,1.4131037e-03,-8.4488673e-02,3.8523060e-02,-8.3785973e-02,-2.6091158e-02,-2.7462015e-03,2.5572951e-03,-3.6115407e-02,-1.4798221e-01,5.3711853e-02
3.0997820e+00,-3.3329643e-02,8.0288187e-03,1.3736315e-03,-1.0686778e-01,2.3527969e-02,-1.0663365e-01,-2.6555631e-02,-3.3792889e-03,2.3302562e-03,-4.6446238e-02,-6.3307290e-02,-2.2703376e-02
3.1097527e+00,-3.4545741e-02,8.0982425e-03,1.5027555e-03,-1.2189211e-01,3.8337478e-03,-1.2218127e-01,-2.7637013e-02,-1.9969036e-03,1.8125459e-03,-1.0845633e-01,1.3864524e-01,-5.1923342e-02
3.1197526e+00,-3.5616492e-02,8.1441584e-03,1.5551783e-03,-1.0701265e-01,1.6298839e-03,-1.0722382e-01,-2.8213151e-02,-5.6567158e-04,1.3955803e-03,-5.7613925e-02,1.4312334e-01,-4.1696598e-02
3.1297526e+00,-3.6653884e-02,8.1615579e-03,1.5958169e-03,-1.0353217e-01,-1.2974727e-03,-1.0395248e-01,-2.8400764e-02,8.7391703e-04,2.0674769e-03,-1.8761307e-02,1.4395900e-01,6.7189722e-02
3.1397526e+00,-3.7673371e-02,8.8120997e-03,1.7746268e-03,-1.0361223e-01,6.2006969e-02,-1.0217055e-01,-3.0312775e-02,-7.0932320e-04,2.5609934e-03,-1.9120121e-01,-1.5832417e-01,4.9351695e-02
3.1497526e+00,-3.9025275e-02,9.3775875e-03,1.7642900e-03,-1.3655472e-01,5.2846631e-02,-1.3531721e-01,-3.0591850e-02,-3.3923211e-03,2.2326481e-03,-2.7907550e-02,-2.6830005e-01,-3.2834559e-02
3.1597526e+00,-4.0577772e-02,9.7199473e-03,1.6221101e-03,-1.5621731e-01,2.9762657e-02,-1.5520146e-01,-3.2632346e-02,-3.9298104e-03,4.3098486e-04,-2.0404985e-01,-5.3748984e-02,-1.8016650e-01
