time, x, y, z, vx, vy, vz, yaw, pitch, roll, yaw_rate, pitch_rate, roll_rate
0.0000000e+00,0.0000000e+00,0.0000000e+00,0.0000000e+00,0.0000000e+00,0.0000000e+00,0.0000000e+00,0.0000000e+00,0.0000000e+00,0.0000000e+00,0.0000000e+00,0.0000000e+00,0.0000000e+00
9.9999905e-03,-3.0618025e-05,-1.3079107e-05,-5.0002338e-06,-3.0623591e-03,-1.3080043e-03,-3.0612122e-03,6.8594819e-05,9.8767807e-05,-1.5154503e-04,6.8594884e-03,9.8767901e-03,-1.5154518e-02
1.9999981e-02,-6.6062322e-06,6.1207545e-04,-1.4197404e-04,2.3126154e-03,6.2512985e-02,2.5494199e-03,-1.4501174e-03,-2.4034234e-03,-8.7126642e-04,-1.5187137e-01,-2.5021936e-01,-7.1972207e-02
2.9999971e-02,-2.1894725e-05,-9.0529083e-05,-1.0405070e-04,-1.5469184e-03,-7.0260799e-02,-1.4975552e-03,2.4327093e-04,4.3137651e-04,-6.3814684e-04,1.6933899e-01,2.8348027e-01,2.3311980e-02
3.9999962e-02,6.2284155e-05,-1.3830651e-04,-6.8928287e-05,8.4222352e-03,-4.7731593e-03,8.4161581e-03,1.3741536e-04,6.8269263e-04,-5.9365569e-04,-1.0585567e-02,2.5131636e-02,4.4491191e-03
4.9999952e-02,1.9513731e-04,-4.9578948e-04,1.8487033e-04,1.3240680e-02,-3.5735931e-02,1.3363035e-02,1.0606937e-03,1.9862276e-03,5.0591242e-04,9.2327921e-02,1.3035362e-01,1.0995692e-01
5.9999943e-02,3.1236871e-04,1.0330067e-04,1.1798873e-04,1.1705050e-02,5.9904401e-02,1.1765036e-02,-2.6484264e-04,-6.6190178e-04,1.9060993e-04,-1.3255376e-01,-2.6481319e-01,-3.1530279e-02
6.9999933e-02,3.6016465e-04,1.1651690e-04,1.5323137e-04,4.7770807e-03,1.3207690e-03,4.7823503e-03,-4.2159022e-04,-6.0019197e-04,4.0993207e-04,-1.5674773e-02,6.1709873e-03,2.1932234e-02
7.9999924e-02,3.3265141e-04,1.3840893e-04,1.4874134e-04,-2.7511115e-03,2.1899881e-03,-2.7509175e-03,-4.8567929e-04,-7.7023720e-04,4.6421990e-04,-6.4089129e-03,-1.7004539e-02,5.4287884e-03
8.9999914e-02,2.8240806e-04,9.1104703e-05,1.0287328e-04,-5.0214643e-03,-4.7307373e-03,-5.0269231e-03,-2.9495197e-04,-2.3314465e-04,2.9463570e-04,1.9072750e-02,5.3709306e-02,-1.6958436e-02
9.9999905e-02,2.7060639e-04,1.1590730e-04,1.5881873e-04,-1.1807139e-03,2.4803697e-03,-1.1793960e-03,-4.0755034e-04,-4.9873279e-04,3.9371983e-04,-1.1259848e-02,-2.6558839e-02,9.9084220e-03
1.0999990e-01,1.8849398e-04,8.0591084e-05,8.0481055e-05,-8.2090999e-03,-3.5301158e-03,-8.2140451e-03,-2.0481178e-04,-3.8853622e-04,1.7352338e-04,2.0273876e-02,1.1019667e-02,-2.2019666e-02
1.1999989e-01,1.1693877e-04,-3.3457743e-05,-9.1839693e-06,-7.1559629e-03,-1.1406475e-02,-7.1525719e-03,-6.3050827e-05,1.5806184e-04,-1.6122912e-04,1.4176109e-02,5.4659858e-02,-3.3475282e-02
1.2999988e-01,7.1691773e-05,-6.4834354e-05,-6.1684103e-05,-4.5265446e-03,-3.1390098e-03,-4.5219288e-03,7.2201129e-05,3.6979031e-04,-3.5678665e-04,1.3525209e-02,2.1172867e-02,-1.9555772e-02
1.3999987e-01,2.5600731e-05,-6.3174143e-05,-6.2135839e-05,-4.6106486e-03,1.6631941e-04,-4.6075573e-03,9.1576451e-05,2.6896005e-05,-3.3749121e-04,1.9375340e-03,-3.4289463e-02,1.9295458e-03
1.4999986e-01,1.2853365e-05,1.2733055e-05,-4.1505812e-05,-1.2742513e-03,7.5914818e-03,-1.2707233e-03,9.3897534e-05,-4.9903373e-04,-1.7751635e-04,2.3210852e-04,-5.2593024e-02,1.5997502e-02
1.5999985e-01,7.8448079e-05,7.3037825e-04,-8.5584139e-05,6.4429217e-03,7.1751718e-02,6.8109673e-03,-1.6608249e-03,-3.5405726e-03,-4.0278727e-04,-1.7547241e-01,-3.0415417e-01,-2.2527113e-02
1.6999984e-01,4.0849527e-05,6.5570516e-04,-1.4858307e-04,-3.7509446e-03,-7.4621267e-03,-3.7790167e-03,-1.5150217e-03,-2.8865609e-03,-6.3940644e-04,1.4580331e-02,6.5401231e-02,-2.3661940e-02
1.7999983e-01,1.2486283e-05,-1.1101502e-04,-6.5564471e-05,-2.8451264e-03,-7.6673475e-02,-2.7897039e-03,1.0090731e-04,5.9418113e-04,-3.7467690e-04,1.6159305e-01,3.4807453e-01,2.6472979e-02
1.8999982e-01,8.5827888e-05,8.6250576e-06,6.9806009e-06,7.3337653e-03,1.1965898e-02,7.3315031e-03,-6.0532389e-05,1.9576937e-04,-4.3906980e-05,-1.6143985e-02,-3.9841214e-02,3.3077024e-02
1.9999981e-01,2.2025145e-04,9.1068112e-05,1.2670612e-04,1.3435280e-02,8.2449315e-03,1.3449074e-02,-3.0600417e-04,-2.5987724e-04,3.3954242e-04,-2.4547201e-02,-4.5564704e-02,3.8344977e-02
2.0999980e-01,2.5466290e-04,5.5097601e-05,1.0950917e-04,3.4409968e-03,-3.5958790e-03,3.4425280e-03,-2.0928194e-04,1.3225884e-04,2.6272650e-04,9.6722318e-03,3.9213645e-02,-7.6815996e-03
2.1999979e-01,2.8045290e-04,1.8881667e-05,1.0176691e-04,2.5795582e-03,-3.6202491e-03,2.5803391e-03,-2.4932717e-04,2.7313290e-04,1.3469331e-04,-4.0045269e-03,1.4087419e-02,-1.2803331e-02
2.2999978e-01,3.1322725e-04,7.5751655e-05,1.1881365e-04,3.2751759e-03,5.6870366e-03,3.2796435e-03,-2.8369403e-04,-2.7364629e-04,1.9802022e-04,-3.4366890e-03,-5.4677971e-02,6.3326970e-03
2.3999977e-01,2.9417472e-04,2.2027112e-05,9.5681202e-05,-1.9046560e-03,-5.3723415e-03,-1.9061867e-03,-9.7963769e-05,-1.5985019e-04,3.8209768e-05,1.8573044e-02,1.1379621e-02,-1.5981061e-02
2.5000000e-01,2.5330065e-04,-4.4423088e-04,2.2611277e-04,-4.1284534e-03,-4.6627761e-02,-4.0107025e-03,9.4057585e-04,1.7018953e-03,6.6327045e-04,1.0385158e-01,1.8617029e-01,6.2504637e-02
2.5999999e-01,1.8471081e-04,-4.3583853e-04,1.8619179e-04,-6.8541710e-03,8.3398994e-04,-6.8644473e-03,9.8690871e-04,1.7505085e-03,5.8133679e-04,4.6332909e-03,4.8613291e-03,-8.1933732e-03
2.6999998e-01,1.2583716e-04,-4.6902822e-04,1.5959972e-04,-5.8867746e-03,-3.3244915e-03,-5.8848518e-03,9.3790212e-04,1.8754371e-03,6.2931912e-04,-4.9006633e-03,1.2492874e-02,4.7982375e-03
2.7999997e-01,8.7283847e-05,-9.9303649e-06,-1.7788514e-05,-3.8591670e-03,4.5910082e-02,-3.8484876e-03,-8.0335323e-05,-1.4600374e-04,-3.7360600e-05,-1.0182384e-01,-2.0214428e-01,-6.6668036e-02
2.8999996e-01,4.4094199e-05,-3.3842431e-05,-3.6413646e-05,-4.3188795e-03,-2.3917132e-03,-4.3187791e-03,-3.1862767e-05,8.4901723e-05,3.0712442e-06,4.8472602e-03,2.3090568e-02,4.0431882e-03
2.9999995e-01,5.7077780e-05,-7.6531609e-06,-2.2544116e-05,1.2978542e-03,2.6192644e-03,1.2981887e-03,-1.3840625e-04,1.1958700e-04,1.0985450e-04,-1.0654359e-02,3.4685309e-03,1.0678335e-02
3.0999994e-01,1.0586960e-04,9.3671019e-05,4.0214428e-05,4.8763020e-03,1.0130809e-02,4.8854276e-03,-1.7392252e-04,-5.0527400e-04,2.2997251e-04,-3.5516299e-03,-6.2486159e-02,1.2011813e-02
3.1999993e-01,1.2346828e-04,8.9222482e-05,7.2327967e-05,1.7595369e-03,-4.4558740e-04,1.7600180e-03,-1.5938623e-04,-5.7594189e-04,2.2966195e-04,1.4536302e-03,-7.0667956e-03,-3.1056573e-05
3.2999992e-01,2.0599582e-05,-7.3056232e-05,-3.3447406e-05,-1.0292811e-02,-1.6232119e-02,-1.0274262e-02,1.4811016e-04,5.6000217e-04,-3.4297121e-04,3.0749669e-02,1.1359451e-01,-5.7263370e-02
3.3999991e-01,-3.4622079e-06,-7.1832540e-05,-7.7541230e-05,-2.4072547e-03,1.2177032e-04,-2.4051379e-03,1.6698116e-04,4.1608220e-04,-4.5469105e-04,1.8871013e-03,-1.4392011e-02,-1.1171995e-02
3.4999990e-01,7.9086855e-05,-1.4049734e-04,-6.3992893e-05,8.2586219e-03,-6.8606881e-03,8.2560269e-03,1.9308421e-04,8.9575548e-04,-6.0997549e-04,2.6103073e-03,4.7967374e-02,-1.5528459e-02
3.5999990e-01,1.9984932e-04,-4.8299302e-04,1.5402396e-04,1.2032804e-02,-3.4236102e-02,1.2157634e-02,1.1515890e-03,2.2594740e-03,3.3153833e-04,9.5850569e-02,1.3637198e-01,9.4151472e-02
3.6999989e-01,1.9367729e-04,-5.3299644e-05,-1.9863968e-07,-6.1708459e-04,4.2969095e-02,-6.3673215e-04,8.0413304e-06,4.5974907e-04,-3.6711430e-04,-1.1435487e-01,-1.7997266e-01,-6.9865329e-02
3.7999988e-01,2.2159066e-04,2.9773394e-05,6.7338286e-05,2.7898331e-03,8.3075328e-03,2.7921884e-03,-1.6265656e-04,-8.3389686e-05,5.5760390e-05,-1.7069806e-02,-5.4313928e-02,4.2287509e-02
3.8999987e-01,3.0369522e-04,1.5536774e-04,1.5776880e-04,8.2004645e-03,1.2557185e-02,8.2239056e-03,-4.5735407e-04,-7.3179052e-04,5.1809766e-04,-2.9469779e-02,-6.4840146e-02,4.6233771e-02
3.9999986e-01,3.9249810e-04,2.2516412e-04,2.2397344e-04,8.8690423e-03,6.9768497e-03,8.8937281e-03,-6.6751684e-04,-9.8099884e-04,7.4207421e-04,-2.1016297e-02,-2.4920855e-02,2.2397677e-02
4.0999985e-01,3.1842032e-04,1.8166473e-04,1.7499955e-04,-7.4009992e-03,-4.3473777e-03,-7.4160692e-03,-5.3040210e-04,-8.7591189e-04,6.0424934e-04,1.3711487e-02,1.0508705e-02,-1.3782499e-02
4.1999984e-01,1.5693558e-04,9.4823406e-05,7.0131352e-05,-1.6142018e-02,-8.6788638e-03,-1.6157792e-02,-2.9933790e-04,-6.2581268e-04,2.3963284e-04,2.3106442e-02,2.5009945e-02,-3.6461685e-02
4.2999983e-01,9.6589379e-05,2.5081449e-05,-7.3859046e-06,-6.0331843e-03,-6.9740734e-03,-6.0362167e-03,-1.9238350e-04,-2.1370312e-04,1.6568749e-05,1.0695450e-02,4.1210996e-02,-2.2306430e-02
4.3999982e-01,1.4154503e-04,-4.3308177e-04,1.8150721e-04,4.4487343e-03,-4.5812704e-02,4.5787002e-03,9.4877229e-04,1.7417524e-03,7.4805141e-04,1.1411569e-01,1.9554574e-01,7.3148336e-02
4.4999981e-01,1.4562882e-04,-4.1731544e-04,1.7626952e-04,4.0973624e-04,1.5768705e-03,4.0609909e-04,1.0260455e-03,1.6123757e-03,6.3822556e-04,7.7273277e-03,-1.2937678e-02,-1.0982596e-02
4.5999980e-01,5.6076839e-05,-4.0137766e-04,1.1504604e-04,-8.9480716e-03,1.5875975e-03,-8.9634342e-03,9.7281473e-04,1.6618748e-03,6.2299287e-04,-5.3230815e-03,4.9499099e-03,-1.5232705e-03
4.6999979e-01,1.2310226e-04,6.9934126e-04,-9.7363059e-05,6.5158617e-03,1.1006182e-01,7.0449420e-03,-1.7215881e-03,-3.1355369e-03,-4.2110363e-04,-2.6944054e-01,-4.7974163e-01,-1.0440975e-01
4.7999978e-01,1.5600128e-04,-8.1524844e-06,1.1933335e-05,3.2888887e-03,-7.0748548e-02,3.3100776e-03,2.0278849e-05,2.9103838e-04,-1.2716221e-04,1.7418686e-01,3.4265786e-01,2.9394171e-02
4.8999977e-01,1.7169143e-04,1.2582572e-06,7.4017588e-05,1.5690476e-03,9.4177845e-04,1.5685639e-03,-5.0420472e-05,3.9795288e-04,-4.9869406e-05,-7.0699389e-03,1.0691460e-02,7.7292874e-03
5.0000000e-01,1.4829535e-04,2.2221123e-04,1.7544344e-04,-2.3389133e-03,2.2098236e-02,-2.3074427e-03,-8.6302191e-06,-1.4908929e-03,3.5552449e-04,4.1789296e-03,-1.8888025e-01,4.0538462e-02
5.0999999e-01,1.0703167e-04,1.7282876e-04,1.1686453e-04,-4.1255480e-03,-4.9343854e-03,-4.1318176e-03,-1.1238895e-05,-9.4738765e-04,1.8629490e-04,-2.6086788e-04,5.4350576e-02,-1.6922975e-02
5.1999998e-01,1.8984704e-04,3.1204709e-05,8.6938270e-05,8.2824186e-03,-1.4159905e-02,8.2849685e-03,-7.8237099e-05,2.2517652e-04,2.8327538e-05,-6.6998267e-03,1.1725653e-01,-1.5796751e-02
5.2999997e-01,2.5703648e-04,8.4222234e-05,9.8558335e-05,6.7165146e-03,5.3028697e-03,6.7205074e-03,-3.0783982e-04,-1.4224812e-04,1.1953064e-04,-2.2960294e-02,-3.6742499e-02,9.1203192e-03
5.3999996e-01,2.0224881e-04,1.2818047e-05,1.7364041e-05,-5.4779047e-03,-7.1410310e-03,-5.4788503e-03,-1.7533049e-04,-6.4798951e-05,-7.0208941e-05,1.3250945e-02,7.7449244e-03,-1.8973977e-02
5.4999995e-01,1.9860247e-04,-4.8164546e-04,1.8875263e-04,-4.1055302e-04,-4.9446629e-02,-2.7283761e-04,9.3380571e-04,1.8622545e-03,6.9563309e-04,1.1091373e-01,1.9270553e-01,7.6584276e-02
5.5999994e-01,2.5400988e-04,-4.8891949e-04,1.6781279e-04,5.5365448e-03,-7.2060740e-04,5.5458310e-03,9.6631884e-04,2.1913285e-03,6.3067255e-04,3.2513164e-03,3.2907426e-02,-6.4960603e-03
5.6999993e-01,3.2649685e-04,-5.0330086e-04,2.5274879e-04,7.2417038e-03,-1.4295208e-03,7.2574005e-03,8.4089474e-04,2.0276463e-03,7.9823837e-04,-1.2542423e-02,-1.6368232e-02,1.6756598e-02
5.7999992e-01,-4.4873445e-04,-1.1221466e-03,-7.2198442e-04,-7.8201207e-02,-6.2368613e-02,-7.6446906e-02,3.0195576e-03,9.3610794e-03,-6.3602586e-03,2.1786650e-01,7.3334401e-01,-7.1585038e-01
5.8999991e-01,-8.0621165e-05,-3.7274783e-04,-2.1979806e-04,3.6950340e-02,7.5008338e-02,3.6531773e-02,9.1160923e-04,2.7835621e-03,-1.9217754e-03,-2.1079504e-01,-6.5775235e-01,4.4384874e-01
5.9999990e-01,-1.6177152e-05,-2.3036846e-04,-9.7454861e-05,6.4613459e-03,1.4243672e-02,6.4147366e-03,7.1042820e-04,1.6032386e-03,-1.0596405e-03,-2.0118123e-02,-1.1803247e-01,8.6213575e-02
6.0999990e-01,1.8425055e-04,4.8980970e-05,8.4259234e-05,2.0034099e-02,2.7938232e-02,2.0046932e-02,-1.9598970e-04,-3.3219410e-05,1.6041888e-04,-9.0641876e-02,-1.6364595e-01,1.2200605e-01
6.1999989e-01,1.4600888e-04,8.1627044e-06,4.2599723e-05,-3.8241202e-03,-4.0823770e-03,-3.8236376e-03,-3.2252832e-05,1.1067746e-04,-2.1240748e-05,1.6373702e-02,1.4389700e-02,-1.8165980e-02
6.2999988e-01,3.1733953e-05,1.8616085e-05,-3.1546503e-05,-1.1429212e-02,1.0480328e-03,-1.1425549e-02,7.1459595e-05,-1.6428951e-04,-1.5602561e-04,1.0371253e-02,-2.7496723e-02,-1.3478499e-02
6.3999987e-01,2.2264653e-05,7.1104283e-04,-1.7592923e-04,-1.0635581e-03,6.9243469e-02,-7.4920244e-04,-1.6761596e-03,-2.8464089e-03,-5.9866590e-04,-1.7476208e-01,-2.6821220e-01,-4.4264072e-02
6.4999986e-01,5.2002175e-05,6.1928601e-04,-1.5888607e-04,2.9899663e-03,-9.1785254e-03,2.9486469e-03,-1.5262185e-03,-2.4943625e-03,-7.4367430e-04,1.4994124e-02,3.5204682e-02,-1.4500854e-02
6.5999985e-01,5.9281726e-05,-7.0139122e-05,-7.9751257e-05,7.1616047e-04,-6.8942505e-02,7.4639325e-04,1.7578801e-04,2.7205454e-04,-4.4512015e-04,1.7020081e-01,2.7664196e-01,2.9855444e-02
6.6999984e-01,1.5053029e-04,6.8431085e-05,5.0080698e-05,9.1287785e-03,1.3850060e-02,9.1315366e-03,1.4502100e-04,-6.1903089e-04,-2.0862583e-04,-3.0767041e-03,-8.9108628e-02,2.3649455e-02
6.7999983e-01,2.0205292e-04,-2.6529952e-06,2.6332021e-05,5.1524033e-03,-7.1079938e-03,5.1527133e-03,1.0144769e-04,1.8315311e-04,-1.6625603e-04,-4.3573358e-03,8.0218476e-02,4.2369832e-03
6.8999982e-01,2.6572754e-04,5.6309798e-05,1.1652897e-04,6.3654752e-03,5.8973969e-03,6.3684299e-03,-2.4227597e-04,-6.7612092e-05,8.8520380e-05,-3.4372398e-02,-2.5076544e-02,2.5477666e-02
6.9999981e-01,3.4016338e-04,2.1506930e-04,1.8990375e-04,7.4316418e-03,1.5871543e-02,7.4649314e-03,-5.0341233e-04,-1.0953902e-03,5.3138009e-04,-2.6113661e-02,-1.0277791e-01,4.4286013e-02
7.0999980e-01,3.3383273e-04,1.9551465e-04,1.5568715e-04,-6.3187282e-04,-1.9552468e-03,-6.3493389e-04,-4.5082748e-04,-7.9624336e-04,4.9189376e-04,5.2584903e-03,2.9914714e-02,-3.9486366e-03
7.1999979e-01,2.9917215e-04,8.2862171e-05,1.0513551e-04,-3.4609528e-03,-1.1265330e-02,-3.4709305e-03,-3.5100198e-04,-3.2996474e-04,3.3284967e-04,9.9825590e-03,4.6627907e-02,-1.5904424e-02
7.2999978e-01,2.5765964e-04,5.8348071e-05,4.1704525e-05,-4.1500224e-03,-2.4515910e-03,-4.1523814e-03,-2.6136827e-04,-2.1826278e-04,1.4248808e-04,8.9633799e-03,1.1170207e-02,-1.9036178e-02
7.3999977e-01,3.0733408e-04,6.9374905e-05,8.8625685e-05,4.9659519e-03,1.1027935e-03,4.9689200e-03,-3.7006287e-04,-3.4801453e-04,2.1899020e-04,-1.0869470e-02,-1.2975188e-02,7.6502189e-03
7.5000000e-01,2.4104146e-04,4.0479949e-05,6.7140366e-05,-6.6278146e-03,-2.8890032e-03,-6.6305920e-03,-2.3130489e-04,-2.9554771e-04,9.4648900e-05,1.3875480e-02,5.2465621e-03,-1.2433845e-02
7.5999999e-01,9.0396296e-05,-2.0381592e-05,-3.4872110e-05,-1.5067828e-02,-6.0856069e-03,-1.5061456e-02,5.8143598e-05,2.1438052e-05,-1.9540438e-04,2.8944876e-02,3.1698606e-02,-2.9005356e-02
7.6999998e-01,1.9300175e-05,-4.8264859e-05,-4.2748987e-05,-7.1116384e-03,-2.7877929e-03,-7.1078093e-03,1.1085559e-04,3.5418512e-05,-2.4060980e-04,5.2712039e-03,1.3980473e-03,-4.5205463e-03
7.7999997e-01,2.3880027e-05,-3.9166695e-05,-8.2441228e-05,4.5831822e-04,9.0976349e-04,4.5775968e-04,1.9122259e-04,7.3968966e-05,-3.4631714e-04,8.0367084e-03,3.8550491e-03,-1.0570743e-02
7.8999996e-01,7.3536915e-05,-2.1741212e-05,-2.3402346e-05,4.9667469e-03,1.7421986e-03,4.9647632e-03,1.0125129e-04,3.0484554e-05,-1.7662552e-04,-8.9971389e-03,-4.3484454e-03,1.6969178e-02
7.9999995e-01,2.0179074e-05,-8.0022430e-05,-6.7189734e-05,-5.3382587e-03,-5.8314220e-03,-5.3297158e-03,8.8962999e-05,7.0695058e-04,-3.6574120e-04,-1.2288303e-03,6.7646667e-02,-1.8911585e-02
8.0999994e-01,1.8748910e-05,-6.0669259e-05,-4.9002192e-05,-1.4282122e-04,1.9352829e-03,-1.4369817e-04,1.2346014e-04,3.7470466e-04,-3.0493905e-04,3.4497176e-03,-3.3224624e-02,6.0802204e-03
8.1999993e-01,1.0595862e-04,9.5812487e-06,1.1855440e-05,8.7221496e-03,7.0262471e-03,8.7188494e-03,1.6521036e-05,1.5295146e-04,-1.2094284e-04,-1.0693921e-02,-2.2175342e-02,1.8399638e-02
8.2999992e-01,2.1547093e-04,1.1936162e-04,8.1779618e-05,1.0947012e-02,1.0975847e-02,1.0957675e-02,-1.9678837e-04,-3.9762517e-04,1.8893798e-04,-2.1330961e-02,-5.5057715e-02,3.0988112e-02
8.3999991e-01,2.4119014e-04,6.9152312e-05,9.4026766e-05,2.5727415e-03,-5.0207089e-03,2.5715489e-03,-2.1502955e-04,-1.2677565e-04,1.0174880e-04,-1.8241198e-03,2.7084978e-02,-8.7189266e-03
8.4999990e-01,2.5066287e-04,5.7541729e-06,4.8146699e-05,9.4801678e-04,-6.3396017e-03,9.4799262e-04,-1.0742721e-04,1.2292943e-04,-6.4593881e-05,1.0760244e-02,2.4970532e-02,-1.6634284e-02
8.5999990e-01,3.2084586e-04,7.5142531e-05,8.2833233e-05,7.0159405e-03,6.9372856e-03,7.0222082e-03,-2.3734213e-04,-4.5898612e-04,1.0229480e-04,-1.2991504e-02,-5.8191611e-02,1.6688884e-02
8.6999989e-01,3.3402272e-04,6.2752927e-05,1.2326599e-04,1.3178340e-03,-1.2390301e-03,1.3174756e-03,-3.4966879e-04,-4.0166315e-04,2.1712266e-04,-1.1232676e-02,5.7323030e-03,1.1482797e-02
8.7999988e-01,2.8087737e-04,5.6105895e-05,7.6419470e-05,-5.3136766e-03,-6.6499378e-04,-5.3153664e-03,-2.2398047e-04,-1.6939487e-04,1.3435315e-04,1.2568844e-02,2.3226849e-02,-8.2769589e-03
8.8999987e-01,2.1465490e-04,8.5074357e-06,5.3187211e-05,-6.6220819e-03,-4.7604597e-03,-6.6219874e-03,-7.2091861e-05,1.9911222e-05,-2.5895572e-05,1.5188876e-02,1.8930628e-02,-1.6024888e-02
8.9999986e-01,1.5191192e-04,-1.9076934e-05,-2.9264372e-05,-6.2754470e-03,-2.7601500e-03,-6.2724085e-03,-3.9865208e-05,2.3278545e-04,-1.9971110e-04,3.2226684e-03,2.1287443e-02,-1.7381569e-02
9.0999985e-01,2.1764478e-04,6.0438846e-05,5.7697598e-05,6.5700381e-03,7.9515177e-03,6.5766280e-03,-2.8369236e-04,-2.9387669e-04,1.5191043e-04,-2.4382738e-02,-5.2666263e-02,3.5162187e-02
9.1999984e-01,1.8424169e-04,2.4756136e-05,4.7979660e-05,-3.3390296e-03,-3.5690637e-03,-3.3407513e-03,-2.5208751e-04,-1.5758860e-05,1.1465100e-04,3.1604883e-03,2.7811809e-02,-3.7259463e-03
9.2999983e-01,1.6412311e-04,1.0770760e-04,5.3962965e-05,-2.0124356e-03,8.2964064e-03,-2.0061152e-03,-1.2146227e-04,-7.4461380e-04,2.1471772e-04,1.3062536e-02,-7.2885563e-02,1.0006681e-02
9.3999982e-01,1.1708190e-04,4.9197501e-05,1.3572233e-05,-4.7033581e-03,-5.8493710e-03,-4.7069376e-03,-7.1809793e-05,-4.2134001e-04,7.3804375e-05,4.9652529e-03,3.2327409e-02,-1.4091348e-02
9.4999981e-01,1.7623401e-05,-2.2383692e-05,-6.4863746e-05,-9.9484591e-03,-7.1586259e-03,-9.9428998e-03,3.3666988e-05,8.3933962e-05,-2.3715599e-04,1.0547688e-02,5.0527446e-02,-3.1096066e-02
9.5999980e-01,-6.8404966e-05,-1.6537890e-04,-1.4894343e-04,-8.6237540e-03,-1.4301698e-02,-8.5782790e-03,7.8937635e-04,1.0434408e-03,-1.1193385e-03,7.5571008e-02,9.5950775e-02,-8.8218334e-02
9.6999979e-01,-1.0681935e-04,-3.1850444e-04,-2.1720221e-04,-3.8672603e-03,-1.5317082e-02,-3.7972894e-03,1.1951262e-03,2.3889465e-03,-1.9597462e-03,4.0575025e-02,1.3455070e-01,-8.4040855e-02
9.7999978e-01,-5.0380687e-05,-2.3602096e-04,-1.9230184e-04,5.6620357e-03,8.2521736e-03,5.6200468e-03,1.1270487e-03,1.8096448e-03,-1.5731562e-03,-6.8077628e-03,-5.7930224e-02,3.8659040e-02
9.8999977e-01,7.1552833e-05,-1.7915277e-04,-7.2844825e-05,1.2207702e-02,5.6928122e-03,1.2176211e-02,6.7530073e-04,1.1677704e-03,-8.6153404e-04,-4.5174836e-02,-6.4187502e-02,7.1162284e-02
1.0000000e+00,2.9069705e-04,6.5302528e-05,1.1068814e-04,2.1905089e-02,2.4448917e-02,2.1918344e-02,-2.6589134e-04,-8.5697556e-05,1.0631993e-04,-9.4117052e-02,-1.2534393e-01,9.6783182e-02
1.0100000e+00,3.1876642e-04,1.1654583e-04,1.5329394e-04,2.8047937e-03,5.1238445e-03,2.8099787e-03,-2.5077943e-04,-4.2533214e-04,3.0649346e-04,1.5111929e-03,-3.3963491e-02,2.0017372e-02
1.0200000e+00,2.3872800e-04,8.0765680e-05,1.1237871e-04,-8.0015851e-03,-3.5765158e-03,-8.0067841e-03,-1.4265904e-04,-3.3034136e-04,2.1906270e-04,1.0812049e-02,9.4990868e-03,-8.7430842e-03
1.0300000e+00,2.5988801e-04,1.3615602e-04,1.1824918e-04,2.1132147e-03,5.5386158e-03,2.1198938e-03,-3.5676881e-04,-5.5592544e-04,3.8378653e-04,-2.1410997e-02,-2.2558430e-02,1.6472398e-02
1.0400000e+00,3.0924220e-04,7.7830149e-05,1.1949584e-04,4.9363825e-03,-5.8327690e-03,4.9342559e-03,-3.6812023e-04,-4.0399605e-04,2.4067392e-04,-1.1351429e-03,1.5192954e-02,-1.4311274e-02
1.0500000e+00,2.9029603e-04,4.9120975e-05,8.6550353e-05,-1.8937413e-03,-2.8706822e-03,-1.8958565e-03,-2.3353870e-04,-3.5892942e-04,1.0932934e-04,1.3458166e-02,4.5066666e-03,-1.3134471e-02
1.0599999e+00,1.1970120e-04,-5.8026032e-05,-2.9855852e-05,-1.7062647e-02,-1.0718687e-02,-1.7053853e-02,-3.3243536e-05,1.9987782e-04,-2.0541315e-04,2.0029535e-02,5.5880778e-02,-3.1474279e-02
1.0699999e+00,6.0915105e-05,-4.1785612e-04,1.6338862e-04,-5.9074210e-03,-3.5986339e-02,-5.8293569e-03,9.2699873e-04,1.4959566e-03,7.7324707e-04,9.6024319e-02,1.2960801e-01,9.7866116e-02
1.0799999e+00,1.4457077e-04,-4.3032639e-04,1.6652389e-04,8.3581160e-03,-1.2390432e-03,8.3742111e-03,8.8941673e-04,1.8422947e-03,7.5825968e-04,-3.7582045e-03,3.4633835e-02,-1.4987410e-03
1.0899999e+00,2.4009165e-04,4.7117913e-05,3.8568172e-05,9.5481683e-03,4.7742007e-02,9.5683545e-03,-8.5624923e-05,-3.4382757e-04,-1.6623664e-05,-9.7504258e-02,-2.1861243e-01,-7.7488408e-02
1.0999999e+00,1.8510783e-04,3.7468369e-05,2.6725569e-05,-5.4983636e-03,-9.6405697e-04,-5.4985690e-03,-8.4792556e-05,-2.4817567e-04,-1.0538679e-05,8.3236707e-05,9.5651989e-03,6.0849904e-04
1.1099999e+00,2.7880162e-05,-4.8812449e-05,-3.5632660e-05,-1.5726376e-02,-8.6290773e-03,-1.5718645e-02,7.5541178e-05,1.3836791e-04,-1.8716130e-04,1.6033389e-02,3.8654395e-02,-1.7662279e-02
1.1199999e+00,1.1998913e-05,-3.8210617e-05,-3.2517874e-05,-1.5883408e-03,1.0600309e-03,-1.5880143e-03,1.0286842e-04,1.9946316e-04,-2.0370632e-04,2.7327272e-03,6.1095314e-03,-1.6545033e-03
1.1299999e+00,6.5938066e-05,-2.9870912e-05,2.6090335e-06,5.3952392e-03,8.3598971e-04,5.3922887e-03,7.3355792e-05,4.4767294e-04,-2.3318684e-04,-2.9512659e-03,2.4821002e-02,-2.9480553e-03
1.1399999e+00,3.5499270e-05,-4.2135098e-05,-2.3408582e-05,-3.0449711e-03,-1.2270603e-03,-3.0425352e-03,1.9865046e-04,4.0921809e-04,-2.7765552e-04,1.2529478e-02,-3.8454885e-03,-4.4468715e-03
1.1499999e+00,8.3825322e-06,-4.2125916e-05,-4.8145766e-05,-2.7125363e-03,5.7184894e-07,-2.7108163e-03,1.3478555e-04,2.6259257e-04,-3.1722677e-04,-6.3864964e-03,-1.4662566e-02,-3.9571286e-03
1.1599998e+00,4.5644484e-05,-1.9886559e-04,-1.0567666e-04,3.7179480e-03,-1.5671855e-02,3.7433468e-03,7.7026749e-04,1.3374113e-03,-1.0266302e-03,6.3548254e-02,1.0748197e-01,-7.0940410e-02
1.1699998e+00,1.4087638e-04,-2.7226540e-04,-9.8880720e-05,9.5283060e-03,-7.3321316e-03,9.5241416e-03,8.8626258e-04,1.7119433e-03,-1.2205686e-03,1.1599520e-02,3.7453238e-02,-1.9393856e-02
1.1799998e+00,1.0385229e-04,-3.9323025e-04,-1.6807137e-04,-3.7195306e-03,-1.2103813e-02,-3.6611106e-03,8.3228451e-04,2.8281799e-03,-1.9065020e-03,-5.3978129e-03,1.1162377e-01,-6.8593410e-02
1.1899998e+00,2.9575879e-05,-4.7078557e-04,-2.3397900e-04,-7.4490343e-03,-7.7771342e-03,-7.3835210e-03,6.0808543e-04,3.5300501e-03,-2.2470430e-03,-2.2419929e-02,7.0187079e-02,-3.4054127e-02
1.1999998e+00,6.7661573e-05,-3.6296690e-04,-1.8721649e-04,3.8232258e-03,1.0789931e-02,3.7708959e-03,7.5983062e-04,2.8921978e-03,-1.6980015e-03,1.5174533e-02,-6.3785283e-02,5.4904201e-02
1.2099998e+00,1.2742075e-04,-3.4008200e-04,-1.0574405e-04,5.9858932e-03,2.2990073e-03,5.9618918e-03,7.8041301e-04,2.5449106e-03,-1.3707777e-03,2.0582403e-03,-3.4728753e-02,3.2722407e-02
1.2199998e+00,6.7184503e-05,-4.0647401e-04,-1.4467661e-04,-6.0394498e-03,-6.6539110e-03,-5.9914789e-03,7.2246741e-04,3.1752185e-03,-1.8319312e-03,-5.7945653e-03,6.3030846e-02,-4.6115396e-02
1.2299998e+00,1.3965926e-04,-1.3364935e-06,2.3237683e-05,7.2404614e-03,4.0515661e-02,7.2440422e-03,-1.7284256e-04,8.5395086e-05,2.6214836e-06,-8.9531083e-02,-3.0898263e-01,1.8345545e-01
1.2399998e+00,-1.0131167e-04,-2.7093500e-04,-1.6983851e-04,-2.4157143e-02,-2.6984220e-02,-2.4009608e-02,8.8777923e-04,1.9033594e-03,-1.4992715e-03,1.0606228e-01,1.8179661e-01,-1.5018944e-01
1.2500000e+00,-2.9965595e-05,-6.5972964e-05,-8.5388091e-05,7.1555726e-03,2.0490651e-02,7.1278834e-03,8.3826433e-04,1.2686771e-04,-5.5377389e-04,-4.9513761e-03,-1.7764511e-01,9.4547593e-02
1.2600000e+00,2.6803960e-07,-1.0911725e-04,-1.1256977e-04,3.0227578e-03,-4.3144835e-03,3.0239017e-03,6.7616588e-04,6.5909496e-04,-7.6415130e-04,-1.6209861e-02,5.3222776e-02,-2.1037761e-02
1.2700000e+00,6.9294672e-05,-3.8289120e-05,-4.9450561e-05,6.9051930e-03,7.0832892e-03,6.8996633e-03,7.8784956e-05,1.4692017e-04,-2.8474474e-04,-5.9738149e-02,-5.1217528e-02,4.7940702e-02
1.2800000e+00,1.7799329e-05,-9.6249394e-05,-1.1570776e-04,-5.1534089e-03,-5.7973320e-03,-5.1442029e-03,2.0560632e-04,4.5824811e-04,-5.2021087e-04,1.2682148e-02,3.1132824e-02,-2.3546635e-02
1.2900000e+00,8.3236063e-05,-1.5231161e-04,-7.1877558e-05,6.5460606e-03,-5.6014648e-03,6.5453765e-03,1.8202972e-04,9.0994661e-04,-5.1996054e-04,-2.3576615e-03,4.5169893e-02,2.5033142e-05
1.3000000e+00,2.3001522e-04,1.2817726e-04,1.3325743e-04,1.4675398e-02,2.8035541e-02,1.4705984e-02,-4.1173689e-05,-9.5131655e-04,9.3822423e-05,-2.2320363e-02,-1.8612649e-01,6.1378355e-02
1.3099999e+00,1.8467511e-04,2.5764981e-06,4.9626469e-05,-4.5334535e-03,-1.2561806e-02,-4.5298161e-03,-7.2591169e-05,3.0653610e-04,-7.7053628e-05,-3.1417509e-03,1.2578539e-01,-1.7087621e-02
1.3199999e+00,2.0666433e-04,1.0047661e-04,7.8338682e-05,2.1974241e-03,9.7894175e-03,2.2031074e-03,-1.0795726e-04,-3.8197255e-04,2.0173083e-04,-3.5366125e-03,-6.8850931e-02,2.7878472e-02
1.3299999e+00,2.3670497e-04,8.2241588e-05,9.1627142e-05,3.0037164e-03,-1.8240926e-03,3.0040599e-03,-1.5012036e-04,-3.4588310e-04,2.0770702e-04,-4.2163143e-03,3.6089487e-03,5.9762013e-04
1.3399999e+00,3.1444730e-04,1.5967702e-04,1.4091833e-04,7.7680802e-03,7.7404230e-03,7.7835075e-03,-3.6895586e-04,-7.7055329e-04,4.2475453e-04,-2.1883570e-02,-4.2467060e-02,2.1704772e-02
1.3499999e+00,3.2846309e-04,1.2577114e-04,1.5017171e-04,1.4027406e-03,-3.3906788e-03,1.4002066e-03,-5.1185869e-04,-5.7463715e-04,4.0983639e-04,-1.4290297e-02,1.9591632e-02,-1.4918154e-03
1.3599999e+00,2.2690307e-04,-5.8361181e-05,2.2251354e-05,-1.0155663e-02,-1.8418559e-02,-1.0146729e-02,-6.9336299e-05,4.5366686e-04,-9.1386191e-05,4.4252281e-02,1.0283050e-01,-5.0122306e-02
1.3699999e+00,1.2313591e-04,-1.5818501e-04,-8.5592260e-05,-1.0382037e-02,-9.9933307e-03,-1.0360872e-02,5.3286239e-05,1.1085424e-03,-4.6072335e-04,1.2262266e-02,6.5487620e-02,-3.6933751e-02
1.3799999e+00,1.8084616e-04,-4.3907948e-04,1.9398872e-04,5.7407721e-03,-2.8084675e-02,5.8243218e-03,9.4641004e-04,1.7671617e-03,6.3599046e-04,8.9312465e-02,6.5861993e-02,1.0967149e-01
1.3899999e+00,1.6445821e-04,-4.2139715e-04,1.8992055e-04,-1.6359031e-03,1.7671421e-03,-1.6428603e-03,9.9750432e-04,1.6609092e-03,6.8843590e-04,5.1094330e-03,-1.0625264e-02,5.2445487e-03
1.3999999e+00,1.2927447e-04,4.3301062e-05,-1.9320567e-05,-3.5174147e-03,4.6471387e-02,-3.4991918e-03,2.3015321e-05,-4.1056796e-04,-3.0282308e-05,-9.7448993e-02,-2.0714791e-01,-7.1871889e-02
1.4099998e+00,1.2443643e-04,2.3944958e-05,3.0829170e-06,-4.8364069e-04,-1.9355129e-03,-4.8436452e-04,-9.3172120e-05,-2.9814535e-04,-3.4732874e-05,-1.1618755e-02,1.1242272e-02,-4.4505695e-04
1.4199998e+00,1.6982436e-04,8.0200108e-05,2.5466373e-05,4.5370125e-03,5.6246745e-03,4.5416282e-03,-2.1188363e-04,-3.9805527e-04,1.3048085e-04,-1.1871162e-02,-9.9910014e-03,1.6521389e-02
1.4299998e+00,2.3367814e-04,7.0169103e-05,8.2910603e-05,6.3839901e-03,-1.0040932e-03,6.3866236e-03,-1.7633812e-04,-3.3156456e-04,2.4609673e-04,3.5545541e-03,6.6490765e-03,1.1561599e-02
1.4399998e+00,1.7606936e-04,1.5407246e-05,6.5267958e-05,-5.7602743e-03,-5.4771855e-03,-5.7605475e-03,-5.3373312e-06,1.6729936e-04,1.0069417e-04,1.7100095e-02,4.9886440e-02,-1.4540270e-02
1.4499998e+00,2.6784819e-05,-2.9545305e-05,-5.6184131e-05,-1.4932679e-02,-4.4997209e-03,-1.4922912e-02,1.9522889e-04,4.9424731e-04,-2.2328491e-04,2.0056641e-02,3.2694826e-02,-3.2397939e-02
1.4599998e+00,5.9245687e-05,6.4394362e-05,1.9414166e-05,3.2477854e-03,9.3922918e-03,3.2492647e-03,1.2426344e-04,-3.9428192e-04,-1.6275628e-04,-7.0965515e-03,-8.8853008e-02,6.0528678e-03
1.4699998e+00,9.3936712e-05,-1.3980575e-04,-7.1498168e-05,3.4680355e-03,-2.0417142e-02,3.4871313e-03,1.5063083e-04,9.8097731e-04,-5.7829933e-04,2.6367412e-03,1.3752605e-01,-4.1554344e-02
1.4799998e+00,1.4342716e-04,-1.1037949e-04,-3.9697163e-05,4.9522513e-03,2.9453783e-03,4.9442078e-03,1.9644165e-04,7.5268092e-04,-5.3037794e-04,4.5810865e-03,-2.2829661e-02,4.7921435e-03
1.4899998e+00,2.0721775e-04,3.3233222e-05,4.7381198e-05,6.3804374e-03,1.4359414e-02,6.3819051e-03,3.8564395e-05,-2.5476333e-04,-1.2829828e-04,-1.5787740e-02,-1.0074452e-01,4.0208005e-02
1.5000000e+00,2.3271290e-04,7.9180163e-05,7.3062218e-05,2.5480845e-03,4.5940862e-03,2.5517337e-03,-2.4247160e-04,-4.3937863e-04,1.0126862e-04,-2.8102957e-02,-1.8461107e-02,2.2956165e-02
1.5100000e+00,2.9769732e-04,5.4043941e-05,7.1928424e-05,6.4984641e-03,-2.5125931e-03,6.4988322e-03,-2.6834556e-04,-1.0961582e-04,1.0138455e-04,-2.5873982e-03,3.2976312e-02,1.1593252e-05
1.5200000e+00,3.7670666e-04,1.0896403e-04,1.1611932e-04,7.8960547e-03,5.4928920e-03,7.9052140e-03,-3.6768379e-04,-2.5637132e-04,3.6272062e-04,-9.9338324e-03,-1.4675564e-02,2.6133631e-02
1.5300000e+00,3.2059520e-04,1.0089798e-04,1.2384888e-04,-5.6083385e-03,-8.0668619e-04,-5.6139516e-03,-4.0489664e-04,-3.9021391e-04,4.4295120e-04,-3.7212884e-03,-1.3384272e-02,8.0230656e-03
1.5400000e+00,2.5266741e-04,7.6825709e-05,8.9895357e-05,-6.7894565e-03,-2.4066655e-03,-6.7963113e-03,-2.6727163e-04,-3.5017726e-04,3.9514456e-04,1.3762514e-02,4.0036685e-03,-4.7806682e-03
1.5500000e+00,2.1923947e-04,3.1926669e-05,5.5789565e-05,-3.3413074e-03,-4.4906255e-03,-3.3433232e-03,-2.0635614e-04,8.2360728e-06,1.6848099e-04,6.0915548e-03,3.5841368e-02,-2.2666379e-02
1.5599999e+00,2.3671265e-04,1.7316997e-05,4.4875583e-05,1.7475377e-03,-1.4607373e-03,1.7472936e-03,-1.3243986e-04,-7.1432418e-08,-1.4482489e-05,7.3916351e-03,-8.3075131e-04,-1.8296365e-02
1.5699999e+00,1.6773549e-04,8.0957944e-05,9.8041639e-06,-6.8982847e-03,6.3670105e-03,-6.8944740e-03,-9.6619084e-05,-5.1857428e-04,7.6064637e-06,3.5820809e-03,-5.1850334e-02,2.2088974e-03
1.5799999e+00,1.0755676e-04,6.3599823e-05,-5.9949629e-06,-6.0181380e-03,-1.7319378e-03,-6.0187352e-03,2.2150834e-05,-6.2188281e-04,-3.6768654e-05,1.1877003e-02,-1.0330862e-02,-4.4375160e-03
1.5899999e+00,4.4555309e-05,-2.6447565e-05,-6.3304802e-05,-6.3034420e-03,-9.0031144e-03,-6.2991935e-03,1.6778985e-04,-9.1417057e-05,-2.8255622e-04,1.4563916e-02,5.3046625e-02,-2.4578780e-02
1.5999999e+00,7.4407793e-05,6.6071609e-04,-1.7023765e-04,2.8820624e-03,6.8712340e-02,3.1747960e-03,-1.5379341e-03,-2.7934182e-03,-8.3645080e-04,-1.7057256e-01,-2.7020037e-01,-5.5389511e-02
1.6099689e+00,2.6820082e-05,-9.3225086e-05,-8.6449361e-05,-4.7882981e-03,-7.5630916e-02,-4.7217817e-03,1.6268477e-04,6.5263476e-04,-5.0782590e-04,1.7059079e-01,3.4567703e-01,3.2964693e-02
1.6199689e+00,1.2996525e-05,-1.1669383e-04,-7.4401192e-05,-1.3834332e-03,-2.3477723e-03,-1.3797565e-03,2.0722242e-04,8.5645907e-04,-4.2679856e-04,4.4537686e-03,2.0382451e-02,8.1027419e-03
1.6299689e+00,-3.5568508e-05,-2.9311480e-04,-1.2624777e-04,-4.8847124e-03,-1.7647466e-02,-4.8085399e-03,1.1792637e-03,2.2969043e-03,-1.5255486e-03,9.7204225e-02,1.4404466e-01,-1.0987511e-01
1.6399689e+00,5.5113633e-05,-2.4327375e-04,-6.0422198e-05,9.0819940e-03,4.9924184e-03,9.0498516e-03,1.0108459e-03,1.9303365e-03,-9.6401276e-04,-1.6841799e-02,-3.6656819e-02,5.6153638e-02
1.6499689e+00,2.0930041e-04,2.1648031e-05,6.5564105e-05,1.5413087e-02,2.6496688e-02,1.5416592e-02,-1.4173338e-04,1.4910377e-04,1.2002952e-04,-1.1525804e-01,-1.7812344e-01,1.0840433e-01
1.6599689e+00,2.7649819e-04,3.1818786e-05,1.0111984e-04,6.7183411e-03,1.0182595e-03,6.7210469e-03,-3.3493129e-04,-1.5883859e-04,1.6392247e-04,-1.9319810e-02,-3.0794266e-02,4.3892988e-03
1.6699688e+00,3.1568450e-04,9.6170210e-05,7.9523311e-05,3.9159277e-03,6.4343891e-03,3.9225875e-03,-3.1856654e-04,-5.1197391e-04,1.6781761e-04,1.6364764e-03,-3.5313565e-02,3.8951385e-04
1.6799688e+00,2.9383725e-04,-4.6101953e-04,2.4326563e-04,-2.2350078e-03,-5.5721132e-02,-2.0775715e-03,9.3330792e-04,1.9547644e-03,7.8783317e-04,1.2518757e-01,2.4667406e-01,6.2001616e-02
1.6899688e+00,2.6208046e-04,-5.1350743e-04,1.9170231e-04,-3.1789499e-03,-5.2533561e-03,-3.1648502e-03,1.0025322e-03,2.4432238e-03,6.2713180e-04,6.9224322e-03,4.8845990e-02,-1.6070152e-02
1.6999688e+00,2.1167455e-04,-4.6915528e-04,1.5610492e-04,-5.0332069e-03,4.4296816e-03,-5.0528347e-03,9.9529780e-04,2.0903454e-03,5.8950688e-04,-7.2343749e-04,-3.5287877e-02,-3.7624958e-03
1.7099688e+00,2.0406535e-04,-2.0694098e-05,-3.7397746e-06,-7.6670493e-04,4.4845836e-02,-7.7412924e-04,-1.2627605e-04,2.9726880e-04,-1.5973913e-04,-1.1215749e-01,-1.7930783e-01,-7.4924672e-02
1.7199688e+00,2.1861351e-04,3.2136701e-05,7.1332274e-05,1.4535143e-03,5.2833595e-03,1.4551224e-03,-1.9432552e-04,-5.5216614e-06,1.8987036e-04,-6.8049528e-03,-3.0279075e-02,3.4960982e-02
1.7299688e+00,1.2099850e-04,2.2967141e-05,3.8245011e-05,-9.7595150e-03,-9.1691653e-04,-9.7635089e-03,8.2243726e-06,4.0849889e-06,2.0515384e-04,2.0255008e-02,9.6066594e-04,1.5283501e-03
1.7399688e+00,7.3444978e-05,3.8001850e-06,1.3232359e-05,-4.7552987e-03,-1.9167146e-03,-4.7554082e-03,4.5590210e-05,4.9209425e-05,3.0619830e-05,3.7365873e-03,4.5124479e-03,-1.7453418e-02
1.7499690e+00,5.7663034e-05,-2.3904364e-06,-1.9742043e-05,-1.5784040e-03,-6.1896150e-04,-1.5779465e-03,9.1829491e-05,3.7044503e-05,-1.1966989e-04,4.6238222e-03,-1.2164644e-03,-1.5028628e-02
1.7599690e+00,4.9989244e-05,6.9515678e-04,-1.0787856e-04,-8.7747280e-04,6.9755448e-02,-5.6194171e-04,-1.5736047e-03,-2.9397867e-03,-4.2700685e-04,-1.6654358e-01,-2.9768340e-01,-3.0733726e-02
1.7699690e+00,4.1738900e-05,6.7691736e-04,-1.1614851e-04,-8.2246540e-04,-1.8229653e-03,-8.2974938e-04,-1.6371707e-03,-2.8124952e-03,-5.0609887e-04,-6.3566082e-03,1.2729160e-02,-7.9092096e-03
1.7799690e+00,3.6592408e-05,-1.2815002e-04,-9.9447300e-05,-5.2253210e-04,-8.0507154e-02,-4.4967783e-04,9.4539493e-05,8.0361184e-04,-5.2739015e-04,1.7317119e-01,3.6161105e-01,-2.1291298e-03
1.7899690e+00,2.1926901e-04,-4.7240827e-04,1.7333130e-04,1.8222532e-02,-3.4405670e-02,1.8350612e-02,1.0729675e-03,2.1715806e-03,4.4860748e-04,9.7842892e-02,1.3679700e-01,9.7599856e-02
1.7999690e+00,2.7889812e-04,-1.6010386e-05,2.1279306e-05,5.9623486e-03,4.5641586e-02,5.9500429e-03,-4.2609898e-05,2.5191875e-04,-2.3084437e-04,-1.1155784e-01,-1.9196636e-01,-6.7945250e-02
1.8099689e+00,2.7684026e-04,1.1682232e-05,7.4208203e-05,-2.0634736e-04,2.7692216e-03,-2.0580016e-04,-2.1005021e-04,-2.1350712e-06,9.8019445e-05,-1.6744048e-02,-2.5405406e-02,3.2886413e-02
1.8199689e+00,8.1600647e-05,-2.6931459e-04,-8.4965179e-05,-1.9581242e-02,-2.8116134e-02,-1.9442818e-02,1.1481437e-03,1.9958152e-03,-1.2819427e-03,1.3581952e-01,1.9979521e-01,-1.3799635e-01
1.8299689e+00,1.3977647e-04,-3.5798988e-04,-5.8231893e-05,5.8164910e-03,-8.8578699e-03,5.8333920e-03,1.0559374e-03,2.7151070e-03,-1.4224648e-03,-9.2206436e-03,7.1929250e-02,-1.4052219e-02
1.8399689e+00,9.3908450e-05,-4.4610953e-04,-1.3403935e-04,-4.6012277e-03,-8.8249844e-03,-4.5471775e-03,7.0165728e-04,3.5573014e-03,-1.7978771e-03,-3.5428042e-02,8.4219521e-02,-3.7541262e-02
1.8499689e+00,1.9605913e-04,7.5479395e-06,5.2724350e-05,1.0209877e-02,4.5368443e-02,1.0208492e-02,-1.0946886e-04,1.5031835e-04,2.2940213e-05,-8.1112691e-02,-3.4069863e-01,1.8208190e-01
1.8599689e+00,1.5586253e-04,-1.9308156e-05,-3.3364280e-06,-4.0201164e-03,-2.6865955e-03,-4.0185536e-03,3.1525056e-06,2.4785145e-04,-1.1052928e-04,1.1262147e-02,9.7533190e-03,-1.3346962e-02
1.8699689e+00,1.5602771e-04,-1.8329824e-05,-3.0374452e-06,1.6514489e-05,9.7834498e-05,1.6513787e-05,-5.8597829e-05,1.3948015e-05,-1.5350828e-04,-6.1750393e-03,-2.3390366e-02,-4.2979042e-03
1.8799689e+00,1.7857511e-04,-4.0142005e-04,2.1010263e-04,2.2167654e-03,-3.8308346e-02,2.3039900e-03,9.4417113e-04,1.2391545e-03,8.0066968e-04,1.0027699e-01,1.2252077e-01,9.5417887e-02
1.8899689e+00,1.0305771e-04,-4.0714738e-04,1.4003894e-04,-7.5463481e-03,-5.7559848e-04,-7.5569259e-03,9.3553281e-04,1.3140187e-03,7.8522889e-04,-8.6383248e-04,7.4864318e-03,-1.5440805e-03
1.8999689e+00,5.4545922e-05,-3.9518582e-04,1.3361087e-04,-4.8465101e-03,1.1948302e-03,-4.8561782e-03,9.7273956e-04,1.2449914e-03,7.2269526e-04,3.7206785e-03,-6.9027406e-03,-6.2533691e-03
1.9099689e+00,9.3614528e-05,1.2706657e-05,-4.2277207e-06,3.9060813e-03,4.0788379e-02,3.9171160e-03,-2.1656309e-05,-2.5379638e-04,-2.5691174e-05,-9.9439682e-02,-1.4987892e-01,-7.4838714e-02
1.9199688e+00,1.2016386e-04,-4.9216606e-07,2.1314407e-05,2.6550771e-03,-1.3196164e-03,2.6549272e-03,2.6489116e-05,1.2712756e-04,-6.6417296e-05,4.8145471e-03,3.8092430e-02,-4.0726161e-03
1.9299688e+00,6.3973096e-05,-7.3783516e-05,9.3178060e-06,-5.6205110e-03,-7.3316792e-03,-5.6143405e-03,1.1059969e-04,5.6241662e-04,-1.1009498e-04,8.4110658e-03,4.3528947e-02,-4.3677724e-03
1.9399688e+00,2.7718577e-05,-7.1925976e-05,-2.1276341e-05,-3.6263192e-03,1.8460502e-04,-3.6246500e-03,2.6100369e-04,5.7810989e-04,-2.5171393e-04,1.5040413e-02,1.5693286e-03,-1.4161909e-02
1.9499688e+00,1.3061464e-04,-5.9703803e-05,4.5140040e-05,1.0291881e-02,1.2293987e-03,1.0286495e-02,1.1685537e-04,8.1488177e-04,-2.0625401e-04,-1.4414845e-02,2.3677210e-02,4.5459960e-03
1.9599688e+00,2.6240382e-04,7.1856217e-05,1.3229038e-04,1.3175281e-02,1.3155377e-02,1.3183216e-02,-1.6339229e-04,-2.1174643e-04,1.1381197e-04,-2.8024793e-02,-1.0266292e-01,3.2006629e-02
1.9699688e+00,1.9300257e-04,9.2320680e-06,2.9334390e-05,-6.9412742e-03,-6.2633439e-03,-6.9381562e-03,-3.4290854e-05,9.8738548e-05,-1.9555782e-04,1.2910156e-02,3.1048527e-02,-3.0937009e-02
1.9799688e+00,1.5749249e-04,-4.3933144e-04,1.6536537e-04,-3.5967758e-03,-4.4858348e-02,-3.4795399e-03,1.0679268e-03,1.6416253e-03,6.0158582e-04,1.1022187e-01,1.5428882e-01,7.9714440e-02
1.9899688e+00,2.0746197e-04,-4.5244888e-04,1.6851419e-04,4.9921147e-03,-1.3082805e-03,5.0026927e-03,1.0409037e-03,1.7326196e-03,6.9408437e-04,-2.7023186e-03,9.0994453e-03,9.2498635e-03
1.9999690e+00,3.2083895e-04,1.8042553e-05,4.2913821e-05,1.1329094e-02,4.7048077e-02,1.1345735e-02,-1.6315265e-04,-1.6212611e-04,5.8962143e-05,-1.2040288e-01,-1.8947024e-01,-6.3510769e-02
2.0099690e+00,8.6667916e-05,-4.1067292e-04,-1.7698637e-04,-2.3494347e-02,-4.2921973e-02,-2.3246859e-02,8.5195597e-04,3.0178653e-03,-1.7397909e-03,1.0151096e-01,3.1799945e-01,-1.7987548e-01
2.0199690e+00,1.2311247e-05,-3.5245507e-04,-2.0515691e-04,-7.4427730e-03,5.8085366e-03,-7.4389364e-03,8.2985202e-04,2.6135796e-03,-1.6060801e-03,-2.2103966e-03,-4.0428612e-02,1.3371095e-02
2.0299690e+00,3.2498888e-05,-2.4187912e-04,-9.2711799e-05,2.0274315e-03,1.1059256e-02,2.0009653e-03,6.1574965e-04,1.4411253e-03,-9.2033078e-04,-2.1410257e-02,-1.1724554e-01,6.8574996e-02
2.0399690e+00,9.6277527e-05,-1.7077178e-04,-4.9173949e-05,6.3869010e-03,7.1132367e-03,6.3660379e-03,6.5851073e-04,1.0514888e-03,-6.8226586e-04,4.2761124e-03,-3.8963687e-02,2.3806514e-02
2.0499690e+00,4.1673220e-05,-2.0195653e-04,-9.1410845e-05,-5.4684369e-03,-3.1218661e-03,-5.4504836e-03,7.9505962e-04,1.4178342e-03,-1.0120434e-03,1.3654902e-02,3.6634578e-02,-3.2977787e-02
2.0599689e+00,-8.6297373e-05,-2.5691804e-04,-1.9561789e-04,-1.2821814e-02,-5.5098119e-03,-1.2766396e-02,1.0037707e-03,2.0750721e-03,-1.5039799e-03,2.0871131e-02,6.5723850e-02,-4.9193693e-02
2.0699689e+00,-1.1887305e-04,3.5860139e-04,-3.0918631e-04,-3.2943409e-03,6.1552414e-02,-3.2125009e-03,-5.0050116e-04,-6.3424518e-04,-1.8324171e-03,-1.5042733e-01,-2.7093199e-01,-3.2843749e-02
2.0799689e+00,-7.5293118e-07,1.0683230e-05,-1.5562126e-05,1.1793366e-02,-3.4804725e-02,1.1792720e-02,7.2416922e-04,-3.6699658e-04,-5.5389268e-04,1.2246715e-01,2.6724886e-02,1.2785256e-01
2.0899689e+00,9.4064041e-06,-8.0461665e-05,-5.8342378e-05,1.0090302e-03,-9.1149013e-03,1.0191940e-03,8.3323376e-04,4.3283464e-04,-6.7993753e-04,1.0906465e-02,7.9983198e-02,-1.2604497e-02
2.0999689e+00,-8.2544280e-05,3.0877658e-04,-3.0259117e-04,-9.2251439e-03,3.8923519e-02,-9.1663666e-03,-3.2139397e-04,-2.8507136e-04,-1.9112600e-03,-1.1546288e-01,-7.1790669e-02,-1.2313237e-01
2.1099689e+00,-6.3782457e-05,-2.5133139e-04,-1.9541550e-04,1.8299552e-03,-5.6009154e-02,1.9701289e-03,8.7348115e-04,1.7242139e-03,-1.4381156e-03,1.1948763e-01,2.0092872e-01,4.7314493e-02
2.1199689e+00,1.0363496e-04,-1.9817557e-04,-8.8799368e-05,1.6759953e-02,5.3253618e-03,1.6720432e-02,6.1848151e-04,1.2036870e-03,-8.9106023e-04,-2.5499989e-02,-5.2052735e-02,5.4705584e-02
2.1299689e+00,2.1129250e-04,-1.5562047e-04,2.9052722e-06,1.0774392e-02,4.2579070e-03,1.0756183e-02,5.8521520e-04,8.0811410e-04,-5.7040306e-04,-3.3266342e-03,-3.9557332e-02,3.2065748e-02
2.1399689e+00,1.0461920e-04,-2.7289232e-04,-7.4722117e-05,-1.0687410e-02,-1.1739328e-02,-1.0633853e-02,6.9587319e-04,1.8373201e-03,-1.1173857e-03,1.1065810e-02,1.0292070e-01,-5.4698312e-02
2.1499689e+00,3.5743627e-05,-4.0832771e-04,-1.7703017e-04,-6.9101696e-03,-1.3559764e-02,-6.8328064e-03,7.6722601e-04,3.1368448e-03,-1.7752803e-03,7.1352892e-03,1.2995259e-01,-6.5789530e-02
2.1599689e+00,8.9622312e-05,-3.5913211e-04,-1.5415633e-04,5.3995606e-03,4.9304145e-03,5.3662129e-03,7.3414198e-04,2.7557296e-03,-1.5001855e-03,-3.3084060e-03,-3.8111548e-02,2.7509512e-02
2.1699688e+00,3.2897033e-04,9.9114016e-05,9.5935023e-05,2.3912497e-02,4.5824144e-02,2.3958111e-02,-3.8272190e-04,-4.0372160e-04,2.0002221e-04,-1.1168649e-01,-3.1594543e-01,1.7002093e-01
2.1799283e+00,1.8221879e-04,-8.6402578e-05,-3.5407043e-06,-1.4737149e-02,-1.8636110e-02,-1.4721330e-02,-5.0323902e-05,5.5634675e-04,-2.1685528e-04,3.3375105e-02,9.6397637e-02,-4.1857442e-02
2.1899283e+00,8.0306255e-05,-4.0622687e-05,-2.5846878e-05,-1.0193133e-02,4.5787396e-03,-1.0189056e-02,1.0924382e-04,3.6030019e-05,-2.3266542e-04,1.5956788e-02,-5.2031722e-02,-1.5810154e-03
2.1999283e+00,6.1045621e-05,-6.6425265e-05,-5.1437423e-05,-1.9274679e-03,-2.5803243e-03,-1.9245757e-03,2.3317334e-04,2.6660662e-04,-4.1600433e-04,1.2392964e-02,2.3057682e-02,-1.8333908e-02
2.2099283e+00,1.4257545e-04,-1.7862062e-05,1.7708229e-05,8.1562182e-03,4.8561818e-03,8.1498471e-03,6.9488697e-05,5.1942135e-05,-3.5454673e-04,-1.6368480e-02,-2.1466469e-02,6.1457658e-03
2.2199283e+00,8.8183716e-05,-5.7454319e-05,-4.6020325e-05,-5.4415764e-03,-3.9600455e-03,-5.4361853e-03,1.1702240e-04,2.6717047e-04,-3.5573248e-04,4.7533750e-03,2.1522854e-02,-1.1857484e-04
2.2299283e+00,7.1616581e-05,7.2206512e-04,-7.9383105e-05,-1.7910848e-03,7.7954145e-02,-1.3963522e-03,-1.7167005e-03,-3.3324011e-03,-3.3319580e-04,-1.8337247e-01,-3.5995750e-01,2.2536695e-03
2.2399282e+00,9.5188248e-05,7.8717723e-04,-9.0216925e-05,2.3457594e-03,6.5066966e-03,2.3809149e-03,-1.8007472e-03,-3.6957846e-03,-1.3542661e-04,-8.4046814e-03,-3.6338393e-02,1.9776938e-02
2.2499285e+00,1.0792053e-04,-3.7850859e-05,-1.1360937e-05,1.2783924e-03,-8.2500614e-02,1.2877578e-03,-6.3310981e-05,1.7610218e-04,2.3544432e-05,1.7373965e-01,3.8717982e-01,1.5896741e-02
2.2599285e+00,2.1043955e-04,-8.5156581e-05,3.5754142e-07,1.0252246e-02,-4.7206325e-03,1.0256160e-02,-1.2277705e-04,8.4701331e-04,2.4049885e-05,-5.9466124e-03,6.7091178e-02,5.0545300e-05
2.2699285e+00,1.8737977e-04,-1.1412166e-04,3.9126612e-05,-2.3054211e-03,-2.8988714e-03,-2.3035702e-03,-1.1959624e-04,9.0477330e-04,9.2076377e-05,3.1808153e-04,5.7760036e-03,6.8026558e-03
2.2799284e+00,1.1598129e-04,-1.4200198e-04,1.7777732e-05,-7.1381564e-03,-2.7970895e-03,-7.1380113e-03,-7.7779018e-05,1.1903876e-03,2.0747154e-04,4.1817259e-03,2.8561459e-02,1.1539527e-02
2.2899284e+00,1.0820083e-04,8.2739659e-05,1.5725394e-04,-7.8547623e-04,2.2473915e-02,-7.7838160e-04,-3.5377393e-04,-8.5707844e-06,6.7051756e-04,-2.7599517e-02,-1.1989595e-01,4.6304646e-02
2.2999284e+00,-3.4926764e-04,-3.3011651e-04,-1.1268984e-04,-4.5882364e-02,-4.1342108e-02,-4.5559854e-02,1.3737051e-03,2.6161440e-03,-1.7240561e-03,1.7274807e-01,2.6247173e-01,-2.3945759e-01
2.3099284e+00,-2.0351793e-04,5.1988015e-04,3.5179135e-04,1.4781199e-02,8.4898622e-02,1.4951843e-02,2.5125392e-03,-4.3500008e-03,5.0108224e-04,1.1388351e-01,-6.9661514e-01,2.2251405e-01
2.3199284e+00,-7.6688225e-04,-5.0126006e-04,3.1089492e-04,-5.6841061e-02,-1.0183164e-01,-5.6340948e-02,5.1155103e-03,1.2514007e-04,3.0263738e-04,2.6029736e-01,4.4751451e-01,-1.9844505e-02
2.3299284e+00,-1.1265687e-03,-5.3696194e-04,2.8461797e-04,-3.5975721e-02,-3.4169570e-03,-3.5976515e-02,4.8315686e-03,5.7234302e-04,2.7201933e-04,-2.8394198e-02,4.4720337e-02,-3.0618087e-03
2.3399284e+00,-1.3499501e-03,-3.2551839e-04,4.1777776e-04,-2.2217794e-02,2.1277073e-02,-2.2332207e-02,4.6819890e-03,-1.2684155e-03,9.4535403e-04,-1.4957969e-02,-1.8407602e-01,6.7333534e-02
2.3499284e+00,-1.7483205e-03,3.7384772e-04,3.8190800e-04,-3.9660754e-02,7.0186899e-02,-3.9572064e-02,2.3352933e-03,-3.9631390e-03,3.2357292e-04,-2.3466980e-01,-2.6947261e-01,-6.2178170e-02
2.3599284e+00,-2.1194188e-03,5.6264281e-04,4.3897899e-04,-3.7044560e-02,1.9167998e-02,-3.7027138e-02,2.1226496e-03,-5.6563137e-03,6.7737572e-04,-2.1264388e-02,-1.6931763e-01,3.5380314e-02
2.3699284e+00,-2.4983497e-03,1.4386557e-03,3.0942827e-04,-3.7868023e-02,8.8008378e-02,-3.6963717e-02,6.6919733e-05,-1.0803642e-02,5.0762034e-04,-2.0557319e-01,-5.1473334e-01,-1.6975554e-02
2.3799284e+00,-2.8544332e-03,3.6495227e-04,4.0815636e-04,-3.5835596e-02,-1.0709575e-01,-3.6202708e-02,2.3010863e-03,-5.3589122e-03,5.5484813e-04,2.2341687e-01,5.4447352e-01,4.7227831e-03
2.3899283e+00,-3.0578769e-03,1.8455612e-04,3.9244155e-04,-2.0380582e-02,-1.7899948e-02,-2.0431368e-02,2.4685593e-03,-4.3844408e-03,4.0699659e-04,1.6747312e-02,9.7447240e-02,-1.4785168e-02
2.3999283e+00,-3.2048342e-03,9.4400635e-04,2.2215861e-04,-1.4662510e-02,7.6053336e-02,-1.4159382e-02,4.6269710e-04,-7.0320390e-03,-1.2989166e-04,-2.0058641e-01,-2.6476007e-01,-5.3688877e-02
2.4099283e+00,-3.3145820e-03,1.0657370e-03,2.6895647e-04,-1.0969339e-02,1.2255706e-02,-1.0887928e-02,-1.6108511e-04,-7.7184431e-03,6.7509550e-04,-6.2378280e-02,-6.8640481e-02,8.0498793e-02
2.4199283e+00,-3.4740399e-03,1.2498239e-03,3.7750547e-04,-1.5934044e-02,1.8544934e-02,-1.5799050e-02,-4.5219228e-04,-9.0309039e-03,1.2589342e-03,-2.9110745e-02,-1.3124621e-01,5.8383926e-02
2.4299283e+00,-3.7474577e-03,1.2929324e-03,4.7634858e-04,-2.7301381e-02,4.5529121e-03,-2.7342957e-02,-3.7993121e-04,-9.2258050e-03,1.5370086e-03,7.2261141e-03,-1.9490121e-02,2.7807465e-02
2.4399283e+00,-4.1300828e-03,1.3669306e-03,5.4620796e-04,-3.8190790e-02,7.7565795e-03,-3.8263589e-02,-6.2548327e-04,-9.9391455e-03,1.9942918e-03,-2.4555229e-02,-7.1334124e-02,4.5728361e-02
2.4499283e+00,-4.9523637e-03,9.9255239e-04,3.6935718e-04,-8.2074748e-02,-3.7126261e-02,-8.2522195e-02,-2.7788112e-03,-6.5527459e-03,5.9657519e-04,-2.1533300e-01,3.3864029e-01,-1.3977179e-01
2.4599283e+00,-5.4584346e-03,9.6688874e-05,4.8509279e-04,-5.0543513e-02,-8.9551187e-02,-5.0732950e-02,-6.2724080e-04,-1.3216936e-03,1.4661549e-04,2.1515725e-01,5.2310573e-01,-4.4996013e-02
2.4699283e+00,-5.8557473e-03,-1.0699248e-04,4.4567807e-04,-3.9851947e-02,-2.0231426e-02,-3.9680305e-02,2.6134907e-03,-8.2732573e-04,-1.7015234e-03,3.2407346e-01,4.9436834e-02,-1.8481407e-01
2.4799283e+00,-5.9704625e-03,-5.1569955e-04,7.2852819e-04,-1.1622599e-02,-4.0829374e-02,-1.1466799e-02,3.7763263e-03,1.9519039e-04,2.7829908e-04,1.1628367e-01,1.0225171e-01,1.9798244e-01
2.4899282e+00,-6.1319799e-03,-2.9707979e-04,4.6696764e-04,-1.6096791e-02,2.1897979e-02,-1.6157891e-02,2.6259112e-03,3.9344973e-04,-1.5444200e-04,-1.1504162e-01,1.9825953e-02,-4.3274149e-02
2.4999285e+00,-5.9444644e-03,1.3625767e-03,7.2927773e-04,1.8557898e-02,1.6580112e-01,2.0301176e-02,-8.8840427e-04,-9.0706640e-03,2.4384839e-03,-3.5142350e-01,-9.4638971e-01,2.5928666e-01
2.5099285e+00,-6.4422516e-03,1.4937293e-03,7.2941890e-04,-4.9688722e-02,1.3617518e-02,-4.9733852e-02,-6.1715821e-04,-1.0700827e-02,1.9693926e-03,2.7124631e-02,-1.6301650e-01,-4.6909172e-02
2.5199285e+00,-7.1613081e-03,-5.4712266e-05,1.0120817e-03,-7.2319381e-02,-1.5430784e-01,-7.2640357e-02,3.7510043e-03,-3.6715505e-03,2.3148952e-03,4.3681667e-01,7.0292837e-01,3.4550291e-02
2.5299284e+00,-8.2094329e-03,-3.9580114e-04,9.9193193e-04,-1.0483862e-01,-3.3308257e-02,-1.0504379e-01,4.3921843e-03,-3.2382168e-03,1.1705538e-03,6.4118056e-02,4.3333409e-02,-1.1443425e-01
2.5399284e+00,-8.7625530e-03,-3.1955630e-04,9.9001318e-04,-5.5244875e-02,8.0718776e-03,-5.5315741e-02,4.2165529e-03,-3.8717337e-03,6.2448924e-04,-1.7563153e-02,-6.3351743e-02,-5.4606511e-02
2.5499284e+00,-8.9588939e-03,-3.8670948e-04,1.0252735e-03,-1.9648391e-02,-6.5644774e-03,-1.9670792e-02,4.2091460e-03,-3.4663250e-03,7.0287486e-04,-7.4068949e-04,4.0540911e-02,7.8385693e-03
2.5599284e+00,-9.2867663e-03,3.2753113e-04,4.7452474e-04,-3.2810293e-02,7.1586160e-02,-3.2408694e-02,4.4407464e-04,-4.5279231e-03,-1.6709088e-03,-3.7650750e-01,-1.0615992e-01,-2.3737860e-01
2.5699284e+00,-9.1395478e-03,-1.1282813e-04,8.7154811e-04,1.4601038e-02,-4.4121497e-02,1.4585485e-02,2.2326152e-03,-3.5984915e-03,1.5256762e-03,1.7885423e-01,9.2943244e-02,3.1965881e-01
2.5799284e+00,-9.1394160e-03,1.4237348e-03,9.4631774e-04,-2.1123132e-04,1.5364578e-01,1.7976331e-03,-1.4602070e-03,-1.1617830e-02,3.1124100e-03,-3.6928258e-01,-8.0193461e-01,1.5867353e-01
2.5899284e+00,-9.7132100e-03,5.9818051e-04,9.5807923e-04,-5.7296015e-02,-8.2086288e-02,-5.8131087e-02,7.3931643e-04,-7.3801284e-03,2.5144211e-03,2.1995255e-01,4.2377056e-01,-5.9798950e-02
2.5999284e+00,-1.0300589e-02,4.1090426e-04,9.4397110e-04,-5.8685739e-02,-1.8254633e-02,-5.8938732e-02,1.3056692e-03,-6.7310162e-03,1.3037293e-03,5.6635335e-02,6.4911282e-02,-1.2106930e-01
2.6099284e+00,-1.1257277e-02,1.5432809e-04,3.7207100e-04,-9.5909641e-02,-2.5326630e-02,-9.5515928e-02,9.6114917e-05,-3.3707572e-03,-2.4937793e-03,-1.2095555e-01,3.3602623e-01,-3.7975122e-01
2.6199284e+00,-1.1432895e-02,-4.8457302e-05,4.3698008e-04,-1.7601777e-02,-2.0235776e-02,-1.7571127e-02,3.2359398e-04,-2.1139048e-03,-1.9044779e-03,2.2747928e-02,1.2568536e-01,5.8930193e-02
2.6299284e+00,-1.1096283e-02,6.1206622e-04,8.7164576e-04,3.3401102e-02,6.5935945e-02,3.4145155e-02,-2.9018979e-03,-6.3020562e-03,2.0263011e-03,-3.2254949e-01,-4.1881554e-01,3.9307828e-01
2.6399283e+00,-1.0856781e-02,6.1558057e-04,1.1927991e-03,2.3858855e-02,2.2249131e-04,2.4042778e-02,-4.8273974e-04,-5.8441615e-03,3.8003987e-03,2.4191604e-01,4.5789511e-02,1.7740993e-01
2.6499283e+00,-1.1395721e-02,8.9690951e-04,1.2448778e-03,-5.3732310e-02,2.8544399e-02,-5.3839082e-02,-4.3381785e-04,-8.0599131e-03,3.2215742e-03,4.8921929e-03,-2.2157537e-01,-5.7882501e-02
2.6599283e+00,-1.2360268e-02,-2.4322989e-05,1.3100348e-03,-9.6527110e-02,-9.1250166e-02,-9.7209517e-02,3.7422244e-03,-5.2756627e-03,2.8135087e-03,4.1760462e-01,2.7842531e-01,-4.0806592e-02
2.6699283e+00,-1.3460363e-02,-3.0898998e-04,1.0689477e-03,-1.1004643e-01,-2.7718744e-02,-1.1016363e-01,3.0032886e-03,-3.7913014e-03,4.3758947e-04,-7.3893655e-02,1.4843628e-01,-2.3759215e-01
2.6799283e+00,-1.4028213e-02,-4.2836069e-04,1.0447598e-03,-5.6811903e-02,-1.1595256e-02,-5.6828995e-02,2.6304248e-03,-3.3870585e-03,7.6545529e-05,-3.7286415e-02,4.0424325e-02,-3.6104428e-02
2.6899283e+00,-1.3624400e-02,-7.8015379e-04,1.7820363e-03,4.0028224e-02,-3.5523210e-02,4.0431762e-02,4.5946498e-03,-3.9184040e-03,4.7191158e-03,1.9642269e-01,-5.3134606e-02,4.6425747e-01
2.6999283e+00,-1.3755358e-02,-8.3487708e-04,1.7268756e-03,-1.3050547e-02,-5.3607117e-03,-1.3186916e-02,5.0359049e-03,-3.4607104e-03,5.5352648e-03,4.4125555e-02,4.5769411e-02,8.1614981e-02
2.7099283e+00,-1.3972674e-02,3.8086341e-04,1.4018093e-03,-2.1768690e-02,1.2164203e-01,-2.1310510e-02,-1.1370844e-03,-4.2952632e-03,4.6404952e-03,-6.1729952e-01,-8.3455361e-02,-8.9477047e-02
2.7199283e+00,-1.4823797e-02,-4.4123323e-04,1.7041051e-03,-8.4973975e-02,-8.1379413e-02,-8.6043633e-02,4.2578245e-03,-5.4437502e-03,5.7138669e-03,5.3949140e-01,-1.1484881e-01,1.0733727e-01
2.7299283e+00,-1.5614393e-02,-6.6839918e-04,1.7965143e-03,-7.8759818e-02,-2.2013937e-02,-7.9556133e-02,4.2053217e-03,-4.6539126e-03,4.9795570e-03,-5.2502857e-03,7.8983839e-02,-7.3431061e-02
2.7399282e+00,-1.6191825e-02,-5.5892772e-04,1.7292112e-03,-5.7505899e-02,1.1204747e-02,-5.7930335e-02,1.7056497e-03,-2.7459760e-03,3.7779458e-03,-2.4996744e-01,1.9079384e-01,-1.2016123e-01
2.7499285e+00,-1.6806776e-02,-9.2625972e-04,1.6682940e-03,-6.1389162e-02,-3.6629286e-02,-6.1659578e-02,1.9904177e-03,3.1456607e-04,2.8841620e-03,2.8476152e-02,3.0604720e-01,-8.9376338e-02
2.7599285e+00,-1.7225215e-02,-1.3104769e-03,1.8037735e-03,-4.1853813e-02,-3.8219248e-02,-4.2019017e-02,4.8121088e-03,-1.6792741e-05,4.1606943e-03,2.8216938e-01,-3.3135913e-02,1.2765335e-01
2.7699285e+00,-1.7482614e-02,-3.4987546e-04,1.8031584e-03,-2.5346722e-02,9.6231122e-02,-2.5490752e-02,2.8197420e-03,-3.8436593e-03,4.7405373e-03,-1.9923686e-01,-3.8268703e-01,5.7984353e-02
2.7799284e+00,-1.8171540e-02,-2.6909905e-04,1.8122210e-03,-6.8562150e-02,8.5656895e-03,-6.9162890e-02,2.5082791e-03,-4.5570194e-03,4.4901196e-03,-3.1146320e-02,-7.1336076e-02,-2.5041794e-02
2.7899284e+00,-1.9185721e-02,-6.5126275e-04,2.1727395e-03,-1.0094382e-01,-3.7148078e-02,-1.0228458e-01,3.9760141e-03,-6.5071281e-03,6.1482660e-03,1.4677363e-01,-1.9501105e-01,1.6581480e-01
2.7999284e+00,-2.0259178e-02,-1.2692279e-03,2.0730904e-03,-1.0704775e-01,-6.1070476e-02,-1.0805676e-01,4.4037960e-03,-2.3408045e-03,5.2886492e-03,4.2778236e-02,4.1663275e-01,-8.5961756e-02
2.8099284e+00,-2.1496100e-02,-1.4070212e-03,1.6495629e-03,-1.2343681e-01,-1.3232754e-02,-1.2400674e-01,4.1146896e-03,-3.0257309e-04,2.5120316e-03,-2.8910674e-02,2.0382334e-01,-2.7766203e-01
2.8199284e+00,-2.2309884e-02,-1.1146665e-03,1.6293316e-03,-8.1077829e-02,2.9735080e-02,-8.1497582e-02,3.7917704e-03,-2.3453779e-03,2.3230285e-03,-3.2291946e-02,-2.0428068e-01,-1.8900326e-02
2.8299284e+00,-2.2938511e-02,-7.9777197e-04,1.7718392e-03,-6.2507798e-02,3.2234178e-02,-6.2939630e-02,3.8631658e-03,-4.7936404e-03,3.6841481e-03,7.1395425e-03,-2.4482648e-01,1.3611209e-01
2.8399284e+00,-2.3538396e-02,-1.1219769e-03,2.0614648e-03,-5.9895076e-02,-3.1888619e-02,-6.0365975e-02,5.3582801e-03,-3.4820067e-03,4.4307373e-03,1.4951158e-01,1.3116349e-01,7.4658991e-02
2.8499284e+00,-2.3801852e-02,-2.0006985e-04,1.9577119e-03,-2.6157084e-02,9.2319004e-02,-2.6083121e-02,7.6361121e-04,-4.1154032e-03,4.4723896e-03,-4.5946733e-01,-6.3339707e-02,4.1652367e-03
2.8599284e+00,-2.4911371e-02,4.8116912e-04,1.5893062e-03,-1.1057738e-01,6.9234065e-02,-1.1063843e-01,3.8161059e-04,-9.6221372e-03,3.1372755e-03,-3.8200098e-02,-5.5067393e-01,-1.3351154e-01
2.8699284e+00,-2.5970479e-02,1.4254521e-04,1.4192666e-03,-1.0574310e-01,-3.2921923e-02,-1.0637405e-01,7.8570183e-04,-8.0692307e-03,1.8334100e-03,4.0409163e-02,1.5529080e-01,-1.3038667e-01
2.8799284e+00,-2.7482667e-02,-1.1096822e-03,7.0685242e-04,-1.5167982e-01,-1.2532212e-01,-1.5067418e-01,1.0249124e-03,1.6866792e-03,-2.2018943e-03,2.3921080e-02,9.7559192e-01,-4.0353081e-01
2.8899283e+00,-2.8056489e-02,-2.1825152e-03,1.2469615e-03,-5.7754609e-02,-1.0738091e-01,-5.6823692e-02,3.8426558e-03,5.5808593e-03,6.8852096e-04,2.8177461e-01,3.8941838e-01,2.8904180e-01
2.8999283e+00,-2.8060450e-02,8.6962298e-06,1.8328110e-03,-6.4888073e-05,2.1911720e-01,1.4593714e-03,1.5035391e-03,-8.4690363e-03,4.3818584e-03,-2.3391190e-01,-1.4049909e+00,3.6933409e-01
2.9099283e+00,-2.9139483e-02,6.6138200e-04,1.6942902e-03,-1.0757816e-01,6.6593455e-02,-1.0741762e-01,-1.3508680e-04,-1.2421517e-02,3.0913458e-03,-1.6386274e-01,-3.9524841e-01,-1.2905138e-01
2.9199283e+00,-3.0536067e-02,-1.1346169e-03,1.6796358e-03,-1.4020473e-01,-1.7878211e-01,-1.4015978e-01,3.5342486e-03,-2.3095782e-03,6.2739536e-04,3.6693389e-01,1.0111948e+00,-2.4639528e-01
2.9299283e+00,-3.1243001e-02,-1.4609623e-03,1.8401944e-03,-7.0667088e-02,-3.2323298e-02,-7.0862580e-02,3.5782407e-03,-8.2021645e-04,2.0160523e-03,4.3992149e-03,1.4893631e-01,1.3886582e-01
2.9399283e+00,-3.2186241e-02,-1.5417164e-03,1.8433810e-03,-9.4121832e-02,-7.8056938e-03,-9.4548691e-02,2.8223735e-03,-3.6714390e-05,2.3797484e-03,-7.5586790e-02,7.8350281e-02,3.6369650e-02
2.9499283e+00,-3.2722123e-02,-9.3626373e-04,2.3614853e-03,-5.3081600e-02,6.0915017e-02,-5.3673406e-02,2.6952484e-03,-4.1910434e-03,6.3848258e-03,-1.2712525e-02,-4.1543330e-01,4.0050812e-01
2.9599283e+00,-3.4073412e-02,-1.1745126e-04,2.1332023e-03,-1.3431069e-01,8.3095376e-02,-1.3520377e-01,7.5793071e-04,-8.2015015e-03,5.5809280e-03,-1.9373195e-01,-4.0104619e-01,-8.0389863e-02
2.9699283e+00,-3.5933662e-02,-1.5247756e-03,2.1452921e-03,-1.8614810e-01,-1.3944599e-01,-1.8686923e-01,5.0502610e-03,-1.8491678e-03,3.1422894e-03,4.2923344e-01,6.3523397e-01,-2.4386409e-01
2.9799283e+00,-3.7144308e-02,-1.4119641e-04,2.1808260e-03,-1.2044840e-01,1.3956959e-01,-1.2028613e-01,1.0818673e-03,-8.9377178e-03,3.8457276e-03,-3.9683975e-01,-7.0885567e-01,7.0343886e-02
2.9899282e+00,-3.9009349e-02,-1.0215997e-03,1.9782651e-03,-1.8633467e-01,-8.7147017e-02,-1.8709251e-01,1.4499339e-03,-3.3318788e-03,1.5916507e-03,3.6806694e-02,5.6058444e-01,-2.2540790e-01
2.9999285e+00,-4.0090568e-02,-1.8442839e-03,2.5923700e-03,-1.0796285e-01,-8.1450821e-02,-1.0889078e-01,4.9780445e-03,-2.5414181e-03,5.2101379e-03,3.5280298e-01,7.9044258e-02,3.6184044e-01
3.0099285e+00,-4.1230444e-02,6.6668275e-05,2.3804309e-03,-1.1345848e-01,1.9234977e-01,-1.1239473e-01,-1.2829205e-04,-1.1183778e-02,4.8460297e-03,-5.1063414e-01,-8.6423685e-01,-3.6410853e-02
3.0199285e+00,-4.2558439e-02,-1.9847680e-05,2.6089113e-03,-1.3204729e-01,-7.1167012e-03,-1.3363831e-01,3.1103786e-04,-1.1179970e-02,5.6693917e-03,4.3933034e-02,3.8084236e-04,8.2336273e-02
3.0299284e+00,-4.4849441e-02,-8.7322023e-04,2.3768175e-03,-2.2804418e-01,-8.4553729e-02,-2.3044083e-01,-1.7183711e-03,-5.1131175e-03,3.9609713e-03,-2.0294109e-01,6.0668582e-01,-1.7084220e-01
3.0399284e+00,-4.6523123e-02,-9.3476607e-04,2.4344327e-03,-1.6666902e-01,-5.4496858e-03,-1.6808910e-01,-1.5511113e-03,-5.7386134e-03,4.1116999e-03,1.6725999e-02,-6.2549648e-02,1.5072881e-02
3.0499284e+00,-4.8301587e-02,-9.2867133e-04,2.6143835e-03,-1.7717197e-01,1.5980421e-03,-1.7851249e-01,-8.7529831e-04,-6.4097009e-03,3.7885559e-03,6.7581360e-02,-6.7108820e-02,-3.2314437e-02
3.0599284e+00,-5.0112575e-02,-1.6644606e-03,2.8259743e-03,-1.8037810e-01,-7.2914799e-02,-1.8208441e-01,5.1138489e-04,-3.1410566e-03,4.1795729e-03,1.3866845e-01,3.2686474e-01,3.9101737e-02
3.0699284e+00,-5.1853711e-02,-1.1403188e-03,2.7160776e-03,-1.7365938e-01,5.3148348e-02,-1.7434482e-01,-1.5047688e-03,-5.7089357e-03,3.0568003e-03,-2.0161556e-01,-2.5678815e-01,-1.1227737e-01
3.0799284e+00,-5.3383391e-02,-1.9150073e-03,2.8760562e-03,-1.5241939e-01,-7.7099747e-02,-1.5370073e-01,2.4971528e-04,-2.1544882e-03,3.7070936e-03,1.7544857e-01,3.5544509e-01,6.5029398e-02
3.0899284e+00,-5.5034381e-02,-2.4073632e-03,2.9134177e-03,-1.6454003e-01,-4.8819768e-02,-1.6577957e-01,1.5119698e-03,-1.0026366e-03,3.8294600e-03,1.2622557e-01,1.1518527e-01,1.2236645e-02
3.0999284e+00,-5.6424996e-02,-2.6854779e-03,2.8022386e-03,-1.3848793e-01,-2.7926569e-02,-1.3960987e-01,1.2914029e-03,2.1102932e-03,4.3729164e-03,-2.2056705e-02,3.1129328e-01,5.4345691e-02
3.1099284e+00,-5.7942183e-02,-1.8694719e-03,3.2113951e-03,-1.5076972e-01,8.1776960e-02,-1.5256778e-01,-7.9713384e-04,-1.9473046e-03,6.6623085e-03,-2.0885388e-01,-4.0576017e-01,2.2893943e-01
3.1199284e+00,-6.0292650e-02,-2.9287069e-03,3.0371970e-03,-2.3404356e-01,-1.0582170e-01,-2.3609172e-01,2.3402422e-03,1.8987028e-03,5.3065882e-03,3.1373790e-01,3.8460111e-01,-1.3557216e-01
3.1299284e+00,-6.2619996e-02,-3.0148044e-03,3.0611969e-03,-2.3167703e-01,-8.4085201e-03,-2.3379505e-01,2.3390007e-03,1.4676802e-03,4.6179660e-03,-1.2414817e-04,-4.3102295e-02,-6.8862290e-02
3.1399283e+00,-6.4622360e-02,-1.3776066e-03,2.9787568e-03,-1.9971618e-01,1.6476282e-01,-1.9990066e-01,-1.7587797e-03,-6.9601135e-03,4.0274104e-03,-4.0977843e-01,-8.4278017e-01,-5.9055613e-02
3.1499283e+00,-6.7124438e-02,-1.8859632e-03,2.6934582e-03,-2.4969662e-01,-4.9969442e-02,-2.5089259e-01,-1.1214622e-03,-4.5730943e-03,1.8140297e-03,6.3731816e-02,2.3870214e-01,-2.2133828e-01
3.1599283e+00,-6.9056982e-02,-2.0359636e-03,2.5448387e-03,-1.9306243e-01,-1.4580397e-02,-1.9347866e-01,-9.1872735e-04,-3.0870142e-03,9.2223945e-04,2.0273504e-02,1.4860816e-01,-8.9179112e-02
3.1699283e+00,-7.0474904e-02,-2.5334230e-03,3.1929812e-03,-1.4124806e-01,-4.9447051e-02,-1.4243852e-01,3.6798200e-04,-1.7328879e-03,3.9592950e-03,1.2867106e-01,1.3541275e-01,3.0370585e-01
