time, x, y, z, vx, vy, vz, yaw, pitch, roll, yaw_rate, pitch_rate, roll_rate
0.0000000e+00,0.0000000e+00,0.0000000e+00,0.0000000e+00,0.0000000e+00,0.0000000e+00,0.0000000e+00,0.0000000e+00,0.0000000e+00,0.0000000e+00,0.0000000e+00,0.0000000e+00,0.0000000e+00
9.9999905e-03,-8.0500967e-06,-4.5719852e-04,2.5317940e-04,-8.6768047e-04,-4.5719506e-02,-7.6082155e-04,1.3942431e-03,9.9184257e-04,1.3329502e-03,1.3942444e-01,9.9184351e-02,1.3329514e-01
1.9999981e-02,3.2290417e-05,-5.4895395e-04,2.9231753e-04,4.0158937e-03,-9.1748233e-03,4.0537848e-03,1.4401036e-03,1.6134378e-03,1.2247039e-03,4.5860585e-03,6.2159580e-02,-1.0824639e-02
2.9999971e-02,-2.2718799e-05,-5.0591636e-04,2.4447007e-04,-5.4907876e-03,4.2975204e-03,-5.5159174e-03,7.4638118e-04,1.8773855e-03,1.2581754e-03,-6.9372308e-02,2.6394795e-02,3.3471520e-03
3.9999962e-02,-8.5188469e-05,-5.0555334e-04,2.4650901e-04,-6.2381073e-03,3.1186225e-05,-6.2558536e-03,8.5520885e-04,1.6716209e-03,1.4128546e-03,1.0882777e-02,-2.0576474e-02,1.5467941e-02
4.9999952e-02,-3.2753395e-05,7.8920495e-04,-1.3889923e-04,4.9587855e-03,1.2946468e-01,5.7721068e-03,-2.1982541e-03,-4.0818816e-03,1.7808365e-05,-3.0534658e-01,-5.7535080e-01,-1.3950476e-01
5.9999943e-02,3.8883483e-06,7.8175619e-04,-1.4126432e-04,3.6656412e-03,-7.5058133e-04,3.6615490e-03,-2.2552182e-03,-3.8139821e-03,5.6542849e-05,-5.6964180e-03,2.6789975e-02,3.8734521e-03
6.9999933e-02,9.9439098e-05,1.4997509e-04,9.9192735e-05,9.6062860e-03,-6.3176777e-02,9.5128654e-03,-9.2305608e-04,-7.8146820e-04,7.4392832e-04,1.3321634e-01,3.0325168e-01,6.8738612e-02
7.9999924e-02,1.0333183e-04,1.7269511e-04,1.4008034e-04,3.8676950e-04,2.2720120e-03,3.9171972e-04,-9.5739003e-04,-9.3298908e-04,8.4356444e-04,-3.4333982e-03,-1.5152102e-02,9.9636220e-03
8.9999914e-02,1.0379304e-04,1.7573345e-04,1.2866629e-04,4.5822068e-05,3.0382223e-04,4.6496572e-05,-8.4612209e-04,-1.0976538e-03,9.1196656e-04,1.1126805e-02,-1.6466486e-02,6.8402188e-03
1.0000014e-01,1.8309322e-04,1.8325987e-04,1.4768382e-04,7.9222653e-03,7.5239381e-04,7.9374215e-03,-9.9824349e-04,-1.0264073e-03,8.5910245e-04,-1.5211793e-02,7.1244818e-03,-5.2862904e-03
1.1000013e-01,1.6127425e-04,-5.0670527e-04,2.7959685e-04,-2.2182210e-03,-6.8999426e-02,-2.0513570e-03,5.6808915e-04,1.9343309e-03,1.3162872e-03,1.5663341e-01,2.9607411e-01,4.5718520e-02
1.2000012e-01,1.1360377e-04,-5.8259782e-04,2.5277695e-04,-4.7668818e-03,-7.5969658e-03,-4.7549361e-03,7.1256000e-04,2.3305580e-03,1.1691552e-03,1.4447099e-02,3.9622750e-02,-1.4713217e-02
1.3000011e-01,1.8772609e-04,-2.9030253e-04,3.0146292e-04,7.4055936e-03,2.9238267e-02,7.3844767e-03,1.5973683e-04,1.3363519e-03,1.5252424e-03,-5.5282369e-02,-9.9420708e-02,3.5608756e-02
1.4000010e-01,1.9041351e-04,-3.3055532e-04,3.1782188e-04,2.6756526e-04,-4.0249824e-03,2.7436248e-04,1.8907196e-04,1.2934333e-03,1.5461711e-03,2.9335156e-03,-4.2918680e-03,2.0928696e-03
1.5000010e-01,5.6484481e-05,-5.5082776e-04,2.5028567e-04,-1.3409896e-02,-2.2034856e-02,-1.3363405e-02,1.3674911e-03,1.9369984e-03,9.7983883e-04,1.1784203e-01,6.4356578e-02,-5.6633280e-02
1.6000009e-01,-2.3843759e-05,-6.7183669e-04,2.1408667e-04,-8.0439505e-03,-1.2112748e-02,-8.0038031e-03,1.2999009e-03,2.7797436e-03,5.7303331e-04,-6.7590273e-03,8.4274600e-02,-4.0680590e-02
1.7000008e-01,-6.4048647e-05,7.1282599e-04,-1.5655076e-04,-4.2909364e-03,1.3847103e-01,-3.5545465e-03,-1.9345623e-03,-3.3452024e-03,-6.4183579e-04,-3.2344663e-01,-6.1249519e-01,-1.2148703e-01
1.8000007e-01,-5.2478963e-05,8.2582811e-04,-1.0671236e-04,1.1384477e-03,1.1296729e-02,1.2083274e-03,-1.6333145e-03,-4.5396365e-03,5.4911704e-05,3.0124804e-02,-1.1944352e-01,6.9674816e-02
1.9000006e-01,3.1349448e-05,8.5802753e-04,-7.9260010e-05,8.3750468e-03,3.1915382e-03,8.4014902e-03,-1.5324189e-03,-4.9143152e-03,3.4089273e-04,1.0089574e-02,-3.7467902e-02,2.8598129e-02
2.0000005e-01,-1.1953819e-05,2.1274578e-05,1.6731528e-05,-4.3412371e-03,-8.3672113e-02,-4.3821366e-03,1.5032328e-04,-5.9910808e-04,3.8606687e-04,1.6827438e-01,4.3152112e-01,4.5174183e-03
2.1000004e-01,-6.1611932e-05,6.7017347e-04,-1.5999290e-04,-5.0855869e-03,6.4895283e-02,-4.7711096e-03,-1.7923032e-03,-2.9457750e-03,-7.0033545e-04,-1.9426283e-01,-2.3466692e-01,-1.0864034e-01
2.2000003e-01,-4.0358231e-05,7.7508448e-04,-9.8624718e-05,2.1093198e-03,1.0485863e-02,2.1668539e-03,-1.5792063e-03,-4.0033473e-03,-2.4373578e-04,2.1309715e-02,-1.0575733e-01,4.5660011e-02
2.3000002e-01,1.7007679e-05,-3.7348650e-04,3.4104221e-04,5.5498824e-03,-1.1486328e-01,5.7983833e-03,1.5402270e-03,4.5535447e-04,1.7071173e-03,3.1194363e-01,4.4587060e-01,1.9508549e-01
2.4000001e-01,1.2211170e-04,-5.9493213e-04,3.0429482e-04,1.0469582e-02,-2.2137776e-02,1.0565362e-02,1.3975745e-03,2.0369833e-03,9.3877847e-04,-1.4265268e-02,1.5816303e-01,-7.6833953e-02
2.5000000e-01,1.5598276e-04,-4.4215151e-04,2.8779196e-04,3.3919727e-03,1.5280515e-02,3.3712053e-03,6.1586162e-04,1.3387778e-03,1.3407725e-03,-7.8171362e-02,-6.9820613e-02,4.0199446e-02
2.5999999e-01,2.5650524e-05,-7.3355448e-04,1.6959786e-04,-1.3067707e-02,-2.9165004e-02,-1.2943205e-02,1.2961116e-03,3.2022002e-03,2.5215347e-04,6.8025062e-02,1.8634241e-01,-1.0886201e-01
2.6999998e-01,8.1537966e-05,-6.4311560e-04,2.5675792e-04,5.5964765e-03,9.0486660e-03,5.5732762e-03,1.4879264e-03,2.3451043e-03,1.0235895e-03,1.9181498e-02,-8.5709675e-02,7.7143680e-02
2.7999997e-01,1.6598362e-04,3.3986824e-05,9.7791834e-05,8.4234858e-03,6.7712592e-02,8.4473091e-03,-2.8487005e-04,-1.3903782e-05,2.1297414e-04,-1.7727981e-01,-2.3590103e-01,-8.1061616e-02
2.8999996e-01,1.8023695e-04,1.5332882e-04,1.3106223e-04,1.4117526e-03,1.1934706e-02,1.4346715e-03,-1.0398551e-03,-6.8519100e-04,8.2106241e-04,-7.5498580e-02,-6.7128786e-02,6.0808886e-02
2.9999995e-01,-7.7268752e-06,-4.5413953e-04,2.1777304e-04,-1.8809356e-02,-6.0768950e-02,-1.8711949e-02,6.5520196e-04,1.8322229e-03,1.4269674e-03,1.6950587e-01,2.5174163e-01,6.0590556e-02
3.0999994e-01,-5.9692084e-05,-5.7223484e-04,2.0007144e-04,-5.2072206e-03,-1.1812739e-02,-5.1785235e-03,1.3630986e-03,1.9827319e-03,1.0382223e-03,7.0789735e-02,1.5050914e-02,-3.8874547e-02
3.1999993e-01,2.4871368e-06,-5.4288928e-04,2.5702976e-04,6.2148986e-03,2.9352511e-03,6.2206295e-03,1.3932375e-03,1.5037602e-03,1.1431136e-03,3.0138910e-03,-4.7897213e-02,1.0489144e-02
3.2999992e-01,1.3410065e-05,-4.8431809e-04,3.0108041e-04,1.0951387e-03,5.8576176e-03,1.0867848e-03,7.5936233e-04,1.2149281e-03,1.4660230e-03,-6.3387580e-02,-2.8883242e-02,3.2290969e-02
3.3999991e-01,-8.8350932e-05,-4.5989005e-04,2.3885376e-04,-1.0159727e-02,2.4392818e-03,-1.0193310e-02,8.3828672e-04,1.1827062e-03,1.4073393e-03,7.8924464e-03,-3.2221928e-03,-5.8683738e-03
3.5000014e-01,-3.5884855e-06,8.0918375e-04,-1.0306429e-04,8.2046703e-03,1.2688546e-01,9.0109158e-03,-2.1273589e-03,-4.2041202e-03,1.6397173e-04,-2.9655777e-01,-5.3867031e-01,-1.2433392e-01
3.6000013e-01,-5.9787239e-05,-5.1819859e-04,2.4921218e-04,-5.7292032e-03,-1.3274328e-01,-5.3885362e-03,8.8092488e-04,1.8012879e-03,1.3527909e-03,3.0082866e-01,6.0054138e-01,1.1888203e-01
3.7000012e-01,7.5250111e-05,1.2096908e-04,7.7381291e-05,1.3446775e-02,6.3918667e-02,1.3551808e-02,-7.6941062e-04,-6.3048854e-04,5.7674484e-04,-1.6503371e-01,-2.4317788e-01,-7.7604678e-02
3.8000011e-01,4.4159619e-05,1.1430788e-04,6.1544975e-05,-3.1066327e-03,-6.6549398e-04,-3.1116037e-03,-5.8977436e-04,-7.9054189e-04,6.5145783e-04,1.7963643e-02,-1.6005350e-02,7.4713056e-03
3.9000010e-01,3.2537556e-05,8.2241095e-04,-1.0556276e-04,-1.3293681e-03,7.0811654e-02,-8.6773908e-04,-2.3629155e-03,-4.1610923e-03,1.3324370e-04,-1.7731428e-01,-3.3705536e-01,-5.1821462e-02
4.0000010e-01,1.0263129e-04,2.4359749e-04,1.1644664e-04,7.0590439e-03,-5.7885211e-02,6.9276091e-03,-9.6410344e-04,-1.5195504e-03,8.7513086e-04,1.3988134e-01,2.6415445e-01,7.4188787e-02
4.1000009e-01,1.9341967e-04,1.7332604e-04,1.6684674e-04,9.0783622e-03,-7.0266953e-03,9.0796844e-03,-9.7127358e-04,-9.2096789e-04,8.0435557e-04,-7.1701475e-04,5.9858305e-02,-7.0775358e-03
4.2000008e-01,1.8643433e-04,-4.6413489e-04,3.3921448e-04,-7.3523268e-04,-6.3746786e-02,-5.9562919e-04,5.9235906e-04,1.6318514e-03,1.5203111e-03,1.5636341e-01,2.5528217e-01,7.1595623e-02
4.3000007e-01,1.3188653e-04,-5.3036141e-04,2.8459574e-04,-5.4516011e-03,-6.6299634e-03,-5.4490907e-03,6.5716619e-04,1.9963111e-03,1.3803674e-03,6.4807186e-03,3.6446001e-02,-1.3994383e-02
4.4000006e-01,1.0139549e-04,-5.3799836e-04,2.4458365e-04,-3.0455621e-03,-7.6804040e-04,-3.0515577e-03,6.6820958e-04,2.0909741e-03,1.3288777e-03,1.1043404e-03,9.4663097e-03,-5.1489809e-03
4.5000005e-01,1.1107191e-04,-5.7051149e-04,2.3213720e-04,9.6456819e-04,-3.2495330e-03,9.7665882e-04,6.1265460e-04,2.4418316e-03,1.1176772e-03,-5.5555039e-03,3.5085789e-02,-2.1120063e-02
4.6000004e-01,7.8921662e-05,-5.8911790e-04,2.8194370e-04,-3.2123047e-03,-1.8656174e-03,-3.2148660e-03,7.2156150e-04,2.2678100e-03,1.2634322e-03,1.0890701e-02,-1.7402181e-02,1.4575509e-02
4.7000003e-01,-8.0434888e-05,-4.7959382e-04,2.4092243e-04,-1.5903617e-02,1.0944040e-02,-1.5973403e-02,8.2494642e-04,1.3478920e-03,1.4430588e-03,1.0338502e-02,-9.1991888e-02,1.7962675e-02
4.8000002e-01,-4.3548550e-05,8.5260626e-04,-1.0321866e-04,3.3858857e-03,1.3320921e-01,4.3196607e-03,-2.2693077e-03,-4.7338125e-03,1.1516390e-04,-3.0942571e-01,-6.0817103e-01,-1.3278961e-01
4.9000001e-01,-3.2860303e-05,-4.0999089e-04,2.8209399e-04,9.7525103e-04,-1.2625935e-01,1.2062898e-03,7.2754775e-04,1.0763467e-03,1.6028445e-03,2.9968583e-01,5.8101647e-01,1.4876820e-01
5.0000000e-01,7.6031798e-06,-4.5991699e-04,2.8884248e-04,4.0331980e-03,-4.9953765e-03,4.0560648e-03,1.5028275e-03,8.1739132e-04,1.3944811e-03,7.7528048e-02,-2.5895560e-02,-2.0836354e-02
5.0999999e-01,4.5148177e-06,7.7325871e-04,-1.2997884e-04,-5.5403573e-04,1.2331708e-01,1.8124971e-04,-1.9871316e-03,-3.9719894e-03,-4.9086477e-04,-3.4899624e-01,-4.7893853e-01,-1.8853477e-01
5.1999998e-01,-5.9038681e-05,7.3112759e-04,-1.5791602e-04,-6.3509527e-03,-4.1985143e-03,-6.3694051e-03,-1.6017370e-03,-3.8948458e-03,-3.7034339e-04,3.8539488e-02,7.7143690e-03,1.2052150e-02
5.2999997e-01,1.5833015e-06,8.4065018e-04,-8.8456323e-05,6.0454338e-03,1.0930508e-02,6.1179712e-03,-1.3746041e-03,-4.9392102e-03,2.8194680e-04,2.2713320e-02,-1.0443655e-01,6.5229081e-02
5.3999996e-01,2.6666645e-05,-4.4074837e-04,3.0284229e-04,2.3143592e-03,-1.2814096e-01,2.6411235e-03,1.4811534e-03,1.0061440e-03,1.6651249e-03,2.8557602e-01,5.9453599e-01,1.3831794e-01
5.4999995e-01,-5.4862437e-06,-5.9934062e-04,2.0668931e-04,-3.2330129e-03,-1.5863052e-02,-3.1785060e-03,1.2536926e-03,2.4564399e-03,6.7130267e-04,-2.2746107e-02,1.4502973e-01,-9.9382313e-02
5.5999994e-01,-5.4405645e-05,-6.6578776e-04,1.6080758e-04,-4.8982428e-03,-6.6523970e-03,-4.8751809e-03,1.2719975e-03,2.8465619e-03,4.3941712e-04,1.8304984e-03,3.9012237e-02,-2.3188577e-02
5.6999993e-01,4.4480262e-05,-5.3678659e-04,2.8277551e-04,9.8972580e-03,1.2898047e-02,9.8826527e-03,1.5274110e-03,1.3180372e-03,1.1152504e-03,2.5541370e-02,-1.5285262e-01,6.7583392e-02
5.7999992e-01,1.5448095e-04,-6.5921586e-04,3.3493341e-04,1.0970342e-02,-1.2235326e-02,1.1038181e-02,1.5258587e-03,2.2117764e-03,1.0034372e-03,-1.5522471e-04,8.9374012e-02,-1.1181331e-02
5.8999991e-01,1.8318855e-04,-5.9304646e-04,3.2348439e-04,2.8721586e-03,6.6215963e-03,2.8586207e-03,7.5435648e-04,2.3780903e-03,1.2514487e-03,-7.7150300e-02,1.6631399e-02,2.4801177e-02
6.0000014e-01,6.7366482e-05,-5.3177467e-04,2.5952480e-04,-1.1561878e-02,6.1108709e-03,-1.1610494e-02,7.2343550e-04,2.1151865e-03,1.3484388e-03,-3.0920272e-03,-2.6289776e-02,9.6987890e-03
6.1000013e-01,-5.2139332e-05,-7.3102768e-04,1.4112890e-04,-1.1970802e-02,-1.9950611e-02,-1.1888007e-02,1.3027903e-03,3.4286845e-03,4.8010583e-04,5.7935534e-02,1.3134993e-01,-8.6833384e-02
6.2000012e-01,-2.2223438e-05,-7.1320155e-04,1.4537193e-04,2.9923458e-03,1.7874636e-03,2.9879427e-03,1.4188937e-03,3.0415326e-03,5.9242255e-04,1.1610348e-02,-3.8715228e-02,1.1231683e-02
6.3000011e-01,1.0423583e-04,-5.1046627e-04,2.8682576e-04,1.2637362e-02,2.0288348e-02,1.2630768e-02,5.1818928e-04,1.6884577e-03,1.5076475e-03,-9.0070523e-02,-1.3530762e-01,9.1522581e-02
6.4000010e-01,4.0371044e-06,-4.8685152e-04,2.7733814e-04,-1.0002237e-02,2.3577458e-03,-1.0038372e-02,7.3948168e-04,1.1099071e-03,1.5851375e-03,2.2129261e-02,-5.7855116e-02,7.7490100e-03
6.5000010e-01,-4.1234073e-05,7.5318871e-04,-1.4355881e-04,-4.7428855e-03,1.2401362e-01,-4.0179979e-03,-1.7261723e-03,-4.0911608e-03,-3.7950695e-04,-2.4656563e-01,-5.2010728e-01,-1.9646463e-01
6.6000009e-01,-1.2502841e-05,8.4213583e-04,-7.1735265e-05,2.8601680e-03,8.8846618e-03,2.9168437e-03,-1.4286933e-03,-4.8889627e-03,8.6069686e-05,2.9747926e-02,-7.9780264e-02,4.6557708e-02
6.7000008e-01,-8.6698833e-05,-4.1483484e-04,2.9393054e-04,-7.6077686e-03,-1.2569013e-01,-7.3482114e-03,1.5851361e-03,6.5838463e-04,1.4915862e-03,3.0138323e-01,5.5473526e-01,1.4055179e-01
6.8000007e-01,-4.6361043e-05,7.5043777e-04,-1.2501023e-04,3.8583458e-03,1.1651703e-01,4.4796113e-03,-1.5171075e-03,-3.8371200e-03,-3.3524979e-04,-3.1022466e-01,-4.4955090e-01,-1.8268377e-01
6.9000006e-01,-3.5805507e-05,7.2625008e-04,-1.4426353e-04,1.0602206e-03,-2.4207590e-03,1.0462819e-03,-1.6999722e-03,-3.6026986e-03,-5.2659265e-04,-1.8286488e-02,2.3442167e-02,-1.9134305e-02
7.0000005e-01,7.9588423e-05,5.8159923e-05,5.6789482e-05,1.1530638e-02,-6.6817420e-02,1.1499805e-02,5.6703577e-05,-6.6712431e-04,4.3128148e-04,1.7566775e-01,2.9355771e-01,9.5787505e-02
7.1000004e-01,1.9293007e-04,5.0743776e-05,1.6960015e-04,1.1327524e-02,-7.4868389e-04,1.1340358e-02,-2.9275439e-06,-6.2621396e-04,5.8687877e-04,-5.9631178e-03,4.0910390e-03,1.5559743e-02
7.2000003e-01,1.6682342e-04,2.8956902e-05,1.2818613e-04,-2.6097866e-03,-2.1785644e-03,-2.6116525e-03,-8.5715280e-05,-1.3359587e-04,2.6587341e-04,-8.2787815e-03,4.9261856e-02,-3.2100566e-02
7.3000002e-01,1.1685277e-04,-4.4792663e-04,3.3872177e-04,-5.0198813e-03,-4.7692434e-02,-4.9353134e-03,6.3968565e-04,1.4570109e-03,1.5381860e-03,7.2540162e-02,1.5906082e-01,1.2723138e-01
7.4000001e-01,7.0067239e-05,-6.0810200e-04,1.7389359e-04,-4.6930540e-03,-1.6026376e-02,-4.6336048e-03,1.0161264e-03,2.9174324e-03,3.7982722e-04,3.7644114e-02,1.4604229e-01,-1.1583599e-01
7.5000000e-01,1.2156660e-04,-7.5420402e-04,2.3013069e-04,5.1259071e-03,-1.4602286e-02,5.1962025e-03,1.4081915e-03,2.9310774e-03,6.7062543e-04,3.9206542e-02,1.3645062e-03,2.9079848e-02
7.5999999e-01,1.2149031e-04,-6.1275748e-04,2.5160905e-04,2.2908869e-06,1.4144615e-02,-3.9994004e-05,7.0064665e-04,2.2883314e-03,1.2792521e-03,-7.0754549e-02,-6.4274666e-02,6.0862726e-02
7.6999998e-01,-3.0643516e-06,-6.3159935e-04,2.3399635e-04,-1.2440240e-02,-1.9036283e-03,-1.2467744e-02,8.2221124e-04,2.3801626e-03,1.3465164e-03,1.2156470e-02,9.1831354e-03,6.7264319e-03
7.7999997e-01,-8.3675118e-05,-5.6948122e-04,2.1130380e-04,-8.0450395e-03,6.2007406e-03,-8.0856051e-03,8.3398144e-04,2.2031826e-03,1.3464873e-03,1.1770215e-03,-1.7698022e-02,-2.9072795e-06
7.8999996e-01,-7.4965260e-05,-5.2659569e-04,2.2625574e-04,8.7332598e-04,4.2894307e-03,8.6432064e-04,8.2495305e-04,1.8344845e-03,1.3747581e-03,-9.0283942e-04,-3.6869841e-02,2.8270851e-03
7.9999995e-01,-7.0682073e-05,-5.0442272e-04,2.4553124e-04,4.2948951e-04,2.2176509e-03,4.2531542e-04,8.0978621e-04,1.6372777e-03,1.4580606e-03,-1.5166862e-03,-1.9720707e-02,8.3302554e-03
8.0999994e-01,-2.1052712e-05,8.2229734e-04,-1.0082657e-04,4.6592305e-03,1.3265906e-01,5.5697957e-03,-2.2848826e-03,-4.5701781e-03,1.1229713e-04,-3.0946717e-01,-6.2074617e-01,-1.3457647e-01
8.1999993e-01,-9.9208948e-06,8.2820773e-04,-9.6479142e-05,1.1116769e-03,5.8850309e-04,1.1160279e-03,-2.1663391e-03,-4.4377956e-03,2.0014100e-04,1.1854359e-02,1.3238266e-02,8.7843962e-03
8.2999992e-01,6.8663962e-05,1.7353785e-04,9.0507092e-05,7.9057048e-03,-6.5470347e-02,7.7833184e-03,-8.0695508e-04,-1.2345916e-03,7.1422365e-04,1.3593853e-01,3.2032071e-01,5.1408314e-02
8.3999991e-01,9.4286152e-05,1.1540574e-04,6.5648699e-05,2.5653331e-03,-5.8129795e-03,2.5596432e-03,-8.1207683e-04,-7.2068903e-04,6.2753965e-04,-5.1217576e-04,5.1390303e-02,-8.6684081e-03
8.5000014e-01,-5.2514195e-06,-4.8414575e-04,2.5206840e-04,-9.9894752e-03,-5.9961655e-02,-9.8697097e-03,8.3966751e-04,1.6389938e-03,1.4448574e-03,1.6517065e-01,2.3596288e-01,8.1729909e-02
8.6000013e-01,-1.7503958e-05,-5.4957922e-04,2.4927801e-04,-1.2294589e-03,-6.5450039e-03,-1.2121601e-03,9.0643143e-04,2.2659575e-03,1.4083125e-03,6.6763976e-03,6.2696436e-02,-3.6544932e-03
8.7000012e-01,7.6352040e-05,-5.5099948e-04,2.3927829e-04,9.3732878e-03,-1.2802400e-04,9.3981149e-03,7.5478508e-04,2.2436988e-03,1.3002058e-03,-1.5164649e-02,-2.2258688e-03,-1.0810685e-02
8.8000011e-01,1.7602371e-04,-4.9024428e-04,2.8798898e-04,9.9573989e-03,6.0835463e-03,9.9720551e-03,6.2139628e-04,1.4248612e-03,1.3585847e-03,-1.3338893e-02,-8.1883847e-02,5.8378966e-03
8.9000010e-01,1.3917550e-04,-5.5327589e-04,2.7200144e-04,-3.6840750e-03,-6.3077455e-03,-3.6777317e-03,6.7481440e-04,1.9182828e-03,1.3564848e-03,5.3418173e-03,4.9342207e-02,-2.0999023e-04
9.0000010e-01,6.3203711e-05,-5.0736763e-04,3.0654668e-04,-7.5825372e-03,4.5844774e-03,-7.6156341e-03,7.2438954e-04,1.5573246e-03,1.4890769e-03,4.9575182e-03,-3.6095849e-02,1.3259223e-02
9.1000009e-01,8.9206002e-06,-4.8829024e-04,3.1271232e-04,-5.4186857e-03,1.9036020e-03,-5.4393802e-03,8.0383295e-04,1.5634882e-03,1.4902058e-03,7.9443489e-03,6.1636103e-04,1.1288546e-04
9.2000008e-01,1.2011134e-05,-5.3886114e-04,2.6233899e-04,3.0507768e-04,-5.0566216e-03,3.2053160e-04,7.0210722e-04,2.1867027e-03,1.3751958e-03,-1.0172582e-02,6.2321506e-02,-1.1501008e-02
9.3000007e-01,7.6717248e-05,6.5192232e-05,6.7367247e-05,6.4196653e-03,6.0408072e-02,6.4963222e-03,-7.7626482e-04,-3.5883242e-04,6.2722002e-04,-1.4783735e-01,-2.5455375e-01,-7.4797649e-02
9.4000006e-01,-4.6187192e-05,-5.3813382e-04,2.0266918e-04,-1.2322819e-02,-6.0346029e-02,-1.2192033e-02,8.0299211e-04,1.8984911e-03,1.3073939e-03,1.5792584e-01,2.2573256e-01,6.8017450e-02
9.5000005e-01,-7.3747967e-05,-5.5171756e-04,2.1845029e-04,-2.7533764e-03,-1.3607013e-03,-2.7576347e-03,8.6369680e-04,1.7061695e-03,1.4053391e-03,6.0704744e-03,-1.9232178e-02,9.7945341e-03
9.6000004e-01,-4.7920846e-05,-6.0399747e-04,2.3116463e-04,2.5724727e-03,-5.2271017e-03,2.5947175e-03,1.4764207e-03,1.8151840e-03,9.7540051e-04,6.1272445e-02,1.0901461e-02,-4.2993901e-02
9.7000003e-01,3.5230273e-06,-5.6049728e-04,2.0389951e-04,5.1449934e-03,4.3533231e-03,5.1409982e-03,1.3073306e-03,1.9492342e-03,9.8724797e-04,-1.6909020e-02,1.3405029e-02,1.1847466e-03
9.8000002e-01,5.6525961e-05,-5.3867986e-04,2.5696805e-04,5.2970831e-03,2.1834844e-03,5.3027953e-03,1.4066638e-03,1.7340428e-03,1.1839471e-03,9.9333222e-03,-2.1519152e-02,1.9669935e-02
9.9000001e-01,2.6953669e-05,-5.3854093e-04,2.7268651e-04,-2.9534558e-03,1.3335364e-05,-2.9610059e-03,1.4661428e-03,1.6524787e-03,1.2681509e-03,5.9479081e-03,-8.1564264e-03,8.4203828e-03
1.0000000e+00,-2.0859266e-05,-5.2998949e-04,2.4886819e-04,-4.7741854e-03,8.5452732e-04,-4.7885104e-03,1.4839343e-03,1.6107258e-03,1.2203456e-03,1.7791575e-03,-4.1752896e-03,-4.7805324e-03
1.0100000e+00,3.0475491e-05,3.4178436e-05,5.0650639e-05,5.1328345e-03,5.6414107e-02,5.1641384e-03,2.1199486e-05,-5.1078198e-04,3.5877623e-04,-1.4627362e-01,-2.1215098e-01,-8.6157020e-02
1.0200000e+00,3.4363000e-05,4.3001900e-05,5.3957800e-05,3.8867978e-04,8.8203677e-04,3.8952639e-04,9.0517010e-05,-7.0714098e-04,3.8922175e-04,6.9317590e-03,-1.9635918e-02,3.0445551e-03
1.0300000e+00,-4.7637588e-06,2.7171642e-05,4.3495105e-05,-3.9120477e-03,-1.5798939e-03,-3.9145774e-03,2.1216870e-04,-5.8842173e-04,2.4728201e-04,1.2165180e-02,1.1871936e-02,-1.4193987e-02
1.0400000e+00,-1.6234383e-05,4.7415589e-05,7.4205486e-05,-1.1470929e-03,2.0247996e-03,-1.1463226e-03,-3.0724407e-05,-3.8220734e-04,2.8671890e-05,-2.4289334e-02,2.0621459e-02,-2.1861033e-02
1.0500000e+00,-6.1140895e-05,-6.5062333e-04,2.2688952e-04,-4.5678359e-03,-6.9811769e-02,-4.2867641e-03,1.1343276e-03,2.9499577e-03,4.4464916e-04,1.1650532e-01,3.3321682e-01,4.1597767e-02
1.0599999e+00,-3.4524212e-05,-7.5636735e-04,1.7479998e-04,2.6472121e-03,-1.0568732e-02,2.6983937e-03,1.3080308e-03,3.4144075e-03,2.3468640e-04,1.7370330e-02,4.6445020e-02,-2.0996296e-02
1.0699999e+00,6.8876574e-05,-5.6710746e-04,2.3899760e-04,1.0341112e-02,1.8937221e-02,1.0318508e-02,7.8011631e-04,1.8660075e-03,1.3276867e-03,-5.2791497e-02,-1.5484015e-01,1.0930013e-01
1.0799999e+00,4.1494887e-05,-6.1908816e-04,2.3578342e-04,-2.7383267e-03,-5.2015135e-03,-2.7314769e-03,7.6400037e-04,2.0215951e-03,1.3923389e-03,-1.6115953e-03,1.5558780e-02,6.4652289e-03
1.0899999e+00,7.4633228e-06,-5.9201881e-04,2.3794408e-04,-3.3962225e-03,2.7021155e-03,-3.4139050e-03,7.9764898e-04,2.2093133e-03,1.4026865e-03,3.3648639e-03,1.8771839e-02,1.0347550e-03
1.1000001e+00,7.2058754e-05,-5.4898153e-04,2.7292308e-04,6.4529220e-03,4.3134673e-03,6.4593031e-03,7.0675775e-04,2.2283426e-03,1.4716890e-03,-9.0889149e-03,1.9028770e-03,6.9000985e-03
1.1100001e+00,1.4659828e-04,-5.0859462e-04,2.8377174e-04,7.4456262e-03,4.0471982e-03,7.4576757e-03,6.2893908e-04,1.7680874e-03,1.4575186e-03,-7.7818746e-03,-4.6025563e-02,-1.4170471e-03
1.1200001e+00,1.9133680e-04,2.0147852e-04,1.3944329e-04,4.3977347e-03,7.1005530e-02,4.5775283e-03,-1.0163334e-03,-1.4052931e-03,8.8288318e-04,-1.6452741e-01,-3.1733835e-01,-5.7463594e-02
1.1300001e+00,1.2335875e-04,1.9994644e-04,1.3704998e-04,-6.7916428e-03,-1.4986729e-04,-6.8040482e-03,-8.2627860e-04,-1.3165607e-03,8.8803455e-04,1.9005501e-02,8.8732521e-03,5.1513767e-04
1.1400001e+00,8.5473083e-05,1.2984485e-04,1.1975576e-04,-3.7809220e-03,-7.0090329e-03,-3.7982956e-03,-6.8002334e-04,-9.7718031e-04,7.5997555e-04,1.4625540e-02,3.3938072e-02,-1.2805912e-02
1.1500001e+00,7.9375544e-05,1.3893715e-04,6.4705511e-05,-6.0997504e-04,9.0941196e-04,-6.0926422e-04,-6.7279556e-04,-9.6951097e-04,6.4105728e-04,7.2277823e-04,7.6693493e-04,-1.1891838e-02
1.1600001e+00,7.1537566e-06,7.9198838e-04,-1.2976033e-04,-7.3735314e-03,6.5317157e-02,-6.9560877e-03,-2.3023628e-03,-4.0590557e-03,-1.3969302e-04,-1.6295688e-01,-3.0895477e-01,-7.8075105e-02
1.1700001e+00,-6.4267802e-05,7.8458206e-04,-1.3289468e-04,-7.1406934e-03,-7.2729634e-04,-7.1450017e-03,-2.1424162e-03,-4.0086722e-03,-1.8743071e-05,1.5994677e-02,5.0383536e-03,1.2095006e-02
1.1800001e+00,-6.7117698e-05,7.5368637e-04,-1.0497871e-04,-2.7844217e-04,-3.0890789e-03,-2.9657044e-04,-2.1210156e-03,-3.7501389e-03,-2.1177694e-05,2.1400565e-03,2.5853353e-02,-2.4346254e-04
1.1900001e+00,-3.1297092e-05,7.6169737e-04,-1.2001517e-04,3.5820308e-03,7.9279326e-04,3.5839447e-03,-1.6730588e-03,-3.9913962e-03,-3.6638943e-04,4.4795724e-02,-2.4125756e-02,-3.4521206e-02
1.2000000e+00,3.4694368e-05,7.5282438e-04,-1.2389853e-04,6.6046884e-03,-9.0054486e-04,6.5918157e-03,-1.9809861e-03,-3.9917530e-03,-5.7467222e-04,-3.0792758e-02,-3.5673514e-05,-2.0828299e-02
1.2100000e+00,1.0682034e-04,1.3551729e-04,7.5451120e-05,7.2587260e-03,-6.1733233e-02,7.1449153e-03,-8.3785918e-04,-1.1877908e-03,7.7568310e-04,1.1431280e-01,2.8039649e-01,1.3503566e-01
1.2200000e+00,1.0296363e-04,-1.3391584e-06,6.9024872e-05,-3.8445649e-04,-1.3685628e-02,-3.8795299e-04,-8.2151025e-05,-1.6023411e-04,2.3278577e-04,7.5570888e-02,1.0275576e-01,-5.4289785e-02
1.2300000e+00,1.9606658e-04,-3.7322540e-05,1.3882698e-04,9.3086151e-03,-3.5933757e-03,9.3139097e-03,-2.6266077e-04,2.7061516e-04,2.8282345e-04,-1.8050992e-02,4.3084968e-02,5.0037728e-03
1.2400000e+00,2.2299335e-04,-6.7760210e-05,1.0413146e-04,2.6946081e-03,-3.0395572e-03,2.6955060e-03,-4.9949451e-04,1.0643790e-03,-1.5201676e-04,-2.3683396e-02,7.9376456e-02,-4.3484063e-02
1.2500000e+00,2.0588110e-04,-4.6936435e-05,8.0170609e-05,-1.7123879e-03,2.0807601e-03,-1.7120335e-03,-3.9124551e-04,5.5493072e-04,-2.0296245e-04,1.0824911e-02,-5.0944873e-02,-5.0945733e-03
1.2600000e+00,6.7849505e-05,-6.9603236e-04,2.1262206e-04,-1.3893630e-02,-6.4926154e-02,-1.3633782e-02,1.5498500e-03,2.7667709e-03,7.3335047e-04,1.9410973e-01,2.2118423e-01,9.3631381e-02
1.2700000e+00,3.9569153e-05,-5.8418326e-04,2.7477028e-04,-2.8079871e-03,1.1183712e-02,-2.8526906e-03,1.5154838e-03,1.9288931e-03,1.0945462e-03,-3.4366257e-03,-8.3787866e-02,3.6119603e-02
1.2800000e+00,-2.3552163e-05,-6.4150274e-04,2.1989566e-04,-6.3147898e-03,-5.7398826e-03,-6.3022713e-03,1.2808350e-03,2.5388679e-03,7.4183297e-04,-2.3464899e-02,6.0997537e-02,-3.5271352e-02
1.2900000e+00,-6.3136688e-05,-5.4320907e-04,2.3936049e-04,-3.9412640e-03,9.8283476e-03,-3.9781159e-03,1.3715658e-03,1.6242278e-03,9.3602173e-04,9.0730938e-03,-9.1464089e-02,1.9418894e-02
1.3000000e+00,1.7006348e-05,8.3992089e-04,-9.4770967e-05,7.6928313e-03,1.3829205e-01,8.6665935e-03,-2.3118532e-03,-4.7042315e-03,2.1199297e-04,-3.6834225e-01,-6.3284654e-01,-7.2402945e-02
1.3099999e+00,-3.0954023e-05,8.0064713e-04,-8.2044952e-05,-4.7860759e-03,-3.9174367e-03,-4.8140953e-03,-2.2782205e-03,-4.3407161e-03,2.0972008e-04,3.3632681e-03,3.6351580e-02,-2.2728892e-04
1.3199999e+00,-1.0296701e-04,7.6030474e-04,-1.1424480e-04,-7.1910091e-03,-4.0209913e-03,-7.2189837e-03,-2.1578062e-03,-3.9912783e-03,2.1858709e-04,1.2041441e-02,3.4943810e-02,8.8670238e-04
1.3299999e+00,-7.6711677e-05,7.8907076e-04,-1.2838070e-04,2.6185252e-03,2.8716459e-03,2.6379356e-03,-2.2962304e-03,-4.1718875e-03,1.5160052e-04,-1.3842430e-02,-1.8060930e-02,-6.6986641e-03
1.3399999e+00,-5.0546939e-05,7.9118823e-04,-1.6009771e-04,2.6159950e-03,2.0691947e-04,2.6173438e-03,-2.2471319e-03,-4.0914870e-03,-4.1488301e-07,4.9098488e-03,8.0400478e-03,-1.5201554e-02
1.3500001e+00,5.4641819e-05,1.1179567e-04,5.6749830e-05,1.0559073e-02,-6.7939825e-02,1.0464259e-02,-6.9364526e-04,-8.9916962e-04,6.3523130e-04,1.5534511e-01,3.1922444e-01,6.3563164e-02
1.3600001e+00,8.6816732e-05,-4.5022116e-04,3.2099124e-04,3.1766286e-03,-5.6199059e-02,3.3037283e-03,6.4692425e-04,1.4552007e-03,1.3997405e-03,1.3405708e-01,2.3543725e-01,7.6450993e-02
1.3700001e+00,1.3764632e-04,-4.8112333e-04,3.3445350e-04,5.0737990e-03,-3.0855162e-03,5.0949632e-03,6.9112422e-04,1.6133223e-03,1.3816407e-03,4.4200008e-03,1.5812180e-02,-1.8099854e-03
1.3800001e+00,2.0188919e-04,-4.7720304e-04,3.6103173e-04,6.4152714e-03,3.9712660e-04,6.4329905e-03,6.6774446e-04,1.4590950e-03,1.4438742e-03,-2.3379778e-03,-1.5422744e-02,6.2233626e-03
1.3900001e+00,2.6616554e-04,-5.0708414e-04,3.5138709e-04,6.4160607e-03,-2.9831116e-03,6.4415178e-03,6.8170934e-04,1.4570960e-03,1.4832887e-03,1.3964892e-03,-1.9990430e-04,3.9414473e-03
1.4000001e+00,2.4277874e-04,-5.4043146e-04,3.2822180e-04,-2.3376092e-03,-3.3371812e-03,-2.3362641e-03,7.1913699e-04,1.7650428e-03,1.4827707e-03,3.7427685e-03,3.0794707e-02,-5.1792085e-05
1.4100001e+00,1.6929039e-04,-4.8756645e-04,3.0396197e-04,-7.3353901e-03,5.2774787e-03,-7.3687432e-03,5.5135984e-04,1.7759699e-03,1.4326840e-03,-1.6777731e-02,1.0927127e-03,-5.0086786e-03
1.4200001e+00,7.0864469e-05,-5.7652452e-04,2.5959773e-04,-9.8353386e-03,-8.9109346e-03,-9.8361825e-03,7.1840397e-04,2.2539269e-03,1.3859562e-03,1.6704429e-02,4.7795745e-02,-4.6727858e-03
1.4300001e+00,-7.3114300e-06,-5.5844525e-04,2.3114763e-04,-7.8052374e-03,1.7982897e-03,-7.8321572e-03,7.4218475e-04,1.9718893e-03,1.4081342e-03,2.3780802e-03,-2.8203785e-02,2.2177985e-03
1.4400001e+00,-8.0154402e-06,7.7949524e-04,-1.1298651e-04,-3.8819013e-04,1.3379277e-01,4.8586398e-04,-2.3752769e-03,-4.1579995e-03,1.2313273e-04,-3.1174646e-01,-6.1298947e-01,-1.2850027e-01
1.4500000e+00,-1.1809275e-04,8.1948870e-04,-1.3328260e-04,-1.1013723e-02,4.0252315e-03,-1.0992313e-02,-2.1911717e-03,-4.5458228e-03,2.5021270e-04,1.8410535e-02,-3.8782361e-02,1.2708009e-02
1.4600000e+00,-1.4498666e-04,8.1831464e-04,-1.4659851e-04,-2.6886645e-03,-1.1073921e-04,-2.6904059e-03,-2.0997165e-03,-4.5775097e-03,1.7735112e-04,9.1455358e-03,-3.1686904e-03,-7.2861648e-03
1.4700000e+00,-7.4156632e-05,8.3901053e-04,-1.1448443e-04,7.0773577e-03,2.0533596e-03,7.0933758e-03,-2.3180675e-03,-4.6052712e-03,1.1793848e-04,-2.1835125e-02,-2.7761596e-03,-5.9412697e-03
1.4800000e+00,-4.8496934e-05,8.2762746e-04,-1.3894771e-04,2.5687479e-03,-1.1437752e-03,2.5607587e-03,-2.3051979e-03,-4.4415544e-03,-6.1759510e-05,1.2869617e-03,1.6371695e-02,-1.7969816e-02
1.4900000e+00,2.0142653e-05,7.7458640e-04,-1.0474553e-04,6.8770727e-03,-5.3156921e-03,6.8418505e-03,-2.3389067e-03,-4.0350096e-03,-1.0495004e-04,-3.3708839e-03,4.0654526e-02,-4.3190569e-03
1.5000000e+00,3.0441580e-05,-5.4031893e-04,2.7935108e-04,9.2061988e-04,-1.3148905e-01,1.3023569e-03,8.2093888e-04,2.0630890e-03,1.2884285e-03,3.1598486e-01,6.0981044e-01,1.3933799e-01
1.5100000e+00,1.1023122e-04,-5.3727176e-04,2.7684149e-04,7.9694429e-03,3.1761465e-04,7.9879873e-03,7.5013805e-04,2.3637860e-03,1.2218945e-03,-7.0800898e-03,3.0069725e-02,-6.6534032e-03
1.5200000e+00,2.9228678e-04,1.0660106e-04,1.9045024e-04,1.8133248e-02,6.4390534e-02,1.8266366e-02,-8.7833899e-04,-7.0020412e-04,8.6554161e-04,-1.6284786e-01,-3.0639930e-01,-3.5635326e-02
1.5300000e+00,2.8062418e-04,1.4255051e-04,1.4248601e-04,-1.1689100e-03,3.5949442e-03,-1.1636193e-03,-1.0092270e-03,-1.0077076e-03,8.3851986e-04,-1.3088812e-02,-3.0750379e-02,-2.7021780e-03
1.5400000e+00,2.7872885e-04,1.2439340e-04,1.4496446e-04,-1.8755905e-04,-1.8157664e-03,-1.9097697e-04,-9.9959319e-04,-7.0820336e-04,8.3996309e-04,9.6338031e-04,2.9950454e-02,1.4432288e-04
1.5500000e+00,1.8301328e-04,-5.4031059e-04,3.6545188e-04,-9.6026988e-03,-6.6480733e-02,-9.4685054e-03,6.9283448e-04,1.7755924e-03,1.5573877e-03,1.6924293e-01,2.4837981e-01,7.1742525e-02
1.5599999e+00,7.2116579e-05,-5.6582694e-04,2.9557116e-04,-1.1076450e-02,-2.5701557e-03,-1.1098623e-02,6.4972818e-04,2.3171815e-03,1.3414187e-03,-4.3106335e-03,5.4158962e-02,-2.1596916e-02
1.5699999e+00,-3.8195218e-05,-5.3648258e-04,2.8909237e-04,-1.1012171e-02,2.9256543e-03,-1.1052506e-02,8.0633635e-04,1.5998381e-03,1.5082052e-03,1.5660832e-02,-7.1734403e-02,1.6678667e-02
1.5799999e+00,-2.7664956e-05,8.1521298e-04,-1.3826175e-04,7.4468078e-04,1.3516536e-01,1.6833344e-03,-2.2804290e-03,-4.6625935e-03,9.4100928e-05,-3.0867683e-01,-6.2624376e-01,-1.4141056e-01
1.5899999e+00,-8.4918893e-05,7.7557050e-04,-1.5600053e-04,-5.7164062e-03,-3.9521107e-03,-5.7427519e-03,-2.2865254e-03,-4.3985673e-03,-1.5096159e-05,-6.0964278e-04,2.6402641e-02,-1.0919719e-02
1.6000001e+00,-1.5413680e-04,-4.8966457e-04,2.4025599e-04,-7.0235373e-03,-1.2652202e-01,-6.7920685e-03,8.9321951e-04,1.1131159e-03,1.6027505e-03,3.1796722e-01,5.5115570e-01,1.6178096e-01
1.6100001e+00,-2.0813474e-05,7.8109562e-04,-1.2042955e-04,1.3047636e-02,1.2704665e-01,1.3883667e-02,-2.2341138e-03,-4.3325536e-03,5.7993300e-05,-3.1273363e-01,-5.4456746e-01,-1.5447586e-01
1.6200001e+00,2.7140254e-05,8.4042651e-04,-1.0178704e-04,4.7855454e-03,5.9165335e-03,4.8255667e-03,-1.5442381e-03,-4.9804229e-03,1.3848360e-04,6.8987635e-02,-6.4786993e-02,8.0490381e-03
1.6300001e+00,-1.3699259e-05,-4.7508406e-04,2.7529712e-04,-4.2651636e-03,-1.3154985e-01,-3.9390181e-03,1.4233364e-03,1.1496463e-03,1.4751158e-03,2.9675773e-01,6.1300751e-01,1.3366335e-01
1.6400001e+00,1.9541500e-05,-5.1345551e-04,3.2652021e-04,3.3140431e-03,-3.8373664e-03,3.3338336e-03,1.4813612e-03,1.4114551e-03,1.3072085e-03,5.8024839e-03,2.6180896e-02,-1.6790749e-02
1.6500001e+00,9.0938841e-05,7.2777527e-05,1.3454725e-04,7.1503256e-03,5.8614344e-02,7.2028827e-03,2.5542642e-04,-1.0021894e-03,6.1453585e-04,-1.2259359e-01,-2.4136467e-01,-6.9267327e-02
1.6600001e+00,1.4647862e-04,1.4125962e-04,1.1905988e-04,5.5502410e-03,6.8392563e-03,5.5687445e-03,1.3802887e-04,-1.4724822e-03,8.4364212e-04,-1.1739766e-02,-4.7029325e-02,2.2910648e-02
1.6700001e+00,1.6727540e-04,4.6431191e-05,1.0862574e-04,2.0812505e-03,-9.4833267e-03,2.0759387e-03,-2.7503204e-04,-5.0403153e-04,4.9876198e-04,-4.1306130e-02,9.6845158e-02,-3.4488046e-02
1.6800001e+00,1.4311870e-04,-3.6270478e-06,8.5944322e-05,-2.4139104e-03,-5.0063174e-03,-2.4164218e-03,-2.5185374e-04,-4.9479123e-05,2.0762700e-04,2.3178318e-03,4.5455284e-02,-2.9113526e-02
1.6900001e+00,1.0505416e-04,-4.9693032e-04,3.3005932e-04,-3.8312994e-03,-4.9334686e-02,-3.7247771e-03,6.1541212e-04,1.7682663e-03,1.4478695e-03,8.6726668e-02,1.8177471e-01,1.2402437e-01
1.7000000e+00,3.3728049e-05,-5.6427993e-04,3.1409925e-04,-7.1272857e-03,-6.7422367e-03,-7.1310802e-03,7.9732073e-04,1.8157568e-03,1.4990739e-03,1.8190879e-02,4.7490570e-03,5.1204446e-03
1.7100000e+00,-5.8991788e-06,-4.9953774e-04,2.6243716e-04,-3.9517485e-03,6.4722067e-03,-3.9769609e-03,7.4853221e-04,1.2541966e-03,1.5459189e-03,-4.8788568e-03,-5.6156075e-02,4.6845047e-03
1.7200000e+00,-5.9113395e-06,-5.2510632e-04,2.3635257e-04,-3.0491327e-06,-2.5568585e-03,2.5269302e-06,7.1760676e-04,1.4656360e-03,1.4484814e-03,-3.0925479e-03,2.1143964e-02,-9.7437666e-03
1.7300000e+00,-4.5238523e-05,-6.0675808e-04,2.4574716e-04,-3.9346677e-03,-8.1692994e-03,-3.9222155e-03,8.8494967e-04,1.9334809e-03,1.3413272e-03,1.6734307e-02,4.6784535e-02,-1.0715424e-02
1.7400000e+00,-6.4616811e-05,-5.2437253e-04,2.8131175e-04,-1.9283221e-03,8.2372545e-03,-1.9528198e-03,7.8596242e-04,1.4530670e-03,1.5637800e-03,-9.8987341e-03,-4.8041434e-02,2.2245298e-02
1.7500000e+00,2.9455393e-05,7.6940017e-04,-6.6642372e-05,9.1059326e-03,1.2935850e-01,9.9479684e-03,-2.3143109e-03,-4.1656417e-03,1.9689292e-04,-3.1002763e-01,-5.6187141e-01,-1.3668884e-01
1.7600000e+00,7.0539462e-05,1.8525816e-04,1.0700015e-04,4.1526897e-03,-5.8416712e-02,4.0282042e-03,-8.1834648e-04,-1.4340332e-03,8.5709333e-04,1.4959658e-01,2.7316112e-01,6.6020104e-02
1.7700000e+00,8.7256605e-05,1.6645004e-04,9.3724904e-05,1.6718739e-03,-1.8814020e-03,1.6708960e-03,-7.9840240e-04,-1.1504039e-03,8.0316678e-04,1.9944093e-03,2.8362952e-02,-5.3926608e-03
1.7800000e+00,6.5096202e-05,1.5648201e-04,9.4553883e-05,-2.2137283e-03,-9.9573070e-04,-2.2188365e-03,-6.7445153e-04,-1.1578428e-03,7.4039355e-04,1.2395099e-02,-7.4388420e-04,-6.2773291e-03
1.7900000e+00,-1.9579179e-05,-4.6485400e-04,2.6637634e-04,-8.5073475e-03,-6.2136021e-02,-8.4101245e-03,8.3708636e-04,1.1215902e-03,1.4405709e-03,1.5115393e-01,2.2794351e-01,7.0017804e-02
1.8000000e+00,3.4542932e-05,-4.9386416e-04,2.6463288e-04,5.4024187e-03,-2.8978067e-03,5.4237134e-03,8.2874487e-04,1.4195626e-03,1.3647660e-03,-8.3414903e-04,2.9797274e-02,-7.5805039e-03
1.8099999e+00,4.8584479e-05,-5.0246016e-04,2.6423553e-04,1.4017226e-03,-8.5845765e-04,1.4072834e-03,7.9535465e-04,1.6065884e-03,1.2450671e-03,-3.3390254e-03,1.8702595e-02,-1.1969898e-02
1.8199999e+00,1.2222329e-07,-5.2352173e-04,2.7380452e-04,-4.8414862e-03,-2.1106099e-03,-4.8490348e-03,8.6873894e-04,1.7854903e-03,1.3551569e-03,7.3384353e-03,1.7890210e-02,1.1008995e-02
1.8299999e+00,-1.9905138e-05,-5.0902304e-04,2.9732460e-04,-1.9985666e-03,1.4487434e-03,-2.0077145e-03,8.6296958e-04,1.4226693e-03,1.4566802e-03,-5.7693635e-04,-3.6282134e-02,1.0152337e-02
1.8399999e+00,-1.2247131e-05,-5.0907817e-04,2.6841309e-04,7.6468177e-04,-4.8962195e-06,7.6692349e-04,7.6058233e-04,1.5640801e-03,1.4551565e-03,-1.0238734e-02,1.4141091e-02,-1.5236809e-04
1.8500001e+00,3.2540820e-05,-5.0632424e-04,2.5410816e-04,4.4724095e-03,2.7861146e-04,4.4847678e-03,7.2680014e-04,1.4448412e-03,1.4462753e-03,-3.3781414e-03,-1.1923615e-02,-8.8809941e-04
1.8600001e+00,8.3809451e-05,1.4736027e-04,8.7023551e-05,5.0641465e-03,6.5367028e-02,5.2075136e-03,-8.9719100e-04,-1.1721584e-03,7.9380317e-04,-1.6239927e-01,-2.6170021e-01,-6.5247279e-02
1.8700001e+00,-9.5381269e-06,-4.6497405e-04,2.8288340e-04,-9.3616816e-03,-6.1237121e-02,-9.2838599e-03,6.9153393e-04,1.0840573e-03,1.6513686e-03,1.5887264e-01,2.2562179e-01,8.5756625e-02
1.8800001e+00,-5.6117192e-07,-4.5116963e-04,2.9922231e-04,8.9721857e-04,1.3810181e-03,8.9729142e-04,6.8396590e-04,1.3227323e-03,1.5825281e-03,-7.5680373e-04,2.3867519e-02,-6.8840599e-03
1.8900001e+00,4.8352026e-05,-5.9345861e-04,2.7258128e-04,4.8739713e-03,-1.4221812e-02,4.9291494e-03,7.8124831e-04,2.2218968e-03,1.2739792e-03,9.7282510e-03,8.9916532e-02,-3.0854914e-02
1.9000001e+00,7.5812850e-05,-5.2696402e-04,2.8863106e-04,2.7472026e-03,6.6523729e-03,2.7379116e-03,7.1661242e-04,1.7777150e-03,1.3271231e-03,-6.4635953e-03,-4.4418214e-02,5.3143959e-03
1.9100001e+00,2.3619567e-05,-5.3111042e-04,2.5435632e-04,-5.2129079e-03,-4.2027674e-04,-5.2253006e-03,7.7640171e-04,1.8540902e-03,1.2916303e-03,5.9789345e-03,7.6375266e-03,-3.5492880e-03
1.9200001e+00,2.7171432e-06,-5.9066487e-04,2.7207734e-04,-2.0929271e-03,-5.9575048e-03,-2.0816901e-03,9.0158314e-04,1.8879081e-03,1.2840818e-03,1.2518154e-02,3.3817896e-03,-7.5485087e-04
1.9300001e+00,2.3871323e-05,-4.6046832e-04,2.6063548e-04,2.1223664e-03,1.3020882e-02,2.1009427e-03,7.6077671e-04,1.3399185e-03,1.3973462e-03,-1.4080656e-02,-5.4799011e-02,1.1326457e-02
1.9400001e+00,1.5268093e-05,-5.0310482e-04,2.3766220e-04,-8.6264366e-04,-4.2643184e-03,-8.5469202e-04,8.2774503e-04,1.6052543e-03,1.4044363e-03,6.6968377e-03,2.6533603e-02,7.0901004e-04
1.9500000e+00,5.2815194e-05,8.0209782e-04,-1.0710930e-04,3.4445625e-03,1.3051223e-01,4.2965507e-03,-2.3727242e-03,-4.1481698e-03,1.2039023e-04,-3.2004723e-01,-5.7534296e-01,-1.2840473e-01
1.9600000e+00,2.3031292e-05,7.9770329e-04,-8.1639621e-05,-2.9764739e-03,-4.3375938e-04,-2.9811447e-03,-2.2659275e-03,-4.1745773e-03,3.0737062e-04,1.0679682e-02,-2.6407543e-03,1.8698056e-02
1.9700000e+00,2.8478488e-05,1.1853416e-04,1.0259420e-04,5.2749850e-04,-6.7917824e-02,4.4742484e-04,2.4446468e-04,-1.4413666e-03,1.1343972e-03,2.5103945e-01,2.7332133e-01,8.2702740e-02
1.9800000e+00,3.4714262e-05,8.7559611e-06,6.7748528e-05,6.2278307e-04,-1.0978191e-02,6.1800261e-04,4.6633594e-05,-5.3361282e-04,4.5371224e-04,-1.9783128e-02,9.0775465e-02,-6.8068563e-02
1.9900000e+00,-1.6906445e-05,7.5058709e-04,-1.3256182e-04,-5.2868858e-03,7.4194831e-02,-4.8595036e-03,-1.6504097e-03,-4.0457038e-03,-4.6206496e-04,-1.6970449e-01,-3.5120943e-01,-9.1577808e-02
2.0000000e+00,-2.3636041e-06,7.8988727e-04,-8.5931759e-05,1.4486425e-03,3.9255154e-03,1.4719795e-03,-1.5004194e-03,-4.5683471e-03,-1.7562499e-04,1.4999042e-02,-5.2264383e-02,2.8644024e-02
2.0100000e+00,-2.9990173e-05,-4.6032604e-04,3.2457002e-04,-2.9397633e-03,-1.2501952e-01,-2.6654744e-03,1.4495786e-03,8.1244574e-04,1.4907545e-03,2.9500008e-01,5.3807980e-01,1.6663811e-01
2.0200000e+00,8.1178654e-06,-6.6860407e-04,2.4963509e-04,3.7811644e-03,-2.0822359e-02,3.8697370e-03,1.3112061e-03,2.7183783e-03,6.1131184e-04,-1.3837264e-02,1.9059344e-01,-8.7944350e-02
2.0300000e+00,1.1034275e-04,-5.4668390e-04,3.1469888e-04,1.0218207e-02,1.2203055e-02,1.0213628e-02,7.5122326e-04,1.8298139e-03,1.3146373e-03,-5.5998341e-02,-8.8856529e-02,7.0332614e-02
2.0400000e+00,4.9758843e-05,-6.0397534e-04,2.5435994e-04,-6.0552214e-03,-5.7374352e-03,-6.0537286e-03,8.3552837e-04,2.2029334e-03,1.3130690e-03,8.4305189e-03,3.7311985e-02,-1.5682639e-04
2.0500000e+00,1.6102458e-06,-6.6909376e-04,1.9888926e-04,-4.8204844e-03,-6.5163742e-03,-4.8031026e-03,1.5609717e-03,2.5045972e-03,9.4222559e-04,7.2544399e-02,3.0166415e-02,-3.7084381e-02
2.0599999e+00,2.5320680e-05,-6.6170906e-04,2.1677246e-04,2.3695751e-03,7.4194761e-04,2.3714301e-03,1.2405152e-03,2.7059163e-03,1.0053240e-03,-3.2045678e-02,2.0131922e-02,6.3098499e-03
2.0699999e+00,4.0451319e-05,-7.5843834e-04,1.4617020e-04,1.5018397e-03,-9.6687414e-03,1.5505954e-03,1.1043819e-03,3.8247759e-03,3.5819049e-04,-1.3613341e-02,1.1188607e-01,-6.4713416e-02
2.0799999e+00,1.3266139e-04,1.4288875e-04,9.2287961e-05,9.1307000e-03,9.0132030e-02,9.3178566e-03,-9.1642463e-04,-9.8964296e-04,8.3607010e-04,-2.0208085e-01,-4.8144234e-01,4.7788007e-02
2.0899999e+00,3.2510644e-05,-4.5185533e-04,2.7764106e-04,-1.0037976e-02,-5.9479264e-02,-9.9635343e-03,6.5756370e-04,1.1400365e-03,1.6177199e-03,1.5739898e-01,2.1296815e-01,7.8165050e-02
2.1000001e+00,-2.4465732e-05,-4.8231803e-04,2.7694420e-04,-5.6911151e-03,-3.0488679e-03,-5.7024664e-03,8.1667704e-04,1.2835229e-03,1.5569873e-03,1.5910970e-02,1.4348310e-02,-6.0731150e-03
2.1100001e+00,-6.6085211e-05,-5.0833725e-04,2.5869107e-04,-4.1583293e-03,-2.6046738e-03,-4.1638525e-03,8.5885548e-04,1.5183389e-03,1.4059665e-03,4.2178484e-03,2.3481628e-02,-1.5102099e-02
2.1200001e+00,-1.0436247e-04,-4.9289994e-04,2.3023667e-04,-3.8208171e-03,1.5413265e-03,-3.8355982e-03,8.9798901e-04,1.5236748e-03,1.4424138e-03,3.9133571e-03,5.3358468e-04,3.6447399e-03
2.1300001e+00,-4.2031800e-05,7.9538785e-04,-1.4279176e-04,5.9539185e-03,1.2881424e-01,6.7846127e-03,-2.1685035e-03,-4.2828653e-03,-3.6166735e-05,-3.0664954e-01,-5.8065456e-01,-1.4785820e-01
2.1400001e+00,-1.3609184e-05,7.6306223e-04,-1.1547003e-04,2.8494606e-03,-3.2377118e-03,2.8291712e-03,-2.2042455e-03,-4.0269355e-03,-2.7376201e-05,-3.5742053e-03,2.5593011e-02,8.7905428e-04
2.1500001e+00,-1.6486662e-05,-5.2392511e-04,2.9397555e-04,-3.9522504e-04,-1.2869887e-01,-7.0530072e-05,8.3812058e-04,1.6919430e-03,1.3476505e-03,3.0423689e-01,5.7188839e-01,1.3750280e-01
2.1600001e+00,2.9120530e-05,-5.2381824e-04,2.8209036e-04,4.5547791e-03,1.5793866e-05,4.5666456e-03,7.4867934e-04,1.8659172e-03,1.3040344e-03,-8.9441320e-03,1.7397437e-02,-4.3616186e-03
2.1700001e+00,1.1364835e-04,1.4852247e-04,1.0559946e-04,8.3875951e-03,6.7232156e-02,8.5330948e-03,-8.7602133e-04,-1.1014856e-03,7.4421758e-04,-1.6247022e-01,-2.9674056e-01,-5.5981733e-02
2.1800001e+00,1.3822935e-04,1.6702116e-04,1.0533038e-04,2.4542494e-03,1.8489627e-03,2.4626322e-03,-9.3014310e-04,-1.2975841e-03,8.6679276e-04,-5.4121821e-03,-1.9609870e-02,1.2257529e-02
2.1900001e+00,1.8148043e-04,1.0775443e-04,1.2294913e-04,4.3264254e-03,-5.9264309e-03,4.3241381e-03,-8.5264030e-04,-7.9563686e-04,8.6402413e-04,7.7502872e-03,5.0194770e-02,-2.7686313e-04
2.2000000e+00,1.5498222e-04,-5.7498393e-04,3.0257583e-04,-2.6920372e-03,-6.8277912e-02,-2.4996818e-03,6.7276183e-04,2.2543892e-03,1.4020188e-03,1.5254036e-01,3.0500289e-01,5.3799519e-02
2.2100000e+00,1.6336368e-04,-5.8126487e-04,2.9473914e-04,8.3642775e-04,-6.2693515e-04,8.4072836e-04,7.3799244e-04,2.1166384e-03,1.4965549e-03,6.5230673e-03,-1.3775091e-02,9.4536197e-03
2.2200000e+00,1.1769293e-04,-5.5551048e-04,2.6746145e-04,-4.5585036e-03,2.5706936e-03,-4.5783084e-03,7.4220496e-04,1.7781253e-03,1.4578949e-03,4.2125177e-04,-3.3851341e-02,-3.8660067e-03
2.2300000e+00,4.2937557e-05,-6.0814349e-04,2.5386824e-04,-7.4700365e-03,-5.2741121e-03,-7.4734343e-03,8.4803473e-04,2.2926481e-03,1.3326546e-03,1.0582988e-02,5.1452327e-02,-1.2524036e-02
2.2400000e+00,-9.5741861e-07,-5.2806255e-04,3.0425504e-04,-4.3767359e-03,8.0031745e-03,-4.4111820e-03,7.5394906e-04,1.8698880e-03,1.5313403e-03,-9.4085757e-03,-4.2276049e-02,1.9868590e-02
2.2500000e+00,-8.0880744e-05,-5.1839412e-04,2.7273004e-04,-7.9794983e-03,9.6020515e-04,-8.0059604e-03,8.6893111e-04,1.6968070e-03,1.5001461e-03,1.1498216e-02,-1.7308116e-02,-3.1194234e-03
2.2600000e+00,-6.6962016e-05,7.4361337e-04,-9.5791428e-05,1.1250354e-03,1.2619659e-01,1.9204840e-03,-2.1124824e-03,-4.1871307e-03,1.7149046e-04,-2.9814163e-01,-5.8839433e-01,-1.3286570e-01
2.2700000e+00,-1.0377264e-04,6.9740542e-04,-8.2713933e-05,-3.6689161e-03,-4.6149182e-03,-3.7005231e-03,-2.2295466e-03,-3.8131746e-03,4.9936448e-04,-1.1706438e-02,3.7395641e-02,3.2787433e-02
2.2800000e+00,-2.5327653e-04,4.6920910e-04,-1.5139273e-05,-1.4896571e-02,-2.2811217e-02,-1.5016866e-02,-1.8591926e-03,-2.4146120e-03,7.6091964e-04,3.7035437e-02,1.3985640e-01,2.6155542e-02
2.2900000e+00,-4.8137293e-04,5.2654991e-04,-4.8120720e-06,-2.2802444e-02,5.7594564e-03,-2.2810488e-02,-1.7580871e-03,-2.8695725e-03,7.5659301e-04,1.0110560e-02,-4.5496101e-02,-4.3266336e-04
2.3000000e+00,-8.1151842e-04,5.8696218e-04,-4.8066140e-05,-3.3009525e-02,6.0951233e-03,-3.3009729e-02,-1.7627655e-03,-3.3948144e-03,4.7400588e-04,-4.6783523e-04,-5.2524236e-02,-2.8258740e-02
2.3099999e+00,-1.1711202e-03,4.4923508e-04,-1.5418905e-04,-3.5944973e-02,-1.3720281e-02,-3.5995474e-02,-1.6294898e-03,-3.0861238e-03,-2.0171749e-04,1.3327581e-02,3.0869085e-02,-6.7572402e-02
2.3199999e+00,-1.3174424e-03,-8.6570762e-04,2.6586815e-04,-1.4750728e-02,-1.3152123e-01,-1.4267529e-02,1.0433263e-03,2.9166609e-03,1.2763373e-03,2.6728186e-01,6.0027904e-01,1.4780562e-01
2.3299999e+00,-1.3970539e-03,-9.1424649e-04,3.1417092e-04,-7.9546959e-03,-4.8711806e-03,-7.9570714e-03,1.0363404e-03,3.2069354e-03,1.4429360e-03,-6.9859540e-04,2.9027487e-02,1.6659891e-02
2.3399999e+00,-1.4998884e-03,-1.1312366e-03,3.4869475e-04,-1.0292486e-02,-2.1729205e-02,-1.0210449e-02,1.2867223e-03,4.2337871e-03,1.8344580e-03,2.5038222e-02,1.0268527e-01,3.9152237e-02
2.3500001e+00,-1.7060095e-03,-1.1938383e-03,2.7744388e-04,-2.0581130e-02,-6.3351471e-03,-2.0619162e-02,1.4265814e-03,5.0657094e-03,1.9103525e-03,1.3985583e-02,8.3190320e-02,7.5892720e-03
2.3600001e+00,-2.0613624e-03,-1.2207867e-03,2.3753266e-04,-3.5487035e-02,-2.8111544e-03,-3.5574553e-02,2.0548822e-03,5.3211362e-03,1.5115541e-03,6.2830144e-02,2.5542704e-02,-3.9879878e-02
2.3700001e+00,-2.5841485e-03,-9.4959294e-04,2.7504950e-04,-5.2157741e-02,2.6985927e-02,-5.2468168e-02,1.1794968e-03,3.7223910e-03,1.6989971e-03,-8.7538629e-02,-1.5987467e-01,1.8744322e-02
2.3800001e+00,-3.2807136e-03,-9.8605711e-04,2.2719900e-04,-6.9538797e-02,-3.8353192e-03,-6.9764026e-02,1.4461474e-03,4.1511820e-03,1.7639375e-03,2.6665092e-02,4.2879135e-02,6.4940470e-03
2.3900001e+00,-3.9733386e-03,-1.1295527e-03,2.0022816e-04,-6.9160462e-02,-1.4565056e-02,-6.9319595e-02,1.6622367e-03,4.7674055e-03,1.8155246e-03,2.1608952e-02,6.1622412e-02,5.1587169e-03
2.4000001e+00,-4.5719571e-03,2.5664710e-04,-1.8542981e-04,-6.0118915e-02,1.3857690e-01,-5.9704185e-02,-2.0321301e-03,-1.3165902e-03,4.1029188e-04,-3.6943703e-01,-6.0840015e-01,-1.4052341e-01
2.4100001e+00,-5.3706696e-03,-9.5743666e-04,7.2692796e-05,-7.9871819e-02,-1.2164738e-01,-7.9506515e-02,1.0254077e-03,4.0231813e-03,1.5507372e-03,3.0575406e-01,5.3397766e-01,1.1404464e-01
2.4200001e+00,-5.9677327e-03,4.1109682e-04,1.7997860e-06,-5.9979074e-02,1.3687318e-01,-5.9387039e-02,-2.2786796e-03,-2.6206919e-03,6.5277529e-04,-3.3040904e-01,-6.6438795e-01,-8.9796278e-02
2.4300001e+00,-6.7326297e-03,4.5857461e-04,-4.2078066e-05,-7.6462453e-02,4.8083224e-03,-7.6513299e-02,-2.5609907e-03,-3.3512904e-03,5.1269950e-04,-2.8231132e-02,-7.3059928e-02,-1.4007592e-02
2.4400001e+00,-7.2077492e-03,3.1347273e-04,3.3284559e-05,-4.7441807e-02,-1.4478671e-02,-4.7591687e-02,-2.5708139e-03,-3.2296008e-03,6.8864410e-04,-9.8232427e-04,1.2168978e-02,1.7594477e-02
2.4500000e+00,-7.5929799e-03,-5.7465280e-04,2.0720887e-04,-3.8383645e-02,-8.8891670e-02,-3.8480003e-02,-8.5697364e-04,1.1951177e-03,1.6427502e-03,1.7138419e-01,4.4247227e-01,9.5410704e-02
2.4600000e+00,-8.0120075e-03,-4.9030366e-04,2.5306861e-04,-4.1832453e-02,8.3305496e-03,-4.1993866e-02,-1.1621545e-03,1.3258183e-03,1.9102195e-03,-3.0518115e-02,1.3070071e-02,2.6746949e-02
2.4700000e+00,-8.4864010e-03,-1.2882022e-04,3.5586545e-04,-4.7400744e-02,3.6048462e-02,-4.7553924e-02,-2.1390263e-03,-3.4485156e-05,2.4394052e-03,-9.7687271e-02,-1.3603047e-01,5.2918621e-02
2.4800000e+00,-9.2434910e-03,-1.9227733e-04,4.0600922e-04,-7.5531809e-02,-6.4320436e-03,-7.5878644e-02,-1.7963309e-03,-6.5450254e-04,2.1867478e-03,3.4269568e-02,-6.2001798e-02,-2.5265757e-02
2.4900000e+00,-1.0097035e-02,-4.6968255e-04,3.0906472e-04,-8.5203474e-02,-2.7944992e-02,-8.5438585e-02,-1.4933305e-03,9.0123581e-04,1.2816805e-03,3.0300068e-02,1.5557398e-01,-9.0506817e-02
2.5000000e+00,-1.0838997e-02,-6.4646123e-04,3.2299731e-04,-7.4108176e-02,-1.7858153e-02,-7.4241183e-02,-1.1461349e-03,1.2826732e-03,9.1352172e-04,3.4719596e-02,3.8143772e-02,-3.6815916e-02
2.5100000e+00,-1.1378797e-02,-1.3375404e-03,5.1958013e-04,-5.3895670e-02,-6.9319664e-02,-5.3792702e-02,2.7036242e-04,4.1950654e-03,1.9081518e-03,1.4164987e-01,2.9123950e-01,9.9463099e-02
2.5200000e+00,-1.1777925e-02,-1.6321234e-03,5.0405559e-04,-3.9813786e-02,-2.9700955e-02,-3.9831771e-02,2.3558234e-04,6.3126239e-03,2.6507969e-03,-3.4780111e-03,2.1175605e-01,7.4264582e-02
2.5300000e+00,-1.2364726e-02,-1.5613993e-03,5.3761657e-04,-5.8473466e-02,6.7666204e-03,-5.8922029e-02,3.9064134e-04,5.5807652e-03,3.4690211e-03,1.5505915e-02,-7.3185935e-02,8.1822499e-02
2.5400000e+00,-1.3239125e-02,-1.0896978e-03,5.5602346e-04,-8.7166284e-02,4.6846691e-02,-8.7886129e-02,-6.8537410e-04,3.0013156e-03,3.4940808e-03,-1.0760165e-01,-2.5794521e-01,2.5059729e-03
2.5500000e+00,-1.4312267e-02,-1.3329335e-03,6.2490409e-04,-1.0697751e-01,-2.4652853e-02,-1.0757505e-01,-8.9405122e-05,2.9705710e-03,3.1129660e-03,5.9596954e-02,-3.0744609e-03,-3.8111512e-02
2.5599999e+00,-1.5311202e-02,-1.5526119e-04,1.0163006e-04,-1.0019808e-01,1.1761718e-01,-9.9765453e-02,-3.3849866e-03,-1.8888338e-03,9.3624227e-04,-3.2955846e-01,-4.8594094e-01,-2.1767258e-01
2.5699978e+00,-1.6236936e-02,-5.8530793e-04,-4.9396674e-05,-9.2461291e-02,-4.3345176e-02,-9.2570828e-02,-2.5636122e-03,1.0151971e-03,2.3189180e-04,8.2155151e-02,2.9046569e-01,-7.0450231e-02
2.5799978e+00,-1.6500768e-02,-5.2479307e-04,2.1216611e-04,-2.6369388e-02,5.9763257e-03,-2.6414280e-02,-2.7406592e-03,1.0736450e-04,1.1506621e-03,-1.7704716e-02,-9.0783346e-02,9.1877114e-02
2.5899978e+00,-1.6858225e-02,-1.3870686e-03,3.5770335e-04,-3.5587125e-02,-8.6407196e-02,-3.5469248e-02,-9.1068434e-04,4.1249303e-03,2.2363272e-03,1.8299766e-01,4.0175696e-01,1.0856662e-01
2.5999980e+00,-1.7245650e-02,-1.4663519e-03,1.6690177e-04,-3.8632586e-02,-8.2757623e-03,-3.8777847e-02,-1.6282805e-03,7.3320310e-03,2.4775395e-03,-7.1757975e-02,3.2070273e-01,2.4120680e-02
2.6099980e+00,-1.7762915e-02,-8.8036482e-04,6.6000987e-04,-5.1629489e-02,5.8376283e-02,-5.2073811e-02,-1.8862972e-03,2.3999733e-03,4.0024998e-03,-2.5801690e-02,-4.9320624e-01,1.5249617e-01
2.6199427e+00,-1.8740561e-02,-1.1450594e-03,7.7649932e-04,-9.7945113e-02,-2.6904243e-02,-9.8592592e-02,-8.6027518e-04,2.0581043e-03,3.4574219e-03,1.0317298e-01,-3.4377080e-02,-5.4811024e-02
2.6299427e+00,-1.9680063e-02,-9.1095846e-04,7.2356013e-04,-9.3799306e-02,2.3217620e-02,-9.4148735e-02,-1.9970322e-03,5.1299303e-05,2.1006004e-03,-1.1367581e-01,-2.0068069e-01,-1.3568228e-01
2.6399426e+00,-2.0629836e-02,-1.3157287e-03,6.4632570e-04,-9.4768111e-02,-4.0749349e-02,-9.5069961e-02,-1.5056598e-03,1.3599259e-03,1.5594298e-03,4.9137289e-02,1.3086278e-01,-5.4117104e-02
2.6499426e+00,-2.1245107e-02,-2.0386546e-03,8.4706822e-04,-6.1347935e-02,-7.2584439e-02,-6.1362357e-02,-8.1982431e-05,4.6600675e-03,2.8125250e-03,1.4236787e-01,3.3001448e-01,1.2530964e-01
2.6599426e+00,-2.1807727e-02,-2.1991670e-03,7.4815293e-04,-5.6099541e-02,-1.6430095e-02,-5.6314963e-02,-3.4711048e-04,6.3745393e-03,2.7856464e-03,-2.6512830e-02,1.7144734e-01,-2.6878656e-03
2.6699426e+00,-2.2308857e-02,-2.0331594e-03,7.3755798e-04,-4.9952460e-02,1.6258556e-02,-5.0384817e-02,-5.2823911e-04,6.2730003e-03,3.3734665e-03,-1.8112881e-02,-1.0153908e-02,5.8782071e-02
2.6799426e+00,-2.3167301e-02,-3.9038334e-04,4.3414443e-04,-8.6373665e-02,1.6402102e-01,-8.5804622e-02,-4.6515933e-03,-1.6795186e-03,2.7226782e-03,-4.1233581e-01,-7.9525265e-01,-6.5078892e-02
2.6899426e+00,-2.4314668e-02,-4.0046379e-04,5.3489174e-04,-1.1442126e-01,-1.2195913e-03,-1.1504941e-01,-4.2956206e-03,-2.4451583e-03,2.6994547e-03,3.5597305e-02,-7.6564047e-02,-2.3223571e-03
2.6999426e+00,-2.5604011e-02,-4.3791560e-04,7.8655338e-04,-1.2856828e-01,-3.7398288e-03,-1.2929965e-01,-3.7655123e-03,-3.7962995e-03,2.7194643e-03,5.3010878e-02,-1.3511424e-01,2.0009624e-03
2.7099426e+00,-2.6690061e-02,-1.6102127e-03,6.2904834e-04,-1.0825460e-01,-1.1762039e-01,-1.0853267e-01,-1.3261954e-03,2.2696755e-03,1.7930165e-03,2.4393193e-01,6.0659808e-01,-9.2644864e-02
2.7199426e+00,-2.7430988e-02,-9.4812427e-04,4.5585565e-04,-7.4257171e-02,6.5989906e-02,-7.4123534e-02,-3.1813979e-03,-2.3001999e-04,6.1862437e-04,-1.8552043e-01,-2.4996979e-01,-1.1743933e-01
2.7299426e+00,-2.7957869e-02,-9.6543960e-04,5.2053574e-04,-5.2601054e-02,-1.8708361e-03,-5.2770372e-02,-3.0260420e-03,-3.8141021e-04,1.5480557e-03,1.5535602e-02,-1.5139037e-02,9.2943222e-02
2.7399426e+00,-2.8536446e-02,-2.1301612e-03,7.4906600e-04,-5.7593080e-02,-1.1682761e-01,-5.7403736e-02,-4.7909478e-04,5.6747592e-03,3.6044473e-03,2.5469497e-01,6.0561752e-01,2.0563935e-01
2.7499425e+00,-2.9121208e-02,-2.0971478e-03,5.4857336e-04,-5.8293715e-02,2.6650726e-03,-5.8690526e-02,-2.1939958e-03,8.6568360e-03,3.2373898e-03,-1.7149026e-01,2.9820796e-01,-3.6705781e-02
2.7599425e+00,-2.9912212e-02,-1.5864109e-03,5.9287243e-04,-7.9030033e-02,5.0524497e-02,-7.9522457e-02,-2.5806740e-03,4.3435880e-03,2.5500634e-03,-3.8667863e-02,-4.3132520e-01,-6.8732708e-02
2.7699425e+00,-3.1237676e-02,-2.0296186e-03,5.2950425e-04,-1.3223821e-01,-4.5452609e-02,-1.3247131e-01,-1.9881999e-03,6.5477421e-03,1.6584346e-03,5.9247467e-02,2.2041561e-01,-8.9162962e-02
2.7799425e+00,-3.2340789e-02,-2.4655619e-03,5.5691782e-04,-1.1007420e-01,-4.4596521e-02,-1.1014765e-01,-1.2210049e-03,7.8633099e-03,1.6657174e-03,7.6719581e-02,1.3155691e-01,7.2827919e-04
2.7899425e+00,-3.3307341e-02,-2.0104200e-03,8.7862849e-04,-9.6468439e-02,4.4856696e-02,-9.7148016e-02,-1.5005461e-03,5.2813751e-03,2.6347570e-03,-2.7954154e-02,-2.5819373e-01,9.6904057e-02
2.7999425e+00,-3.4377919e-02,-1.5087488e-03,9.2204768e-04,-1.0693787e-01,4.9639213e-02,-1.0742334e-01,-2.7386955e-03,2.1846542e-03,2.3979004e-03,-1.2381505e-01,-3.0967238e-01,-2.3685684e-02
2.8099425e+00,-3.5571106e-02,-7.1192698e-04,7.4785056e-04,-1.1942702e-01,7.9492199e-02,-1.1933730e-01,-4.0418943e-03,-2.4520484e-03,1.7824439e-03,-1.3032000e-01,-4.6367070e-01,-6.1545711e-02
2.8199425e+00,-3.7054888e-02,-1.7538154e-03,1.3070731e-03,-1.4774369e-01,-1.0447865e-01,-1.4880725e-01,-1.3256019e-03,6.2559731e-04,3.3398431e-03,2.7162950e-01,3.0776486e-01,1.5574007e-01
2.8299425e+00,-3.7953029e-02,-2.3970630e-03,1.2089698e-03,-8.9465786e-02,-6.4769922e-02,-8.9842104e-02,-6.9841699e-04,4.2496703e-03,3.3734201e-03,6.2718551e-02,3.6240765e-01,3.3577055e-03
2.8399425e+00,-3.8886664e-02,-1.2367863e-03,6.8507066e-04,-9.3597360e-02,1.1569881e-01,-9.3537568e-02,-3.7575134e-03,-2.4212928e-04,2.1560648e-03,-3.0590993e-01,-4.4918039e-01,-1.2173564e-01
2.8499427e+00,-4.0012849e-02,-2.8101618e-03,9.5311101e-04,-1.1218246e-01,-1.5815059e-01,-1.1190253e-01,-1.2320422e-04,7.1378855e-03,3.6707111e-03,3.6342260e-01,7.3798458e-01,1.5146115e-01
2.8599427e+00,-4.1309127e-02,-2.7760169e-03,9.0620536e-04,-1.2919637e-01,2.4079270e-03,-1.3008046e-01,-3.3924391e-04,7.4005245e-03,3.3320895e-03,-2.1603990e-02,2.6263924e-02,-3.3862192e-02
2.8699427e+00,-4.2801334e-02,-2.5711206e-03,9.8632730e-04,-1.4884258e-01,1.9276065e-02,-1.4975949e-01,-1.1199068e-03,6.9907731e-03,2.6849263e-03,-7.8066361e-02,-4.0975174e-02,-6.4716375e-02
2.8799427e+00,-4.4357289e-02,-2.7665176e-03,1.0672536e-03,-1.5527713e-01,-2.0675627e-02,-1.5576686e-01,-9.0204836e-04,6.3886654e-03,1.9312459e-03,2.1785862e-02,-6.0210833e-02,-7.5368110e-02
2.8899426e+00,-4.5684208e-02,-2.9980971e-03,1.2161145e-03,-1.3240667e-01,-2.3975516e-02,-1.3283174e-01,1.4712624e-04,6.2981831e-03,2.1735935e-03,1.0491756e-01,-9.0482393e-03,2.4234775e-02
2.8999426e+00,-4.7151766e-02,-1.8056564e-03,6.9031687e-04,-1.4703831e-01,1.1866222e-01,-1.4694505e-01,-2.6104211e-03,1.3513907e-03,1.9406951e-04,-2.7575499e-01,-4.9467971e-01,-1.9795258e-01
2.9099426e+00,-4.8127774e-02,-2.4837286e-03,1.1237095e-03,-9.7283722e-02,-6.8297051e-02,-9.7575902e-02,-1.0039477e-03,4.0098113e-03,2.5476401e-03,1.6064749e-01,2.6584232e-01,2.3535728e-01
2.9199426e+00,-4.9153926e-02,-2.0069792e-03,1.1619308e-03,-1.0240000e-01,4.7084339e-02,-1.0310203e-01,-2.5300846e-03,3.2115460e-03,3.2655455e-03,-1.5261384e-01,-7.9826608e-02,7.1790613e-02
2.9299426e+00,-5.0516364e-02,-1.2035131e-03,9.4369441e-04,-1.3612621e-01,8.0095870e-02,-1.3650905e-01,-3.8203167e-03,-1.9787170e-03,3.1049462e-03,-1.2902333e-01,-5.1902680e-01,-1.6059943e-02
2.9399426e+00,-5.2228075e-02,-1.3582083e-03,9.6726287e-04,-1.7070275e-01,-1.5778700e-02,-1.7161031e-01,-3.4245783e-03,-1.6138119e-03,2.4186898e-03,3.9573882e-02,3.6490548e-02,-6.8625710e-02
2.9499426e+00,-5.4267065e-02,-3.0127323e-03,1.1230023e-03,-2.0342793e-01,-1.6670248e-01,-2.0335103e-01,3.5600328e-06,6.1347930e-03,2.3112919e-03,3.4281416e-01,7.7486123e-01,-1.0739802e-02
2.9599426e+00,-5.6024551e-02,-1.6262728e-03,9.8812638e-04,-1.7598857e-01,1.3817965e-01,-1.7587623e-01,-3.4988523e-03,-8.4878062e-04,1.3890245e-03,-3.5024157e-01,-6.9835803e-01,-9.2226826e-02
2.9699426e+00,-5.7675068e-02,-2.0490781e-03,9.9091013e-04,-1.6475382e-01,-4.2856671e-02,-1.6520087e-01,-2.4225006e-03,1.0675670e-03,1.1811872e-03,1.0763527e-01,1.9163494e-01,-2.0783744e-02
2.9799426e+00,-5.9323725e-02,-1.9801024e-03,8.5691778e-04,-1.6472051e-01,6.4017342e-03,-1.6503103e-01,-2.5814433e-03,4.2553791e-04,9.8572993e-04,-1.5894286e-02,-6.4202967e-02,-1.9545750e-02
2.9899426e+00,-6.0869344e-02,-3.2829239e-03,1.1812947e-03,-1.5420718e-01,-1.3106792e-01,-1.5425209e-01,7.9446316e-04,5.8749961e-03,2.9613330e-03,3.3759097e-01,5.4494634e-01,1.9756050e-01
2.9999425e+00,-6.2587594e-02,-3.0833166e-03,1.3339890e-03,-1.7123555e-01,1.9140730e-02,-1.7250570e-01,-7.6062110e-05,4.6790077e-03,3.4343470e-03,-8.7052610e-02,-1.1959895e-01,4.7301438e-02
3.0099425e+00,-6.4328727e-02,-2.6522611e-03,1.1848558e-03,-1.7375265e-01,4.2030432e-02,-1.7473556e-01,-1.9628360e-03,4.1989098e-03,2.5527794e-03,-1.8867757e-01,-4.8009837e-02,-8.8156842e-02
3.0199425e+00,-6.6464582e-02,-2.6501061e-03,1.3014389e-03,-2.1299349e-01,-6.9486211e-04,-2.1417531e-01,-1.6529381e-03,2.6021532e-03,2.7693102e-03,3.0989818e-02,-1.5967581e-01,2.1653103e-02
3.0299425e+00,-6.8885983e-02,-3.1609519e-03,1.5157934e-03,-2.4144619e-01,-5.1790713e-02,-2.4268286e-01,1.2821015e-04,3.0364302e-03,2.8895272e-03,1.7811499e-01,4.3427742e-02,1.2021715e-02
3.0399425e+00,-7.1202617e-02,-3.4539968e-03,8.1566795e-04,-2.3167610e-01,-3.1217691e-02,-2.3140120e-01,-7.3620851e-04,7.5270143e-03,-1.4702208e-04,-8.6441949e-02,4.4905883e-01,-3.0365522e-01
3.0499425e+00,-7.3275575e-02,-3.2487969e-03,1.4321288e-03,-2.0697546e-01,2.0286591e-02,-2.0763893e-01,6.8193748e-04,1.8050750e-03,1.4773386e-03,1.4181473e-01,-5.7219448e-01,1.6243622e-01
3.0599425e+00,-7.5333489e-02,-3.2148034e-03,1.1085925e-03,-2.0559244e-01,2.4591537e-03,-2.0600400e-01,-5.6329420e-04,4.0013795e-03,9.7659740e-04,-1.2452329e-01,2.1963066e-01,-5.0074165e-02
3.0699425e+00,-7.7426989e-02,-3.8229834e-03,1.2709880e-03,-2.0888274e-01,-6.2159531e-02,-2.0942313e-01,5.5233562e-04,6.9506537e-03,2.3904025e-03,1.1156309e-01,2.9492771e-01,1.4138065e-01
3.0799425e+00,-7.9413744e-02,-2.2547929e-03,9.0354751e-04,-1.9878669e-01,1.5628791e-01,-1.9898307e-01,-2.7347678e-03,-6.3458268e-05,1.5948825e-03,-3.2871065e-01,-7.0141187e-01,-7.9552079e-02
3.0899425e+00,-8.1837455e-02,-2.2982804e-03,1.1025214e-03,-2.4191070e-01,-4.7893249e-03,-2.4282275e-01,-2.7704526e-03,-9.5089300e-04,1.8451653e-03,-3.5684873e-03,-8.8743558e-02,2.5028307e-02
3.0999427e+00,-8.4363724e-02,-2.3551753e-03,1.0523244e-03,-2.5221921e-01,-5.9710820e-03,-2.5301590e-01,-2.3181345e-03,-1.2009867e-03,1.5348725e-03,4.5230771e-02,-2.5008802e-02,-3.1028568e-02
3.1099427e+00,-8.7089616e-02,-2.5673254e-03,1.1834540e-03,-2.7223230e-01,-2.1471681e-02,-2.7292601e-01,-2.0201785e-03,-1.0771992e-03,1.1501904e-03,2.9795631e-02,1.2378768e-02,-3.8468250e-02
3.1199427e+00,-8.9672704e-02,-2.7855940e-03,1.1634085e-03,-2.5821447e-01,-2.2395894e-02,-2.5835486e-01,-2.1372969e-03,6.5689372e-05,1.8316659e-04,-1.1711847e-02,1.1428896e-01,-9.6702474e-02
3.1299427e+00,-9.2253254e-02,-2.9793877e-03,1.0548692e-03,-2.5823622e-01,-1.9881453e-02,-2.5783607e-01,-1.7441628e-03,2.0170174e-04,-8.3385886e-04,3.9313446e-02,1.3601250e-02,-1.0170264e-01
3.1399426e+00,-9.4679525e-02,-4.5899684e-03,1.5896393e-03,-2.4259642e-01,-1.6242955e-01,-2.4174231e-01,1.5996085e-03,7.2613580e-03,1.1869639e-03,3.3437745e-01,7.0596630e-01,2.0208247e-01
3.1499426e+00,-9.6963745e-02,-3.8434621e-03,1.5312100e-03,-2.2807195e-01,7.3640382e-02,-2.2909922e-01,-1.2372002e-04,4.2895709e-03,1.5727266e-03,-1.7233302e-01,-2.9717900e-01,3.8576301e-02
3.1599426e+00,-9.9527637e-02,-4.1566172e-03,1.5811142e-03,-2.5585405e-01,-3.2290927e-02,-2.5680298e-01,4.5649337e-04,4.2528437e-03,2.1416086e-03,5.8021395e-02,-3.6727199e-03,5.6888252e-02
3.1699426e+00,-1.0216722e-01,-4.9917022e-03,1.7422596e-03,-2.6343937e-01,-8.5167993e-02,-2.6394705e-01,2.0003620e-03,8.2770232e-03,2.5944509e-03,1.5438701e-01,4.0241834e-01,4.5284279e-02
3.1799426e+00,-1.0516036e-01,-5.1527196e-03,1.9323247e-03,-2.9853129e-01,-1.7256171e-02,-3.0003180e-01,2.5938514e-03,6.4343338e-03,2.7495781e-03,5.9348991e-02,-1.8426912e-01,1.5512735e-02
