time, x, y, z, vx, vy, vz, yaw, pitch, roll, yaw_rate, pitch_rate, roll_rate
0.0000000e+00,0.0000000e+00,0.0000000e+00,0.0000000e+00,0.0000000e+00,0.0000000e+00,0.0000000e+00,0.0000000e+00,0.0000000e+00,0.0000000e+00,0.0000000e+00,0.0000000e+00,0.0000000e+00
9.9999905e-03,1.4970534e-04,1.1008463e-03,5.0379382e-04,1.4750332e-02,1.0998770e-01,1.5875037e-02,-1.7881503e-03,-8.0098674e-03,1.5581547e-03,-1.7881520e-01,-8.0098750e-01,1.5581562e-01
1.9999981e-02,-3.1770225e-05,8.1681725e-04,3.8578975e-04,-1.8097043e-02,-2.8319013e-02,-1.8328282e-02,-1.4159824e-03,-6.0070086e-03,5.6711791e-04,3.7216830e-02,2.0028607e-01,-9.9103773e-02
2.9999971e-02,-1.3505522e-04,-8.2905381e-04,-4.2506282e-04,-1.0552365e-02,-1.6462291e-01,-9.5008982e-03,1.2587234e-03,4.9244174e-03,-1.6177242e-03,2.6747083e-01,1.0931436e+00,-2.1848442e-01
3.9999962e-02,-6.4607436e-05,-6.8937490e-04,-3.3736971e-04,7.0660069e-03,1.3992009e-02,6.9753538e-03,8.5229110e-04,4.2986987e-03,-1.3238453e-03,-4.0643264e-02,-6.2571932e-02,2.9387914e-02
4.9999952e-02,6.9743192e-05,8.7358789e-05,-1.4849035e-04,1.3367950e-02,7.7701697e-02,1.3338310e-02,-9.0591435e-04,1.2039230e-03,-2.4156910e-04,-1.7582071e-01,-3.0947787e-01,1.0822772e-01
5.9999943e-02,5.3122271e-06,-7.8309006e-05,-1.9216254e-04,-6.4399213e-03,-1.6582420e-02,-6.4059824e-03,-4.2349933e-04,2.0081376e-03,-5.9542905e-04,4.8241548e-02,8.0421536e-02,-3.5386029e-02
6.9999933e-02,2.9452559e-07,-1.4898057e-04,-2.1474633e-04,-5.0177803e-04,-7.0682449e-03,-4.8629090e-04,-5.1967874e-05,2.1371897e-03,-7.4697345e-04,3.7153181e-02,1.2905228e-02,-1.5154454e-02
7.9999924e-02,5.5115437e-05,-3.9209338e-05,-1.9023725e-04,5.4818084e-03,1.0987467e-02,5.4616450e-03,-3.2152720e-04,1.5669223e-03,-5.9151439e-04,-2.6955958e-02,-5.7026797e-02,1.5545921e-02
8.9999914e-02,1.5665010e-04,2.8655302e-06,-2.5499734e-06,1.0151874e-02,4.2241673e-03,1.0148152e-02,-8.5588255e-04,7.8699309e-04,-1.9731334e-04,-5.3435586e-02,-7.7992994e-02,3.9420142e-02
9.9999905e-02,1.9335485e-04,6.3770053e-05,3.4374597e-05,3.6636154e-03,6.0965162e-03,3.6672770e-03,-1.0894016e-03,5.6230513e-04,6.1625426e-05,-2.3351925e-02,-2.2468818e-02,2.5893901e-02
1.1000013e-01,-5.2647419e-05,-5.8508526e-04,-2.6704866e-04,-2.4650832e-02,-6.4989219e-02,-2.4268587e-02,1.7525151e-04,4.4844540e-03,-1.6191231e-03,1.2646241e-01,3.9220591e-01,-1.6807100e-01
1.2000012e-01,1.1150869e-04,8.6814639e-04,4.1161299e-04,1.6120096e-02,1.4525847e-01,1.7260616e-02,-1.9880829e-03,-5.7706906e-03,4.0096428e-04,-2.1633365e-01,-1.0255154e+00,2.0200893e-01
1.3000011e-01,6.3421756e-05,8.9260421e-04,4.2525208e-04,-4.8112171e-03,2.4651903e-03,-4.7962525e-03,-1.9797108e-03,-6.0225490e-03,4.8092243e-04,8.3721256e-04,-2.5185862e-02,7.9958232e-03
1.4000010e-01,-1.1115401e-04,-7.2106363e-04,-3.4364147e-04,-1.7613080e-02,-1.6143259e-01,-1.6677013e-02,8.2604884e-04,4.6977652e-03,-1.2722528e-03,2.8057623e-01,1.0720324e+00,-1.7531769e-01
1.5000010e-01,1.2816614e-04,1.6213342e-03,-2.0188492e-04,2.3047880e-02,2.3412888e-01,2.5813311e-02,-3.7645191e-03,-8.0227428e-03,9.1438438e-05,-4.5905724e-01,-1.2720520e+00,1.3636925e-01
1.6000009e-01,1.3421269e-05,4.5303627e-04,-1.8745029e-04,-1.1339226e-02,-1.1683347e-01,-1.1572226e-02,-1.1260603e-03,-8.0508075e-04,3.2302340e-04,2.6384614e-01,7.2176689e-01,2.3158518e-02
1.7000008e-01,4.0549032e-05,9.5134268e-04,1.0636432e-05,2.6114341e-03,4.9825836e-02,2.8952221e-03,-1.9861245e-03,-3.6154644e-03,8.7311647e-04,-8.6006509e-02,-2.8103863e-01,5.5009360e-02
1.8000007e-01,4.5794772e-05,9.7325882e-04,2.1651862e-05,5.1970953e-04,2.1905704e-03,5.3370749e-04,-1.9581550e-03,-3.9084726e-03,1.0906674e-03,2.7969598e-03,-2.9300847e-02,2.1755112e-02
1.9000006e-01,8.0151959e-05,9.2077941e-04,4.7396430e-06,3.4409806e-03,-5.2546691e-03,3.4201481e-03,-1.7292561e-03,-3.6946756e-03,1.1086937e-03,2.2889907e-02,2.1379725e-02,1.8026371e-03
2.0000005e-01,6.6541660e-05,-1.2932833e-04,-7.9686568e-05,-1.3276254e-03,-1.0501324e-01,-1.2024657e-03,-3.2161698e-04,1.5065562e-03,-2.7010597e-04,1.4076405e-01,5.2012367e-01,-1.3788010e-01
2.1000004e-01,-1.1090118e-04,-6.2983562e-04,-3.4886952e-04,-1.7788278e-02,-5.0134320e-02,-1.7462182e-02,1.3798700e-04,4.8901831e-03,-2.0913724e-03,4.5960442e-02,3.3836302e-01,-1.8212682e-01
2.2000003e-01,1.1597498e-04,9.0954607e-04,4.3818604e-04,2.2412519e-02,1.5382111e-01,2.3731980e-02,-1.7002507e-03,-6.7001654e-03,5.8834770e-04,-1.8382394e-01,-1.1590360e+00,2.6797227e-01
2.3000002e-01,3.0696327e-04,5.6117559e-06,1.8901586e-04,1.9162558e-02,-9.0350684e-02,1.9237206e-02,-8.7836501e-04,1.3570355e-03,8.2065521e-04,8.2188646e-02,8.0572086e-01,2.3230773e-02
2.4000001e-01,2.1926478e-04,-3.3782689e-04,4.1222312e-05,-8.7518534e-03,-3.4381634e-02,-8.6390046e-03,-5.4071526e-04,3.7912401e-03,-6.4705264e-05,3.3765007e-02,2.4342069e-01,-8.8536132e-02
2.5000000e-01,1.7013282e-04,-4.2680744e-04,1.6686762e-05,-4.9116078e-03,-8.9206093e-03,-4.8737503e-03,-3.3403555e-04,4.2727452e-03,-2.8087577e-04,2.0667991e-02,4.8150559e-02,-2.1617071e-02
2.5999999e-01,2.0238314e-04,-3.0520523e-07,5.4479872e-05,3.1906321e-03,4.2659905e-02,3.1303440e-03,-7.8262231e-04,2.2435897e-03,3.1717878e-04,-4.4858718e-02,-2.0291574e-01,5.9805512e-02
2.6999998e-01,2.2959537e-04,4.2322168e-04,1.9791442e-04,2.6684314e-03,4.2354250e-02,2.7496748e-03,-1.1943618e-03,-6.2058401e-04,8.1088006e-04,-4.1173992e-02,-2.8641765e-01,4.9370175e-02
2.7999997e-01,2.3509853e-04,5.5018384e-04,1.9949517e-04,5.2537967e-04,1.2696763e-02,5.6223162e-04,-1.9250801e-03,-9.0112773e-04,8.9953032e-04,-7.3071897e-02,-2.8054399e-02,8.8650348e-03
2.8999996e-01,1.4951945e-04,-1.8327725e-04,8.9649744e-05,-8.4990356e-03,-7.3374446e-02,-8.3722711e-03,-7.4670492e-04,2.5861429e-03,4.8025972e-04,1.1783763e-01,3.4872739e-01,-4.1927100e-02
2.9999995e-01,4.1892148e-04,1.7685210e-03,3.7656083e-04,2.6183574e-02,1.9501532e-01,2.8813790e-02,-3.5752218e-03,-9.3085589e-03,2.1755682e-03,-2.8285195e-01,-1.1894713e+00,1.6953101e-01
3.0999994e-01,3.6371597e-04,1.7353575e-03,3.9545476e-04,-5.4986656e-03,-3.2867321e-03,-5.5599768e-03,-3.5668719e-03,-8.8888060e-03,1.8145119e-03,8.3499076e-04,4.1975330e-02,-3.6105665e-02
3.1999993e-01,3.6647735e-04,1.7439617e-03,3.8858359e-04,2.7259461e-04,8.5886172e-04,2.8440124e-04,-3.5454289e-03,-9.0428241e-03,1.7775431e-03,2.1442964e-03,-1.5401819e-02,-3.6968807e-03
3.2999992e-01,4.3431190e-04,1.2732172e-03,2.6466350e-05,6.9548927e-03,-4.7071786e-02,6.6269180e-03,-3.8743671e-03,-3.5639843e-03,1.6057817e-03,-3.2893846e-02,5.4788449e-01,-1.7176157e-02
3.3999991e-01,4.2121786e-04,1.4927961e-03,1.3917235e-04,-1.3937960e-03,2.1959202e-02,-1.1957810e-03,-3.9579220e-03,-5.2965862e-03,1.9120990e-03,-8.3555028e-03,-1.7326036e-01,3.0631764e-02
3.4999990e-01,4.1045986e-04,1.2788917e-03,6.4983822e-05,-9.9112026e-04,-2.1390575e-02,-1.1522618e-03,-3.8659115e-03,-3.4888846e-03,1.8387037e-03,9.2010572e-03,1.8077033e-01,-7.3395371e-03
3.6000013e-01,1.7873911e-04,4.4734703e-04,2.0361753e-04,-2.3042653e-02,-8.3162661e-02,-2.3263640e-02,-1.2365733e-03,-7.9583496e-04,1.1235676e-03,2.6292781e-01,2.6929880e-01,-7.1511978e-02
3.7000012e-01,2.4305566e-04,4.8437507e-04,1.8898021e-04,6.4202701e-03,3.7093328e-03,6.4392767e-03,-1.5155956e-03,-4.9975369e-04,8.9694785e-04,-2.7902258e-02,2.9608155e-02,-2.2661995e-02
3.8000011e-01,1.2651818e-04,-1.3183980e-04,-8.8176822e-05,-1.1625556e-02,-6.1649630e-02,-1.1532763e-02,-5.3145647e-04,1.8893954e-03,-3.9030767e-04,9.8414007e-02,2.3891514e-01,-1.2872568e-01
3.9000010e-01,4.4213798e-05,-3.9506236e-04,-2.1105716e-04,-8.2429211e-03,-2.6344955e-02,-8.1449702e-03,1.7789838e-04,2.9495815e-03,-9.4726342e-04,7.0935553e-02,1.0601871e-01,-5.5695628e-02
4.0000010e-01,2.6949488e-04,-1.1459243e-04,1.7024912e-04,2.2492442e-02,2.8109332e-02,2.2486085e-02,-7.1303253e-04,2.0544862e-03,6.9591451e-04,-8.9093176e-02,-8.9509620e-02,1.6431795e-01
4.1000009e-01,2.9472568e-04,-5.6883630e-05,1.7613702e-04,2.5164983e-03,5.7781654e-03,2.5129789e-03,-8.9439801e-04,1.9950798e-03,5.6356541e-04,-1.8136565e-02,-5.9406461e-03,-1.3234922e-02
4.2000008e-01,2.1497395e-04,-8.8426913e-05,1.5580999e-04,-7.9654653e-03,-3.1889247e-03,-7.9711323e-03,-1.7486949e-03,2.5895210e-03,5.2493016e-04,-8.5429773e-02,5.9444176e-02,-3.8635293e-03
4.3000007e-01,1.3227075e-04,-4.5786722e-04,-4.3591861e-05,-8.2630723e-03,-3.6980280e-02,-8.1142575e-03,-2.1729819e-04,4.2014212e-03,-9.3465804e-05,1.5313982e-01,1.6119018e-01,-6.1839655e-02
4.4000006e-01,5.0887451e-05,-6.2686869e-04,-1.1540281e-04,-8.1443179e-03,-1.6936129e-02,-8.0571857e-03,3.1721766e-04,4.7604892e-03,-7.6096400e-05,5.3451636e-02,5.5906859e-02,1.7369421e-03
4.5000005e-01,-2.1808612e-06,-7.1389325e-04,-1.3896498e-04,-5.3143728e-03,-8.7272958e-03,-5.2582944e-03,6.1305549e-04,5.3179076e-03,-4.1509851e-04,2.9583811e-02,5.5741890e-02,-3.3900244e-02
4.6000004e-01,5.0943660e-05,-1.9531678e-04,1.1270215e-04,5.3041234e-03,5.1870735e-02,5.1921367e-03,-1.4124701e-04,2.3393199e-03,1.8991774e-04,-7.5430321e-02,-2.9785905e-01,6.0501683e-02
4.7000003e-01,4.3467940e-04,1.2988967e-03,5.4289343e-05,3.7693117e-02,1.4946082e-01,3.8891437e-02,-4.1629180e-03,-3.0813353e-03,1.5138102e-03,-4.0216748e-01,-5.4206604e-01,1.3238937e-01
4.8000002e-01,3.6674346e-04,1.1112467e-03,-1.2639452e-04,-6.7116528e-03,-1.8786239e-02,-6.8163853e-03,-3.7460836e-03,-6.0251932e-04,1.7067210e-03,4.1683476e-02,2.4788184e-01,1.9291102e-02
4.9000001e-01,1.9669803e-04,5.5513757e-04,9.0928199e-05,-1.6897866e-02,-5.5609934e-02,-1.7113929e-02,-1.3048417e-03,-1.3568047e-03,2.0042345e-03,2.4412443e-01,-7.5428607e-02,2.9751379e-02
5.0000000e-01,1.0621485e-04,2.9159272e-05,1.5705912e-04,-9.0207484e-03,-5.2610214e-02,-9.0040450e-03,-4.2837805e-04,9.3735821e-04,5.5740617e-04,8.7646446e-02,2.2941651e-01,-1.4468297e-01
5.0999999e-01,5.0664218e-06,-8.0651404e-04,-1.6805723e-04,-1.0196699e-02,-8.3617114e-02,-9.6092778e-03,8.7246789e-04,5.9405895e-03,-8.8426555e-04,1.3008472e-01,5.0032361e-01,-1.4416731e-01
5.1999998e-01,4.6585214e-04,1.0051240e-03,1.5196895e-04,4.5325264e-02,1.8122731e-01,4.6574095e-02,-3.9117604e-03,-2.4926098e-03,9.6160867e-04,-4.7842329e-01,-8.4332074e-01,1.8458760e-01
5.2999997e-01,9.1022066e-05,-5.8731425e-04,-7.4745374e-05,-3.7557608e-02,-1.5939154e-01,-3.6774480e-02,4.3039180e-04,4.4097701e-03,-1.6091848e-04,4.3421564e-01,6.9023865e-01,-1.1225282e-01
5.3999996e-01,9.9200118e-05,-2.2084029e-04,-1.1048429e-04,8.0815235e-04,3.6649253e-02,7.4224914e-04,-2.7563512e-04,2.0495903e-03,-5.4765350e-04,-7.0602759e-02,-2.3601820e-01,-3.8673539e-02
5.4999995e-01,4.9198783e-05,-3.7678270e-04,-1.9550790e-04,-5.0071176e-03,-1.5609377e-02,-4.9456765e-03,6.0526321e-05,3.1033779e-03,-1.2077820e-03,3.3616176e-02,1.0537887e-01,-6.6012917e-02
5.5999994e-01,5.9673915e-05,6.9904956e-05,-1.8267829e-05,1.0283200e-03,4.4669542e-02,1.0351357e-03,-4.4317689e-04,2.6388100e-04,-5.7496011e-04,-5.0370369e-02,-2.8394997e-01,6.3282253e-02
5.6999993e-01,8.0034138e-05,-1.0766449e-04,-4.6293218e-05,2.0446670e-03,-1.7753278e-02,2.0593477e-03,-4.5668600e-04,1.3438362e-03,-2.6213078e-04,-1.3509121e-03,1.0799563e-01,3.1282963e-02
5.7999992e-01,-1.3766965e-05,-6.0095238e-04,-2.4689860e-04,-9.4170624e-03,-4.9362166e-02,-9.1653087e-03,5.0515910e-04,4.1087271e-03,-1.2828330e-03,9.6184601e-02,2.7648935e-01,-1.0207032e-01
5.8999991e-01,1.5712906e-04,3.6168948e-04,9.9202477e-05,1.6944401e-02,9.6271466e-02,1.7193414e-02,-1.4736249e-03,-1.0436292e-03,1.9555282e-04,-1.9787859e-01,-5.1523612e-01,1.4783872e-01
5.9999990e-01,-7.2169567e-06,-3.8366049e-04,-1.8482537e-04,-1.6457844e-02,-7.4579979e-02,-1.6206042e-02,1.1590378e-04,2.8698584e-03,-8.8802955e-04,1.5895302e-01,3.9134913e-01,-1.0835834e-01
6.1000013e-01,1.3630761e-04,5.8078496e-04,-7.0239104e-05,1.4194186e-02,9.6434721e-02,1.4558893e-02,-1.4852199e-03,-1.9931462e-03,1.0229306e-03,-1.6010870e-01,-4.8628933e-01,1.9109164e-01
6.2000012e-01,8.0664433e-05,4.5769208e-04,-1.7226275e-04,-5.5474392e-03,-1.2309061e-02,-5.5816826e-03,-1.0787619e-03,-1.1183029e-03,6.4708664e-04,4.0645840e-02,8.7484411e-02,-3.7584429e-02
6.3000011e-01,9.7809173e-05,4.1694234e-04,-1.6608972e-04,1.7172791e-03,-4.0745112e-03,1.7127768e-03,-9.8118203e-04,-7.1055271e-04,6.9615605e-04,9.7579943e-03,4.0775058e-02,4.9069455e-03
6.4000010e-01,6.1585408e-05,4.6911367e-04,-1.8324721e-04,-3.6272605e-03,5.2151279e-03,-3.6203903e-03,-1.2897433e-03,-7.3598020e-04,5.0923549e-04,-3.0856157e-02,-2.5427511e-03,-1.8692073e-02
6.5000010e-01,2.5655011e-05,3.2707708e-04,-2.1174398e-04,-3.5795582e-03,-1.4205972e-02,-3.5974142e-03,-8.6723867e-04,-2.2593762e-04,3.2436489e-04,4.2250504e-02,5.1004306e-02,-1.8487077e-02
6.6000009e-01,1.2576673e-04,6.1319355e-04,5.7188341e-05,9.9682835e-03,2.8598530e-02,1.0091226e-02,-1.2659237e-03,-2.5655210e-03,6.6599355e-04,-3.9868544e-02,-2.3395856e-01,3.4162898e-02
6.7000008e-01,1.6242639e-04,5.9791373e-04,7.9955543e-05,3.6659384e-03,-1.5323428e-03,3.6641813e-03,-1.1565033e-03,-2.3458649e-03,4.8981219e-04,1.0942052e-02,2.1965632e-02,-1.7618153e-02
6.8000007e-01,1.1631924e-04,6.1859811e-04,5.3639872e-05,-4.6125845e-03,2.0696284e-03,-4.6083216e-03,-1.5803933e-03,-1.8388145e-03,3.0333596e-04,-4.2389041e-02,5.0705089e-02,-1.8647641e-02
6.9000006e-01,7.7614359e-05,5.2370221e-04,4.0728441e-05,-3.8568803e-03,-9.4870804e-03,-3.8902029e-03,-1.2210220e-03,-1.8647163e-03,5.2206473e-04,3.5937164e-02,-2.5901900e-03,2.1872899e-02
7.0000005e-01,5.1616423e-05,-4.7184286e-05,-2.0209260e-04,-2.5859887e-03,-5.7093165e-02,-2.5142069e-03,-2.5989378e-04,1.4812222e-03,-3.9615946e-04,9.6112916e-02,3.3459418e-01,-9.1822507e-02
7.1000004e-01,2.3216472e-04,5.7629713e-04,-4.3894118e-05,1.7932188e-02,6.2353744e-02,1.8157657e-02,-2.1197583e-03,-1.8003860e-03,-5.2878933e-04,-1.8598663e-01,-3.2816113e-01,-1.3263000e-02
7.2000003e-01,2.6806599e-04,2.2986957e-04,1.2231807e-04,3.6333005e-03,-3.4641099e-02,3.5629060e-03,-1.3367209e-03,-8.7748585e-04,8.7258002e-04,7.8303813e-02,9.2290099e-02,1.4013707e-01
7.3000002e-01,-5.3663446e-05,-5.1779472e-04,-2.1315574e-04,-3.2209217e-02,-7.4916240e-02,-3.1786057e-02,-2.3891437e-04,4.4458242e-03,-1.6831500e-03,1.0978076e-01,5.3233151e-01,-2.5557325e-01
7.4000001e-01,1.0557001e-04,8.8786625e-04,4.2519435e-04,1.5659597e-02,1.4048959e-01,1.6835245e-02,-1.7869125e-03,-6.4004283e-03,7.8842735e-04,-1.5479996e-01,-1.0846263e+00,2.4715797e-01
7.5000000e-01,2.4893177e-05,-2.9206647e-04,-1.5529611e-04,-8.0007111e-03,-1.1802195e-01,-7.7085705e-03,-6.2963975e-04,2.9816620e-03,-9.0708193e-04,1.1572739e-01,9.3820992e-01,-1.6955109e-01
7.5999999e-01,1.3898793e-04,4.9660676e-05,2.6919111e-05,1.1369768e-02,3.4183250e-02,1.1417670e-02,-9.0963480e-04,1.2182052e-05,7.5607086e-04,-2.7999531e-02,-2.9694827e-01,1.6631544e-01
7.6999998e-01,1.0539858e-04,4.6995129e-04,-6.9870949e-05,-3.4042939e-03,4.2030093e-02,-3.3003605e-03,-1.1369716e-03,-1.4523797e-03,7.2283211e-04,-2.2733698e-02,-1.4645632e-01,-3.3238776e-03
7.7999997e-01,8.7912827e-05,8.6371057e-04,-2.6120177e-06,-1.8035106e-03,3.9380016e-02,-1.5948086e-03,-1.4486010e-03,-3.9601575e-03,1.2026187e-03,-3.1162969e-02,-2.5077802e-01,4.7978707e-02
7.8999996e-01,1.8125484e-04,7.6018964e-04,1.1272752e-04,9.3417517e-03,-1.0365241e-02,9.3120594e-03,-1.8421471e-03,-3.2534675e-03,1.2326699e-03,-3.9354649e-02,7.0669069e-02,3.0051199e-03
7.9999995e-01,3.5872787e-05,4.1857087e-05,-1.6865756e-04,-1.4499413e-02,-7.1860795e-02,-1.4440889e-02,-6.0807516e-04,1.2869238e-03,-3.3548393e-04,1.2340731e-01,4.5403956e-01,-1.5681553e-01
8.0999994e-01,-1.3043287e-06,2.7740553e-04,-2.2405631e-04,-3.7363752e-03,2.3550841e-02,-3.7245077e-03,-7.8968056e-04,2.9099161e-04,-1.6245885e-05,-1.8160557e-02,-9.9593317e-02,3.1923835e-02
8.1999993e-01,1.6103695e-04,6.3911400e-04,-1.3731668e-05,1.6170747e-02,3.6154544e-02,1.6333504e-02,-1.2538759e-03,-2.2503479e-03,1.1099987e-03,-4.6419576e-02,-2.5413419e-01,1.1262457e-01
8.2999992e-01,1.2267420e-04,5.1967114e-06,-2.4336878e-05,-3.8185226e-03,-6.3393807e-02,-3.8206122e-03,-2.7198064e-04,2.5518619e-04,1.3391462e-04,9.8189618e-02,2.5055364e-01,-9.7608504e-02
8.3999991e-01,2.4841523e-04,2.5413467e-04,4.8334877e-05,1.2541356e-02,2.4898528e-02,1.2597486e-02,-1.1987225e-03,-8.2199797e-04,2.3126342e-04,-9.2674278e-02,-1.0771852e-01,9.7348888e-03
8.4999990e-01,2.2872568e-04,4.9956803e-04,1.9267367e-04,-2.0099505e-03,2.4543952e-02,-1.9195264e-03,-1.6990540e-03,-2.0434038e-03,3.5748540e-04,-5.0033193e-02,-1.2214070e-01,1.2622210e-02
8.6000013e-01,2.1422258e-05,-3.4170341e-05,-3.7168781e-05,-2.0731742e-02,-5.3398715e-02,-2.0660663e-02,-2.6167972e-04,9.9949361e-04,-7.6448561e-04,1.4373414e-01,3.0428277e-01,-1.1219453e-01
8.7000012e-01,7.9779773e-05,3.0367810e-05,-1.3882788e-04,5.8356391e-03,6.4654194e-03,5.8230229e-03,-5.5223292e-04,1.4373584e-03,-5.9085162e-04,-2.9055348e-02,4.3786523e-02,1.7363416e-02
8.8000011e-01,1.9015944e-04,6.6853014e-04,1.2455032e-04,1.0915397e-02,6.3811296e-02,1.1187753e-02,-1.8596117e-03,-2.2864551e-03,3.5219932e-04,-1.3073800e-01,-3.7238171e-01,9.4305184e-02
8.9000010e-01,9.1861827e-05,5.7311171e-05,-1.3049235e-04,-9.7836205e-03,-6.1142867e-02,-9.7453938e-03,-8.3616411e-04,1.2993742e-03,-5.0482864e-04,1.0234486e-01,3.5858328e-01,-8.5702878e-02
9.0000010e-01,1.2784102e-04,1.3393285e-03,-1.5136386e-04,3.0941132e-03,1.2819079e-01,4.3764286e-03,-3.9467829e-03,-6.0872029e-03,-6.1222050e-04,-3.1106218e-01,-7.3865842e-01,-1.0739195e-02
9.1000009e-01,-1.5151905e-04,-8.2927851e-04,-3.8137026e-04,-2.8116126e-02,-2.1700337e-01,-2.6617993e-02,5.5271043e-04,5.7965458e-03,-2.1585371e-03,4.4994976e-01,1.1883760e+00,-1.5463180e-01
9.2000008e-01,6.1641124e-05,8.2103261e-04,4.1149054e-04,2.1030139e-02,1.6493095e-01,2.2351357e-02,-1.6501269e-03,-6.1936876e-03,6.3536751e-04,-2.2028394e-01,-1.1990245e+00,2.7939072e-01
9.3000007e-01,9.5953572e-05,9.4232531e-04,4.2685549e-04,3.4028306e-03,1.2113483e-02,3.5143499e-03,-2.0919013e-03,-6.6053868e-03,8.8462472e-04,-4.4177482e-02,-4.1169958e-02,2.4925744e-02
9.4000006e-01,7.7548857e-05,8.9893272e-04,4.1159575e-04,-1.8313885e-03,-4.3312522e-03,-1.8681973e-03,-1.8588861e-03,-6.1595079e-03,5.5155050e-04,2.3301539e-02,4.4587930e-02,-3.3307453e-02
9.5000005e-01,1.5706980e-04,3.3652197e-04,9.0324429e-05,8.0176202e-03,-5.6239744e-02,7.8959037e-03,-1.2268584e-03,-1.0616312e-03,4.3690104e-04,6.3202828e-02,5.0978815e-01,-1.1464957e-02
9.6000004e-01,1.5517338e-04,6.1418002e-04,7.2174766e-05,-2.2676240e-04,2.7765927e-02,-1.2331268e-04,-1.3401772e-03,-2.3927650e-03,4.7577318e-04,-1.1331890e-02,-1.3311350e-01,3.8872168e-03
9.7000003e-01,-8.6813417e-06,-9.3470601e-05,-1.9705078e-04,-1.6386825e-02,-7.0796125e-02,-1.6249696e-02,-1.1014309e-04,1.7894385e-03,-5.5744633e-04,1.2300353e-01,4.1822075e-01,-1.0332205e-01
9.8000002e-01,-2.1457787e-05,2.8804788e-04,-2.2325695e-04,-1.3049159e-03,3.8150803e-02,-1.2823757e-03,-7.1015645e-04,1.2870902e-04,-1.3830296e-04,-6.0001393e-02,-1.6607310e-01,4.1914377e-02
9.9000001e-01,8.4454008e-05,1.0060726e-03,1.8249814e-05,1.0428800e-02,7.1783733e-02,1.0875993e-02,-2.1393063e-03,-3.8462801e-03,8.2653536e-04,-1.4291512e-01,-3.9749929e-01,9.6483923e-02
1.0000000e+00,9.3636643e-05,6.0867504e-04,5.7060790e-05,9.7284380e-04,-3.9740479e-02,8.2800632e-04,-1.3840743e-03,-2.2825060e-03,4.5999534e-04,7.5523273e-02,1.5637756e-01,-3.6654037e-02
1.0100000e+00,5.9222575e-05,8.2651121e-05,-6.5795569e-06,-3.4218655e-03,-5.2604520e-02,-3.4291190e-03,-4.0090663e-04,2.0445953e-04,-4.4886766e-04,9.8316863e-02,2.4869679e-01,-9.0886386e-02
1.0200000e+00,7.7573822e-05,8.6414432e-04,4.1028097e-04,1.6860399e-03,7.8140945e-02,2.2832281e-03,-1.9025062e-03,-5.7293394e-03,2.1986007e-04,-1.5016010e-01,-5.9338046e-01,6.6872836e-02
1.0300000e+00,1.7946703e-04,1.0582575e-03,4.6227379e-04,1.0126090e-02,1.9372899e-02,1.0324628e-02,-2.8596435e-03,-6.5779952e-03,7.5428633e-04,-9.5713819e-02,-8.4865665e-02,5.3442677e-02
1.0400000e+00,1.0200020e-04,-5.5053230e-05,-4.0973915e-05,-7.6159384e-03,-1.1135126e-01,-7.5860240e-03,-1.1865152e-03,1.4310301e-03,-1.7425010e-04,1.6731298e-01,8.0090329e-01,-9.2853731e-02
1.0500000e+00,2.7673730e-04,2.3324958e-04,8.9921154e-05,1.7423499e-02,2.8840671e-02,1.7506752e-02,-1.2835247e-03,-6.8824421e-04,7.5569118e-04,-9.7009521e-03,-2.1192763e-01,9.2994217e-02
1.0599999e+00,1.6688614e-04,-2.3175843e-05,-2.3446385e-05,-1.0955133e-02,-2.5657130e-02,-1.0981074e-02,-8.5160719e-04,4.7484793e-04,7.4182804e-04,4.3191787e-02,1.1630932e-01,-1.3863153e-03
1.0699999e+00,-2.4916862e-05,-4.8401811e-04,-2.4351625e-04,-1.9211620e-02,-4.6156152e-02,-1.8975051e-02,1.1587826e-04,3.8869742e-03,-1.3544642e-03,9.6748638e-02,3.4121295e-01,-2.0962943e-01
1.0799999e+00,1.5879570e-04,6.1687896e-04,9.3754723e-05,1.8183426e-02,1.1007844e-01,1.8624560e-02,-1.6436861e-03,-2.2387692e-03,3.7385556e-04,-1.7595660e-01,-6.1257492e-01,1.7283214e-01
1.0899999e+00,1.6108403e-04,5.2085130e-04,6.6079487e-05,2.4001968e-04,-9.6029321e-03,2.0998709e-04,-1.1736803e-03,-1.9717451e-03,3.6667438e-04,4.7000627e-02,2.6702434e-02,-7.1811944e-04
1.0999999e+00,1.3005469e-04,5.6141907e-04,4.1986600e-05,-3.1074314e-03,4.0584658e-03,-3.0962267e-03,-1.3044712e-03,-1.8505050e-03,2.5592100e-04,-1.3079110e-02,1.2124021e-02,-1.1075349e-02
1.1100001e+00,1.3739503e-04,6.1219792e-04,-5.4401948e-05,7.2554884e-04,5.0777010e-03,7.4284791e-04,-1.5635961e-03,-1.6365173e-03,7.1766407e-04,-2.5911899e-02,2.1398274e-02,4.6173251e-02
1.1200001e+00,2.5946131e-05,1.4077580e-03,3.2804654e-04,-1.1320651e-02,7.9622782e-02,-1.0471095e-02,-2.3832972e-03,-8.6438246e-03,1.2394928e-03,-8.1970180e-02,-7.0073140e-01,5.2182918e-02
1.1300001e+00,1.9669066e-04,2.4091961e-03,1.3264526e-04,1.6716067e-02,9.9916737e-02,1.8684096e-02,-3.3687395e-03,-1.5881523e-02,1.2260637e-03,-9.8544329e-02,-7.2377058e-01,-1.3429031e-03
1.1400001e+00,1.2970900e-04,5.3876769e-04,-1.5776317e-04,-6.4349354e-03,-1.8704510e-01,-6.8952956e-03,-1.3901148e-03,-1.0373325e-03,4.8041921e-04,1.9786266e-01,1.4844205e+00,-7.4564524e-02
1.1500001e+00,-9.0974819e-05,-6.7307432e-04,-3.4536701e-04,-2.2191684e-02,-1.2126721e-01,-2.1481607e-02,7.3183841e-04,4.5538141e-03,-1.5690538e-03,2.1219552e-01,5.5911519e-01,-2.0494750e-01
1.1600001e+00,-2.0893658e-05,-1.3783688e-04,-2.3636251e-04,6.9988973e-03,5.3541612e-02,6.8800748e-03,-2.7261390e-04,2.2918126e-03,-7.6597635e-04,-1.0044533e-01,-2.2620036e-01,8.0307826e-02
1.1700001e+00,3.7372937e-05,-3.2224971e-05,-1.7290313e-04,5.8263274e-03,1.0569898e-02,5.8112120e-03,-2.1043726e-04,1.2841103e-03,-3.2356097e-04,6.2176699e-03,-1.0077032e-01,4.4241580e-02
1.1800001e+00,1.8773717e-04,6.6532782e-04,7.5234256e-05,1.4919391e-02,6.9740503e-02,1.5220748e-02,-1.5660595e-03,-2.5313082e-03,5.1778884e-04,-1.3556235e-01,-3.8154222e-01,8.4135061e-02
1.1900001e+00,1.5063721e-04,2.4553784e-04,5.6234916e-05,-3.6621384e-03,-4.1982182e-02,-3.7219528e-03,-1.1613000e-03,-3.0569619e-04,-2.4043929e-04,4.0475992e-02,2.2256141e-01,-7.5822885e-02
1.2000000e+00,2.7223498e-04,5.1682665e-04,2.4999746e-04,1.2100393e-02,2.7113116e-02,1.2253894e-02,-1.5807389e-03,-2.8635896e-03,1.3556695e-03,-4.1943934e-02,-2.5578959e-01,1.5961103e-01
1.2100000e+00,3.1527548e-04,3.1992780e-04,1.4453455e-04,4.3295015e-03,-1.9689581e-02,4.2799433e-03,-1.5968883e-03,-1.5308575e-03,1.3907953e-03,-1.6149392e-03,1.3327334e-01,3.5125839e-03
1.2200000e+00,2.1434129e-04,-6.2395487e-05,-9.4362308e-07,-1.0077869e-02,-3.8246105e-02,-1.0056859e-02,-4.5030805e-04,9.1304089e-04,-1.6417641e-04,1.1465813e-01,2.4439008e-01,-1.5549732e-01
1.2300000e+00,-3.5827623e-05,-5.0036485e-04,-2.2606661e-04,-2.5050198e-02,-4.3909882e-02,-2.4784616e-02,-2.5512700e-04,4.2817179e-03,-1.7786916e-03,1.9518124e-02,3.3686802e-01,-1.6145168e-01
1.2400000e+00,1.4538612e-04,6.9133153e-05,6.1915141e-05,1.8062312e-02,5.6958773e-02,1.8152319e-02,-8.1111698e-04,-3.1756406e-04,7.1054079e-04,-5.5599051e-02,-4.5992863e-01,2.4892348e-01
1.2500000e+00,-1.8226512e-04,-9.5183033e-04,-4.5630564e-04,-3.2963919e-02,-1.0224354e-01,-3.2100357e-02,1.3221153e-03,5.8796953e-03,-1.9493697e-03,2.1332343e-01,6.1972653e-01,-2.6599130e-01
1.2600000e+00,1.3832560e-04,9.1645837e-04,-1.2055071e-05,3.1639272e-02,1.8678933e-01,3.2701187e-02,-2.0912226e-03,-3.2829917e-03,9.0606695e-04,-3.4133412e-01,-9.1626958e-01,2.8554393e-01
1.2700000e+00,5.2450704e-05,4.0741466e-04,-2.0326337e-04,-8.5243717e-03,-5.0909629e-02,-8.6194482e-03,-1.1793414e-03,-5.6737234e-04,3.5937636e-04,9.1188210e-02,2.7156220e-01,-5.4669112e-02
1.2800000e+00,1.2755874e-04,6.9540177e-04,-1.3288196e-04,7.4432385e-03,2.8801683e-02,7.5665815e-03,-2.0973561e-03,-1.6898290e-03,9.5210669e-04,-9.1801552e-02,-1.1224578e-01,5.9273090e-02
1.2900000e+00,1.2858059e-04,6.3024849e-04,-1.2275356e-04,1.1223574e-04,-6.5153441e-03,9.0318638e-05,-1.5568324e-03,-1.8370651e-03,9.0906041e-04,5.4052412e-02,-1.4723619e-02,-4.3046321e-03
1.3000000e+00,-5.7654596e-06,-1.5671091e-04,-2.5470994e-04,-1.3446132e-02,-7.8725607e-02,-1.3248438e-02,4.5879106e-05,2.2648731e-03,-5.8849108e-04,1.6027131e-01,4.1019421e-01,-1.4975529e-01
1.3099999e+00,1.6747031e-04,6.2317552e-04,7.3482326e-05,1.7198209e-02,7.7978564e-02,1.7493399e-02,-1.5165570e-03,-2.0868396e-03,4.0920131e-04,-1.5624376e-01,-4.3517168e-01,9.9769335e-02
1.3199999e+00,-1.0324202e-05,-6.4410218e-04,-2.6780829e-04,-1.7893629e-02,-1.2679114e-01,-1.7204684e-02,7.1433124e-04,4.3469577e-03,-1.3305216e-03,2.2308903e-01,6.4338034e-01,-1.7397246e-01
1.3299999e+00,-3.6436756e-05,-5.5212778e-04,-2.7893225e-04,-2.6078777e-03,9.1897645e-03,-2.6415148e-03,7.0579912e-04,3.6287639e-03,-1.1924522e-03,-8.5321245e-04,-7.1819451e-02,1.3806957e-02
1.3399999e+00,7.7416897e-05,1.3491307e-04,2.3826268e-05,1.1350859e-02,6.8707991e-02,1.1396661e-02,-5.5860626e-04,-2.2030563e-04,-3.3941101e-04,-1.2644066e-01,-3.8490732e-01,8.5304196e-02
1.3499999e+00,2.3521263e-05,-5.3691427e-04,-2.4953393e-04,-5.4223332e-03,-6.7201402e-02,-5.1179206e-03,3.6777397e-04,3.9222678e-03,-1.4960425e-03,9.2638112e-02,4.1425773e-01,-1.1566326e-01
1.3599465e+00,-7.3551696e-06,-7.3213872e-04,-3.4917434e-04,-3.1252095e-03,-1.9639685e-02,-3.0030911e-03,7.8534746e-04,4.8656605e-03,-1.7964692e-03,4.1981594e-02,9.4845897e-02,-3.0204005e-02
1.3699465e+00,2.7753433e-04,3.3296429e-04,1.3299001e-04,2.8269917e-02,1.0651828e-01,2.8677129e-02,-1.6584633e-03,-1.3713358e-03,1.4864131e-03,-2.4438131e-01,-6.2370023e-01,3.2828855e-01
1.3799465e+00,6.5339509e-05,8.2942984e-04,4.1310587e-04,-2.1311196e-02,4.9720676e-02,-2.0952496e-02,-2.0506762e-03,-5.5801590e-03,4.7452713e-04,-3.9221323e-02,-4.2088271e-01,-1.0118869e-01
1.3899465e+00,2.3538129e-04,2.5648054e-04,1.0332750e-04,1.7065285e-02,-5.7288835e-02,1.6963667e-02,-1.4830002e-03,-1.1255941e-03,1.4021906e-03,5.6767652e-02,4.4545691e-01,9.2766431e-02
1.3999465e+00,1.8272324e-04,4.5465835e-05,-2.0286045e-05,-5.2410840e-03,-2.1107385e-02,-5.2668552e-03,-9.6952729e-04,1.5168505e-04,8.0980187e-04,5.1347338e-02,1.2772804e-01,-5.9238925e-02
1.4099464e+00,2.2583269e-04,1.5641597e-03,-1.0809054e-04,3.6350883e-03,1.5184741e-01,5.5384921e-03,-4.4311550e-03,-8.0670455e-03,6.6417995e-04,-3.4616310e-01,-8.2187384e-01,-1.4562206e-02
1.4199464e+00,-2.3126781e-05,-1.2905318e-04,-2.3775758e-04,-2.4853110e-02,-1.6938271e-01,-2.4519227e-02,-3.3878499e-04,2.1390686e-03,-5.8276081e-04,4.0923739e-01,1.0206124e+00,-1.2469419e-01
1.4299464e+00,5.4611011e-06,-6.0867133e-05,-1.8336949e-04,2.8574055e-03,6.8243548e-03,2.8464435e-03,-3.3338766e-04,1.6798494e-03,-3.1065431e-04,5.3973342e-04,-4.5921960e-02,2.7210676e-02
1.4399464e+00,5.0522341e-05,-9.3791770e-05,-1.9010645e-04,4.5077165e-03,-3.2858811e-03,4.5093458e-03,5.0307592e-05,1.5115926e-03,-3.8929949e-04,3.8369561e-02,-1.6825700e-02,-7.8645259e-03
1.4499464e+00,2.4757969e-05,-6.1336277e-05,-7.3366611e-05,-2.5772312e-03,3.2446596e-03,-2.5767726e-03,2.0340575e-04,5.5004854e-04,-5.6361152e-04,1.5309831e-02,-9.6154496e-02,-1.7431219e-02
1.4599464e+00,1.3122352e-04,3.5429394e-04,1.1925384e-04,1.0601958e-02,4.1557810e-02,1.0711382e-02,-1.0402986e-03,-1.5266821e-03,1.2806497e-04,-1.2437055e-01,-2.0767326e-01,6.9167714e-02
1.4699464e+00,3.4498431e-05,1.2102854e-04,-3.5913736e-05,-9.6662745e-03,-2.3326704e-02,-9.6784164e-03,-3.9483139e-04,-3.7990395e-04,-3.0676557e-04,6.4546784e-02,1.1467792e-01,-4.3483096e-02
1.4799464e+00,2.2494733e-04,1.8517263e-04,7.0981099e-05,1.9023038e-02,6.4160222e-03,1.9066212e-02,-8.1733424e-04,-7.3208140e-04,8.7234083e-04,-4.2250326e-02,-3.5217779e-02,1.1791075e-01
1.4899464e+00,1.1577524e-04,-1.0163695e-04,-5.7979723e-05,-1.0909230e-02,-2.8699376e-02,-1.0876797e-02,-3.6108525e-04,1.3263576e-03,-2.1693658e-04,4.5624943e-02,2.0584409e-01,-1.0892784e-01
1.4999464e+00,-2.3248750e-05,-4.1798184e-04,-2.2183865e-04,-1.3915103e-02,-3.1666432e-02,-1.3816800e-02,2.4116643e-04,2.5449933e-03,-3.6418222e-04,6.0225225e-02,1.2186369e-01,-1.4724578e-02
1.5099463e+00,1.8071461e-04,4.5907159e-04,-1.6150003e-06,2.0206734e-02,8.7715540e-02,2.0541095e-02,-1.8763653e-03,-1.3673192e-03,1.2258469e-03,-2.1175337e-01,-3.9123162e-01,1.5900306e-01
1.5199463e+00,1.9287693e-04,3.0015094e-04,-2.8696677e-05,1.2329863e-03,-1.5891367e-02,1.2086647e-03,-1.0903239e-03,-5.1287017e-04,4.7156413e-04,7.8604211e-02,8.5444980e-02,-7.5428345e-02
1.5299463e+00,1.9104859e-04,5.3845860e-04,4.4791376e-05,-2.2109577e-04,2.3830699e-02,-1.4925302e-04,-1.6086604e-03,-1.4128634e-03,4.0100455e-04,-5.1833703e-02,-8.9999405e-02,-7.0559646e-03
1.5399463e+00,9.2879752e-05,-1.7570272e-04,-9.5566668e-05,-9.7850946e-03,-7.1433892e-02,-9.7194364e-03,-4.3260154e-04,1.3770283e-03,9.1997873e-05,1.1760600e-01,2.7898943e-01,-3.0900697e-02
1.5499463e+00,1.9053049e-04,1.5663992e-04,4.5616847e-05,9.7201336e-03,3.3239455e-02,9.7923282e-03,-1.0918987e-03,-5.6043772e-04,8.8592804e-04,-6.5929777e-02,-1.9374678e-01,7.9393093e-02
1.5599463e+00,1.7244917e-04,1.0360334e-03,4.5657274e-04,-2.0407579e-03,8.7944574e-02,-1.2125236e-03,-2.6663760e-03,-6.7966488e-03,1.0216781e-03,-1.5744788e-01,-6.2362171e-01,1.3575015e-02
1.5699463e+00,1.3297604e-04,9.2217983e-04,4.6255349e-04,-3.9247101e-03,-1.1366367e-02,-4.0238820e-03,-1.7807987e-03,-6.5251763e-03,5.8898839e-04,8.8557811e-02,2.7147284e-02,-4.3269009e-02
1.5799463e+00,6.9774945e-05,9.1360861e-04,4.4724267e-04,-6.3143244e-03,-8.2867198e-04,-6.3296910e-03,-1.9665868e-03,-6.4609467e-03,6.4744131e-04,-1.8578822e-02,6.4229628e-03,5.8452976e-03
1.5899463e+00,1.8848330e-04,1.9127469e-03,-1.1732402e-04,1.1548175e-02,9.9812854e-02,1.2986895e-02,-3.1368429e-03,-1.1083968e-02,7.7471801e-04,-1.1702573e-01,-4.6230260e-01,1.2727682e-02
1.5999463e+00,1.0746164e-04,5.3221945e-04,-1.5261158e-04,-7.9173927e-03,-1.3805328e-01,-8.2760491e-03,-1.2946043e-03,-1.2165983e-03,7.4657608e-04,1.8422404e-01,9.8673793e-01,-2.8141953e-03
1.6099465e+00,6.3723936e-05,4.6498605e-04,1.3863310e-05,-4.3661126e-03,-6.7196477e-03,-4.3866394e-03,-9.3284317e-04,-1.7384114e-03,2.9345179e-04,3.6175290e-02,-5.2180110e-02,-4.5311392e-02
1.6199465e+00,6.3652340e-05,5.9008069e-04,3.4574538e-05,-2.4834418e-05,1.2509439e-02,2.0531984e-05,-1.4131816e-03,-2.2145920e-03,4.7107681e-04,-4.8033884e-02,-4.7618104e-02,1.7762519e-02
1.6299465e+00,1.7223713e-04,1.1242260e-03,5.6017917e-05,1.0710696e-02,5.3389822e-02,1.1123811e-02,-2.4623532e-03,-4.6673264e-03,1.4939793e-03,-1.0491726e-01,-2.4527367e-01,1.0229035e-01
1.6399465e+00,1.0089614e-04,4.9534691e-04,1.2125118e-05,-7.0644162e-03,-6.2883804e-02,-7.2393996e-03,-1.0604038e-03,-1.6270357e-03,4.2031086e-04,1.4019507e-01,3.0402936e-01,-1.0736695e-01
1.6499465e+00,2.1153648e-04,4.3920082e-04,1.7985688e-04,1.1064848e-02,-5.6229973e-03,1.1058984e-02,-1.2138215e-03,-1.9717785e-03,5.4254174e-04,-1.5341788e-02,-3.4474318e-02,1.2223100e-02
1.6599464e+00,1.2858097e-04,8.9702181e-04,4.4295497e-04,-8.3694327e-03,4.5821314e-02,-7.9998128e-03,-1.7154371e-03,-6.5605260e-03,5.6041201e-04,-5.0161603e-02,-4.5887519e-01,1.7870288e-03
1.6699464e+00,-1.0383617e-04,-6.5378572e-04,-3.5416944e-04,-2.3350231e-02,-1.5518579e-01,-2.2418282e-02,3.9828634e-04,5.0055451e-03,-2.0126413e-03,2.1137254e-01,1.1566082e+00,-2.5730557e-01
1.6799464e+00,-2.6774233e-05,-5.0044568e-04,-2.5647898e-04,7.7172127e-03,1.5368079e-02,7.6269244e-03,-1.9802081e-04,4.2475403e-03,-1.8246976e-03,-5.9630772e-02,-7.5800562e-02,1.8794388e-02
1.6899464e+00,1.6835701e-04,2.4145669e-04,-1.0132883e-04,1.9416314e-02,7.4229510e-02,1.9460573e-02,-1.4063785e-03,6.0730579e-04,-3.8600400e-04,-1.2083588e-01,-3.6402379e-01,1.4386950e-01
1.6999464e+00,1.2213863e-04,1.1797151e-04,-1.1390713e-04,-4.6138530e-03,-1.2356067e-02,-4.6096648e-03,-7.8834985e-04,8.4453000e-04,-3.7808475e-04,6.1802920e-02,2.3722443e-02,7.9192573e-04
1.7099464e+00,1.4621844e-04,1.6886242e-03,-6.8407850e-05,1.8304954e-03,1.5704713e-01,3.7404141e-03,-3.6781195e-03,-8.4846442e-03,-9.6566609e-05,-2.8897724e-01,-9.3291831e-01,2.8151841e-02
1.7199464e+00,1.5502282e-04,1.5230694e-03,-1.7103446e-04,9.4535136e-04,-1.6557836e-02,7.6107669e-04,-3.9250548e-03,-7.2140657e-03,7.0150832e-05,-2.4693551e-02,1.2705797e-01,1.6671760e-02
1.7299464e+00,1.8075096e-04,1.1425180e-04,4.6228733e-05,2.7594501e-03,-1.4087807e-01,2.5885900e-03,-1.3322589e-03,1.0392228e-04,4.1030105e-04,2.5927984e-01,7.3179949e-01,3.4015055e-02
1.7399464e+00,1.8790445e-04,1.3171253e-04,1.9930652e-05,7.1322379e-04,1.7465884e-03,7.1621570e-04,-9.8043611e-04,-2.6063201e-04,5.7692526e-04,3.5182311e-02,-3.6455464e-02,1.6662437e-02
1.7499464e+00,2.2637969e-05,8.4560247e-04,4.0935133e-04,-1.6599382e-02,7.1478264e-02,-1.6061683e-02,-1.1691945e-03,-6.6611126e-03,6.4949631e-04,-1.8875855e-02,-6.4004866e-01,7.2571119e-03
1.7599463e+00,1.1166002e-05,8.0570556e-04,4.0689089e-04,-1.1412404e-03,-3.9844606e-03,-1.1710811e-03,-1.3939728e-03,-5.8905087e-03,3.4401252e-04,-2.2477854e-02,7.7060459e-02,-3.0548409e-02
1.7699463e+00,3.3021030e-05,8.7357367e-04,4.1408316e-04,2.1721290e-03,6.7775457e-03,2.2272142e-03,-1.8189215e-03,-5.9974850e-03,4.7007500e-04,-4.2494912e-02,-1.0697640e-02,1.2606260e-02
1.7799463e+00,-8.0406330e-05,-7.1412241e-04,-3.3224877e-04,-1.1516927e-02,-1.5880321e-01,-1.0679536e-02,1.0164503e-03,4.0950116e-03,-1.1294811e-03,2.8353745e-01,1.0092506e+00,-1.5995576e-01
1.7899463e+00,1.0098662e-04,4.5382280e-04,2.9187393e-05,1.8054295e-02,1.1676840e-01,1.8391267e-02,-6.3133015e-04,-2.0612723e-03,6.2152207e-04,-1.6477820e-01,-6.1562897e-01,1.7510048e-01
1.7999463e+00,1.2203053e-05,1.3167121e-05,-1.7854562e-04,-8.8631547e-03,-4.4082335e-02,-8.8102765e-03,-4.4929761e-04,1.4408487e-03,-5.1705021e-04,1.8203272e-02,3.5021243e-01,-1.1385734e-01
1.8099463e+00,1.4101642e-04,1.0591205e-03,6.2691372e-05,1.2602579e-02,1.0457084e-01,1.3348343e-02,-2.6383234e-03,-4.4386606e-03,2.1495464e-04,-2.1890279e-01,-5.8795148e-01,7.3200555e-02
1.8199463e+00,1.3474738e-04,6.2167175e-04,5.7639699e-05,-5.6067413e-04,-4.3744291e-02,-7.2567973e-04,-1.5084185e-03,-2.2529518e-03,3.9040453e-04,1.1299060e-01,2.1857109e-01,1.7545005e-02
1.8299463e+00,-1.4796876e-05,-7.0405274e-04,-3.0529693e-04,-1.5089280e-02,-1.3262367e-01,-1.4353907e-02,8.7410004e-04,4.3848642e-03,-1.2689570e-03,2.3825208e-01,6.6378223e-01,-1.6593631e-01
1.8399463e+00,1.7503198e-04,-6.0068593e-05,-1.1788187e-05,1.8940342e-02,6.4436344e-02,1.8896722e-02,-7.1210391e-04,1.2865892e-03,-1.7394519e-04,-1.5862055e-01,-3.0982779e-01,1.0950129e-01
1.8499463e+00,2.2444062e-04,1.0510966e-03,4.7379482e-04,4.5944600e-03,1.1109378e-01,5.7264191e-03,-3.0496368e-03,-7.0068849e-03,1.5211554e-03,-2.3375351e-01,-8.2934820e-01,1.6951022e-01
1.8599465e+00,2.2977572e-04,1.0644083e-03,4.6599261e-04,5.2863963e-04,1.3289997e-03,5.4357091e-04,-3.0525768e-03,-6.9786572e-03,1.4842042e-03,-2.9399488e-04,2.8226985e-03,-3.6950375e-03
1.8699465e+00,1.7284763e-04,9.2630553e-04,4.4804051e-04,-5.6625093e-03,-1.3782442e-02,-5.7897093e-03,-1.8562406e-03,-6.6845890e-03,8.1834223e-04,1.1963374e-01,2.9406851e-02,-6.6586262e-02
1.8799465e+00,2.6256048e-04,1.9289717e-04,9.3241530e-05,9.0672761e-03,-7.3331445e-02,8.9521148e-03,-1.3742147e-03,-3.2762966e-04,5.3434511e-04,4.8202632e-02,6.3569654e-01,-2.8399739e-02
1.8899465e+00,1.6376736e-04,3.4937809e-04,-5.3178056e-05,-9.9046632e-03,1.5631013e-02,-9.8810072e-03,-1.7632999e-03,-3.5470890e-05,2.2618785e-04,-3.8908550e-02,2.9215905e-02,-3.0815756e-02
1.8999465e+00,8.7526986e-05,1.4314674e-03,-2.0444159e-04,-8.0097621e-03,1.0822866e-01,-6.9173436e-03,-3.5432921e-03,-6.5082966e-03,-3.0823787e-04,-1.7799939e-01,-6.4728319e-01,-5.3442623e-02
1.9099464e+00,6.0357853e-05,4.0674659e-04,8.5154056e-06,-2.6397523e-03,-1.0247012e-01,-2.8667773e-03,-7.4667486e-04,-1.4563023e-03,2.3901559e-04,2.7966199e-01,5.0519991e-01,5.4725398e-02
1.9199464e+00,1.1663166e-04,5.9613558e-04,4.9640164e-05,5.5990238e-03,1.8932468e-02,5.6771563e-03,-1.3542150e-03,-2.4854691e-03,4.8146770e-04,-6.0754074e-02,-1.0291677e-01,2.4245235e-02
1.9299464e+00,1.4658566e-04,1.9719830e-03,-1.6404235e-04,2.4966366e-03,1.3755504e-01,4.4631791e-03,-3.6144556e-03,-1.0660025e-02,4.8487357e-04,-2.2602427e-01,-8.1745641e-01,3.4058679e-04
1.9399464e+00,1.9468685e-04,1.0179507e-03,8.9191272e-05,4.9771767e-03,-9.5415921e-02,4.3701769e-03,-1.8230616e-03,-4.6857957e-03,1.4261482e-03,1.7913957e-01,5.9742354e-01,9.4127558e-02
1.9499464e+00,-2.1592569e-06,7.8690405e-04,4.0467243e-04,-1.9643002e-02,-2.3013145e-02,-1.9832885e-02,-1.2970024e-03,-5.9222645e-03,5.9134257e-04,5.2605973e-02,-1.2364700e-01,-8.3480647e-02
1.9599464e+00,-1.6615548e-04,-8.3001390e-04,-4.1664643e-04,-1.6562552e-02,-1.6176896e-01,-1.5448858e-02,7.9547799e-04,5.6648408e-03,-2.0935039e-03,2.0924824e-01,1.1587116e+00,-2.6848490e-01
1.9699464e+00,1.4166937e-04,-2.6927108e-05,-4.5383924e-05,3.0740151e-02,8.0345012e-02,3.0730196e-02,-5.1899660e-04,6.5971272e-04,2.2078568e-05,-1.3144758e-01,-5.0051328e-01,2.1155845e-01
1.9799464e+00,4.7476402e-05,-3.2759010e-04,-2.0571971e-04,-9.4250415e-03,-3.0087358e-02,-9.3461333e-03,3.8033631e-05,2.2800866e-03,-4.8765120e-04,5.5703076e-02,1.6203755e-01,-5.0973025e-02
1.9899464e+00,1.5073501e-04,3.6282557e-04,-7.0961277e-05,1.0212232e-02,6.9055198e-02,1.0348152e-02,-1.6129279e-03,-2.9020377e-04,2.1940285e-04,-1.6509631e-01,-2.5702929e-01,7.0705473e-02
1.9999464e+00,2.6289187e-04,5.1125032e-04,2.3236892e-04,1.1179305e-02,1.4857240e-02,1.1232487e-02,-1.8701432e-03,-5.5200333e-04,7.6781658e-04,-2.5721552e-02,-2.6179980e-02,5.4841425e-02
2.0099463e+00,2.0554197e-04,6.1715121e-04,9.9522551e-05,-5.7499109e-03,1.0592989e-02,-5.7146877e-03,-1.5686821e-03,-2.0781481e-03,2.9457957e-04,3.0146141e-02,-1.5261462e-01,-4.7323746e-02
2.0199463e+00,1.8692359e-04,6.1409809e-04,8.6551098e-05,-1.8604965e-03,-3.0416101e-04,-1.8633703e-03,-1.5129084e-03,-2.1299815e-03,4.7209784e-04,5.5773773e-03,-5.1833496e-03,1.7751843e-02
2.0299463e+00,2.1489549e-04,3.7543989e-05,2.1812218e-04,2.8414733e-03,-5.7649964e-02,2.8651235e-03,-7.8794092e-04,1.1580809e-03,4.1015653e-04,7.2496815e-02,3.2880656e-01,-6.1941363e-03
2.0399463e+00,1.0642033e-04,-4.9732258e-04,-3.6191151e-05,-1.0832297e-02,-5.3544313e-02,-1.0575138e-02,-4.7808507e-04,4.8966613e-03,-9.5392403e-04,3.0985615e-02,3.7385840e-01,-1.3640819e-01
2.0499463e+00,1.2140922e-04,-5.9381967e-04,-6.1623591e-05,1.5012794e-03,-9.6414365e-03,1.5489585e-03,-9.5219546e-05,5.3434460e-03,-9.8122870e-04,3.8286589e-02,4.4678518e-02,-2.7304701e-03
2.0599463e+00,1.6385085e-04,-3.2686825e-04,4.6780309e-05,4.2260451e-03,2.6713438e-02,4.1461605e-03,-6.7892664e-04,3.6697721e-03,-6.5133855e-07,-5.8370765e-02,-1.6736755e-01,9.8057830e-02
2.0699463e+00,5.4660172e-04,9.0984981e-04,2.4022075e-04,3.7758864e-02,1.2370518e-01,3.8678302e-02,-3.6730668e-03,-2.7655783e-03,1.6119501e-03,-2.9941431e-01,-6.4353566e-01,1.6126029e-01
2.0799463e+00,4.8015117e-04,1.2824672e-03,3.8027437e-05,-6.7912478e-03,3.7255587e-02,-6.5309597e-03,-4.2562479e-03,-3.4024466e-03,1.8565714e-03,-5.8318158e-02,-6.3686893e-02,2.4462154e-02
2.0899463e+00,4.3867985e-04,1.4778541e-03,1.1371493e-04,-4.2181493e-03,1.9542125e-02,-4.0584842e-03,-4.0387953e-03,-4.9483529e-03,1.8947338e-03,2.1745277e-02,-1.5459077e-01,3.8162449e-03
2.0999463e+00,3.4415469e-04,1.0480953e-03,-1.1907794e-04,-9.2847209e-03,-4.3007241e-02,-9.4763710e-03,-3.6129227e-03,-2.6955059e-04,1.3188054e-03,4.2587295e-02,4.6788068e-01,-5.7592896e-02
2.1099465e+00,4.0250407e-04,1.4796512e-03,1.3294363e-04,5.6518329e-03,4.3148983e-02,6.0524498e-03,-4.0339825e-03,-4.8439589e-03,1.5139102e-03,-4.2105014e-02,-4.5743036e-01,1.9510041e-02
2.1199465e+00,1.7498042e-04,5.2160192e-04,2.1693086e-04,-2.2588236e-02,-9.5817261e-02,-2.2864138e-02,-1.4669585e-03,-9.2182443e-04,1.0360300e-03,2.5670264e-01,3.9221382e-01,-4.7788074e-02
2.1299465e+00,2.3973907e-04,5.4486907e-04,2.4003324e-04,6.4656560e-03,2.3292803e-03,6.4851507e-03,-1.5040726e-03,-1.1064770e-03,1.0353962e-03,-3.7114098e-03,-1.8465272e-02,-6.3380593e-05
2.1399465e+00,1.2756002e-04,-5.8749822e-04,-5.1919892e-05,-1.1270975e-02,-1.1328594e-01,-1.0654819e-02,4.2156729e-04,4.9245325e-03,-4.7461072e-04,1.9256417e-01,6.0310152e-01,-1.5100083e-01
2.1499465e+00,1.2091176e-04,-4.5346427e-04,-7.6687699e-06,-6.7278755e-04,1.3399734e-02,-7.2786319e-04,-5.5013992e-04,4.7481570e-03,-8.8459342e-04,-9.7170814e-02,-1.7637565e-02,-4.0998309e-02
2.1599464e+00,2.5333871e-04,-1.5703232e-04,7.3235587e-05,1.3211459e-02,2.9700989e-02,1.3144120e-02,-1.2384419e-03,3.1376715e-03,-4.1336260e-04,-6.8830266e-02,-1.6104870e-01,4.7123127e-02
2.1699464e+00,3.2950408e-04,3.4960421e-05,1.7323635e-04,7.5805750e-03,1.9226750e-02,7.5830932e-03,-1.7458901e-03,1.8667374e-03,3.2006739e-04,-5.0744867e-02,-1.2709354e-01,7.3343069e-02
2.1799464e+00,4.1505622e-04,4.2395264e-04,3.4233734e-04,8.4684381e-03,3.8908762e-02,8.5982472e-03,-1.9260141e-03,-8.0432293e-04,1.3838612e-03,-1.8012413e-02,-2.6710629e-01,1.0637948e-01
2.1899464e+00,2.4579734e-04,-2.3771503e-04,6.9180504e-05,-1.6873221e-02,-6.6229742e-02,-1.6731338e-02,-7.3172540e-04,3.0030515e-03,2.5179872e-04,1.1942898e-01,3.8073781e-01,-1.1320635e-01
2.1999464e+00,2.7549027e-04,5.8435381e-04,2.3219723e-04,2.8037695e-03,8.2207576e-02,3.1099022e-03,-1.9499505e-03,-1.6503612e-03,1.7568440e-03,-1.2182262e-01,-4.6534172e-01,1.5050467e-01
2.2099464e+00,1.1452545e-04,-1.4482174e-04,-2.5798609e-05,-1.6062953e-02,-7.2973127e-02,-1.5876985e-02,-4.2378119e-04,3.0452525e-03,1.6409499e-04,1.5261707e-01,4.6956182e-01,-1.5927505e-01
2.2199464e+00,5.6474882e-05,-2.3013003e-04,-6.5716454e-05,-5.8019309e-03,-8.5506121e-03,-5.7790413e-03,-2.0487253e-04,3.2084628e-03,2.3836957e-04,2.1890887e-02,1.6321039e-02,7.4274648e-03
2.2299464e+00,4.5573611e-04,1.3411388e-03,4.8244134e-05,3.9213753e-02,1.5713780e-01,4.0584403e-02,-4.1416824e-03,-3.8039575e-03,1.5340957e-03,-3.9368136e-01,-7.0124269e-01,1.2957274e-01
2.2399464e+00,5.1715700e-04,1.0225705e-03,-4.1974847e-05,6.2346386e-03,-3.1841841e-02,6.1267293e-03,-3.2319303e-03,-8.1362715e-04,1.6890787e-03,9.0975296e-02,2.9903332e-01,1.5498321e-02
2.2499464e+00,1.0361169e-04,7.6018883e-04,5.6486472e-04,-4.1270628e-02,-2.6096672e-02,-4.1527613e-02,-1.5418760e-03,-4.9502326e-03,1.0498145e-03,1.6900559e-01,-4.1366094e-01,-6.3926482e-02
2.2599463e+00,-8.6512165e-06,4.7399256e-04,4.7824869e-04,-1.1198451e-02,-2.8585824e-02,-1.1339740e-02,-6.2743845e-04,-3.6205646e-03,8.8071926e-04,9.1443845e-02,1.3296693e-01,-1.6909543e-02
2.2699463e+00,1.4504268e-04,1.3553879e-03,3.7494409e-04,1.5100704e-02,8.8077767e-02,1.5978257e-02,-2.7790426e-03,-6.6443757e-03,1.5406450e-03,-2.1516062e-01,-3.0238141e-01,6.5992638e-02
2.2799463e+00,2.9392003e-04,-2.2154334e-04,9.5385539e-05,1.4942856e-02,-1.5764329e-01,1.5354510e-02,-4.4068869e-04,2.8688708e-03,9.6581616e-04,2.3383562e-01,9.5132556e-01,-5.7482941e-02
2.2899463e+00,4.0589607e-04,3.1011449e-04,1.6668225e-04,1.1091005e-02,5.3195124e-02,1.1164558e-02,-1.6476115e-03,9.7527738e-04,1.6952206e-03,-1.2069239e-01,-1.8935952e-01,7.2940509e-02
2.2999463e+00,3.1318518e-04,7.9916684e-04,2.4857735e-04,-9.4212738e-03,4.8878556e-02,-9.2606422e-03,-3.5932485e-03,-7.4396050e-04,2.7459085e-03,-1.9456389e-01,-1.7192395e-01,1.0506890e-01
2.3099463e+00,-1.3907218e-04,6.8774487e-04,1.5850989e-04,-4.5134252e-02,-1.1305301e-02,-4.5276710e-02,-3.0909341e-03,5.1583753e-04,1.2567126e-03,5.0231487e-02,1.2597992e-01,-1.4891974e-01
2.3199463e+00,-7.6356083e-04,-9.1906872e-05,6.4066486e-05,-6.2391281e-02,-7.8199516e-02,-6.2213183e-02,-8.8205799e-04,2.8754568e-03,-1.7856607e-04,2.2088782e-01,2.3596215e-01,-1.4352800e-01
2.3299463e+00,-1.5243068e-03,-8.5118610e-04,-1.6134271e-04,-7.6253933e-02,-7.6275871e-02,-7.5545359e-02,6.1095490e-04,5.2066151e-03,-1.7483212e-03,1.4930143e-01,2.3311605e-01,-1.5697566e-01
2.3399463e+00,-1.6262909e-03,2.4216897e-04,5.0493615e-04,-1.0255154e-02,1.0936756e-01,-9.7908558e-03,-6.1861235e-04,-3.8274696e-03,1.0684292e-03,-1.2295684e-01,-9.0340933e-01,2.8167531e-01
2.3499463e+00,-1.8173657e-03,4.6429860e-04,5.9188771e-04,-1.9101530e-02,2.2274033e-02,-1.9042270e-02,-1.1934784e-03,-4.3930997e-03,1.6972554e-03,-5.7486656e-02,-5.6563064e-02,6.2882678e-02
2.3599465e+00,-2.1940868e-03,8.0524701e-04,5.3966890e-04,-3.7707088e-02,3.4193615e-02,-3.7544944e-02,-2.2766458e-03,-4.9272167e-03,1.1058232e-03,-1.0831426e-01,-5.3410482e-02,-5.9141869e-02
2.3699465e+00,-2.5957553e-03,1.1264302e-03,5.8127540e-04,-4.0232265e-02,3.2221648e-02,-4.0018456e-02,-3.6044145e-03,-6.1887504e-03,1.2472627e-03,-1.3277700e-01,-1.2615349e-01,1.4143963e-02
2.3799465e+00,-3.1730043e-03,6.2598964e-04,3.4405781e-04,-5.7549648e-02,-5.0064874e-02,-5.7881776e-02,-2.7804579e-03,-2.4133495e-03,6.2237739e-04,8.2395737e-02,3.7754045e-01,-6.2488588e-02
2.3899465e+00,-3.2583861e-03,1.9777864e-03,3.3151533e-04,-9.0572511e-03,1.3522634e-01,-7.1543688e-03,-4.0024655e-03,-1.0408342e-02,2.5638143e-03,-1.2220087e-01,-7.9950000e-01,1.9414387e-01
2.3999465e+00,-4.0177283e-03,1.8773044e-03,5.0564423e-04,-7.5752350e-02,-9.3794714e-03,-7.6201103e-02,-3.2525016e-03,-1.2025521e-02,1.9585049e-03,7.4996467e-02,-1.6171809e-01,-6.0531000e-02
2.4099464e+00,-4.3971563e-03,1.4080773e-03,2.6569968e-04,-3.7723898e-02,-4.6751830e-02,-3.8369737e-02,-3.1318816e-03,-7.5809048e-03,1.8904062e-03,1.2062005e-02,4.4446207e-01,-6.8098737e-03
2.4199464e+00,-4.5959117e-03,2.0103507e-03,4.5555119e-04,-2.0116789e-02,6.0365407e-02,-1.9202796e-02,-4.6596173e-03,-1.1824425e-02,1.9697769e-03,-1.5277372e-01,-4.2435245e-01,7.9370763e-03
2.4299464e+00,-4.9646598e-03,1.6227091e-03,6.1001551e-04,-3.6634476e-02,-3.8586329e-02,-3.7298536e-02,-4.7575342e-03,-9.5071834e-03,1.5047235e-03,-9.7916946e-03,2.3172441e-01,-4.6505383e-02
2.4399464e+00,-5.7079264e-03,4.5374660e-04,5.5997578e-04,-7.4155852e-02,-1.1667490e-01,-7.4843602e-02,-1.3507204e-03,-4.3135900e-03,1.7377921e-04,3.4068170e-01,5.1935983e-01,-1.3309455e-01
2.4499464e+00,-6.0330595e-03,6.0573273e-04,6.0986099e-04,-3.2529278e-02,1.5280017e-02,-3.2459222e-02,-2.4492405e-03,-4.9563941e-03,6.5176859e-04,-1.0985211e-01,-6.4280470e-02,4.7798984e-02
2.4599464e+00,-6.4209823e-03,-1.7483099e-04,8.1265589e-05,-3.8762364e-02,-7.8183075e-02,-3.8566582e-02,-1.1039652e-03,2.1694090e-03,-1.4510818e-03,1.3452766e-01,7.1258100e-01,-2.1028524e-01
2.4699464e+00,-6.2726672e-03,6.6467559e-04,3.7982744e-04,1.4481594e-02,8.4003003e-02,1.4881315e-02,-4.1709917e-03,-5.9685329e-04,-2.4076135e-05,-3.0670293e-01,-2.7662650e-01,1.4270071e-01
2.4799464e+00,-6.3068491e-03,8.9013207e-04,3.8669478e-04,-3.5094105e-03,2.2540842e-02,-3.3570552e-03,-4.1282641e-03,-2.7964021e-03,5.3537866e-04,4.2727560e-03,-2.1995509e-01,5.5945533e-02
2.4899464e+00,-6.3140889e-03,1.0071479e-03,5.0885232e-04,-7.7884434e-04,1.1699710e-02,-6.9698004e-04,-4.8466508e-03,-2.4777231e-03,2.5432833e-03,-7.1838731e-02,3.1867933e-02,2.0079066e-01
2.4999464e+00,-6.6345160e-03,1.4300612e-03,4.8968412e-04,-3.2187644e-02,4.2316279e-02,-3.1864123e-02,-5.3747918e-03,-6.1805057e-03,2.5538993e-03,-5.2814159e-02,-3.7027862e-01,1.0616018e-03
2.5099463e+00,-7.0846178e-03,1.3758629e-03,5.0122236e-04,-4.4873353e-02,-5.3786172e-03,-4.5151602e-02,-5.0487577e-03,-5.9463349e-03,2.4172063e-03,3.2603441e-02,2.3417110e-02,-1.3669317e-02
2.5199463e+00,-7.8968572e-03,-1.6173052e-04,4.0674800e-04,-8.1073894e-02,-1.5392492e-01,-8.1060511e-02,-9.5435596e-04,1.0843056e-03,4.1238399e-05,4.0944057e-01,7.0306472e-01,-2.3759701e-01
2.5299463e+00,-8.2397382e-03,1.0518789e-03,9.0511374e-04,-3.4551650e-02,1.2155768e-01,-3.3313204e-02,-2.5822620e-03,-8.4424962e-03,1.4498006e-03,-1.6279076e-01,-9.5268109e-01,1.4085636e-01
2.5399463e+00,-8.9250574e-03,2.2346235e-03,4.2142035e-04,-6.8831056e-02,1.1917348e-01,-6.6649156e-02,-3.5680111e-03,-1.6912209e-02,1.7858333e-03,-9.8575003e-02,-8.4697205e-01,3.3603293e-02
2.5499463e+00,-9.1399645e-03,2.2091278e-03,4.1630699e-04,-2.1437327e-02,-2.2740346e-03,-2.1574829e-02,-3.6010134e-03,-1.6372450e-02,2.0492381e-03,-3.3002256e-03,5.3975937e-02,2.6340505e-02
2.5599463e+00,-9.3985453e-03,2.0199603e-03,4.0499023e-04,-2.5760209e-02,-1.8643494e-02,-2.6152606e-02,-3.7652409e-03,-1.4239527e-02,1.0237308e-03,-1.6422767e-02,2.1329252e-01,-1.0255082e-01
2.5699463e+00,-9.5076938e-03,2.1773667e-03,4.6557922e-04,-1.0952713e-02,1.5868468e-02,-1.0689544e-02,-3.7883885e-03,-1.5654469e-02,1.9861860e-03,-2.3147697e-03,-1.4149432e-01,9.6245609e-02
2.5799463e+00,-9.6501014e-03,2.4053103e-03,5.7921301e-04,-1.4268039e-02,2.2997249e-02,-1.3882825e-02,-3.3452037e-03,-1.7792419e-02,3.4286990e-03,4.4318527e-02,-2.1379529e-01,1.4425144e-01
2.5899463e+00,-1.0256617e-02,2.2407659e-03,5.9515321e-04,-6.0448800e-02,-1.5622987e-02,-6.1072495e-02,-3.4192200e-03,-1.7046471e-02,2.4075117e-03,-7.4016367e-03,7.4594931e-02,-1.0211883e-01
2.5999463e+00,-1.0584375e-02,2.3491385e-03,6.0769438e-04,-3.2743015e-02,1.1318853e-02,-3.2645651e-02,-3.6818113e-03,-1.8393204e-02,2.2102146e-03,-2.6259152e-02,-1.3467344e-01,-1.9729733e-02
2.6099465e+00,-1.0789117e-02,2.0888866e-03,4.5877281e-04,-2.0351573e-02,-2.5744428e-02,-2.0944370e-02,-3.2390553e-03,-1.6708798e-02,1.8435271e-03,4.4274580e-02,1.6843673e-01,-3.6667906e-02
2.6199465e+00,-1.0809363e-02,2.0949699e-03,4.7634941e-04,-2.0217196e-03,6.3742262e-04,-2.0184894e-03,-2.8403927e-03,-1.7217103e-02,2.2623325e-03,3.9866298e-02,-5.0830528e-02,4.1880579e-02
2.6299465e+00,-1.0607672e-02,1.4665845e-03,7.5066757e-04,2.0244427e-02,-6.3026738e-02,1.9495331e-02,-2.3382950e-03,-1.1851976e-02,3.5417491e-03,5.0209818e-02,5.3651318e-01,1.2794178e-01
2.6399465e+00,-1.0595591e-02,1.7206446e-03,7.7172661e-04,1.1220119e-03,2.5392353e-02,1.5346591e-03,-3.1967557e-03,-1.2673557e-02,4.0678657e-03,-8.5846149e-02,-8.2158120e-02,5.2611713e-02
2.6499465e+00,-1.0841129e-02,1.6898705e-03,6.6972886e-04,-2.4460282e-02,-2.8841654e-03,-2.4670408e-02,-4.0965558e-03,-1.1918079e-02,3.2832123e-03,-8.9980094e-02,7.5547823e-02,-7.8465423e-02
2.6599464e+00,-1.1132452e-02,1.8512352e-03,8.0486818e-04,-2.9097911e-02,1.6468557e-02,-2.8980592e-02,-3.6966290e-03,-1.5113720e-02,3.2184692e-03,3.9992710e-02,-3.1956438e-01,-6.4743090e-03
2.6699464e+00,-1.1625836e-02,1.2276609e-03,7.7777442e-04,-4.9029121e-02,-6.1967213e-02,-5.0132003e-02,-3.2424230e-03,-1.1045065e-02,2.1625826e-03,4.5420651e-02,4.0686585e-01,-1.0558876e-01
2.6799464e+00,-1.1863056e-02,1.3780782e-03,1.0187069e-03,-2.3730037e-02,1.5230832e-02,-2.3593098e-02,-4.2167746e-03,-1.2212276e-02,2.3263087e-03,-9.7435253e-02,-1.1672123e-01,1.6372629e-02
2.6899464e+00,-1.2082427e-02,1.9911764e-03,1.0841081e-03,-2.2184595e-02,6.1582877e-02,-2.0898973e-02,-4.9516192e-03,-1.7828926e-02,2.5412920e-03,-7.3484535e-02,-5.6166550e-01,2.1498349e-02
2.6999464e+00,-1.2460157e-02,1.7622093e-03,8.4727164e-04,-3.7607313e-02,-2.2541421e-02,-3.8150246e-02,-5.0700700e-03,-1.4387339e-02,1.3006992e-03,-1.1845093e-02,3.4415908e-01,-1.2405940e-01
2.7099464e+00,-1.2487800e-02,2.0629878e-03,7.7831556e-04,-2.8993863e-03,3.0108088e-02,-2.2490880e-03,-4.7085793e-03,-1.7351266e-02,2.3531678e-03,3.6149106e-02,-2.9639301e-01,1.0524696e-01
2.7199464e+00,-1.2715570e-02,2.1868898e-03,7.0123936e-04,-2.2748245e-02,1.2707090e-02,-2.2630782e-02,-3.8664595e-03,-1.7809849e-02,3.3547760e-03,8.4212065e-02,-4.5858352e-02,1.0016091e-01
2.7299464e+00,-1.2805217e-02,2.0911945e-03,6.5100940e-04,-8.8970038e-03,-9.4397824e-03,-9.1673643e-03,-3.1949089e-03,-1.7429852e-02,4.1245002e-03,6.7155123e-02,3.7999747e-02,7.6972496e-02
2.7399464e+00,-1.3089426e-02,2.1611693e-03,6.4447743e-04,-2.8343922e-02,7.4177863e-03,-2.8391213e-02,-3.3359682e-03,-1.8103057e-02,3.5188890e-03,-1.4105950e-02,-6.7320550e-02,-6.0561175e-02
2.7499464e+00,-1.3166193e-02,1.4261689e-03,8.6412626e-04,-7.3693480e-03,-7.3444969e-02,-8.4652305e-03,-4.0373009e-03,-1.0591336e-02,1.3773591e-03,-7.0133335e-02,7.5117283e-01,-2.1415320e-01
2.7599463e+00,-1.3370664e-02,1.4443803e-03,9.5868607e-04,-2.0419354e-02,1.9690349e-03,-2.0461127e-02,-4.1615045e-03,-1.1381116e-02,1.7177551e-03,-1.2420374e-02,-7.8978169e-02,3.4039637e-02
2.7699463e+00,-1.3705856e-02,5.6516589e-04,1.0153144e-03,-3.3169168e-02,-8.7865809e-02,-3.4009903e-02,-3.4124506e-03,-5.0189762e-03,1.4847553e-03,7.4905464e-02,6.3621463e-01,-2.3300001e-02
2.7799463e+00,-1.3934235e-02,6.6402957e-04,1.0201531e-03,-2.2835272e-02,9.9139408e-03,-2.2828673e-02,-3.9703910e-03,-5.1770182e-03,1.8263624e-03,-5.5794090e-02,-1.5804218e-02,3.4160738e-02
2.7899463e+00,-1.4218508e-02,1.3794475e-03,1.1185430e-03,-2.8685775e-02,7.1770243e-02,-2.7579345e-02,-4.7620640e-03,-1.2999196e-02,2.8766765e-03,-7.9167381e-02,-7.8221855e-01,1.0503152e-01
2.7999463e+00,-1.4895064e-02,8.8197237e-04,1.2461290e-03,-6.7240819e-02,-4.9529717e-02,-6.8226590e-02,-4.5460640e-03,-7.7151275e-03,2.7742877e-03,2.1600029e-02,5.2840738e-01,-1.0238893e-02
2.8099463e+00,-1.5539868e-02,1.2229369e-03,1.1756030e-03,-6.4363112e-02,3.4542265e-02,-6.4360343e-02,-3.8845917e-03,-1.0791030e-02,3.8591409e-03,6.6147289e-02,-3.0759054e-01,1.0848542e-01
2.8199463e+00,-1.6701694e-02,5.7353792e-04,1.2396895e-03,-1.1559621e-01,-6.4708378e-02,-1.1689488e-01,-3.8026402e-03,-5.7658363e-03,2.9116817e-03,8.1951539e-03,5.0251985e-01,-9.4746015e-02
2.8299463e+00,-1.7569172e-02,-4.9156366e-05,1.0458398e-03,-8.6445736e-02,-6.2005103e-02,-8.7237410e-02,-6.6206478e-04,-3.6936920e-03,3.0025615e-03,3.1405785e-01,2.0721462e-01,9.0879962e-03
2.8399463e+00,-1.8247799e-02,4.1552494e-04,1.1176440e-03,-6.7791505e-02,4.6724400e-02,-6.7757987e-02,-2.3443643e-03,-6.1184632e-03,2.6491495e-03,-1.6823012e-01,-2.4247735e-01,-3.5341234e-02
2.8499463e+00,-1.8915579e-02,5.6903106e-04,1.1922687e-03,-6.6672319e-02,1.5398873e-02,-6.6872612e-02,-3.8594159e-03,-4.5747508e-03,2.4607041e-03,-1.5150530e-01,1.5437138e-01,-1.8844566e-02
2.8599465e+00,-1.9587624e-02,6.8066413e-04,1.3739294e-03,-6.7123065e-02,1.1107891e-02,-6.7291951e-02,-5.9268938e-03,-5.1001022e-03,2.1539518e-03,-2.0674306e-01,-5.2533934e-02,-3.0674528e-02
2.8699465e+00,-2.0298576e-02,1.0426760e-03,1.5951248e-03,-7.1177167e-02,3.6398488e-02,-7.0912275e-02,-6.0001002e-03,-8.7867978e-03,1.8827945e-03,-7.3206469e-03,-3.6866991e-01,-2.7115751e-02
2.8799465e+00,-2.1308198e-02,-2.4269607e-04,1.7834393e-03,-1.0046698e-01,-1.2828478e-01,-1.0177446e-01,-1.8173029e-03,-4.2938680e-03,2.5878533e-03,4.1828014e-01,4.4929340e-01,7.0505944e-02
2.8899465e+00,-2.2112694e-02,-1.7483607e-04,1.6260947e-03,-8.0177970e-02,7.0993849e-03,-8.0693521e-02,-1.0386480e-03,-4.9180845e-03,3.4585104e-03,7.7865561e-02,-6.2421700e-02,8.7065792e-02
2.8999465e+00,-2.2556527e-02,8.0098610e-04,1.8575165e-03,-4.4775423e-02,9.7727721e-02,-4.3663561e-02,-5.4689211e-03,-8.8354673e-03,3.1679219e-03,-4.4302774e-01,-3.9173866e-01,-2.9058879e-02
2.9099464e+00,-2.3612695e-02,1.5106406e-03,1.5843920e-03,-1.0571666e-01,7.2000836e-02,-1.0481338e-01,-5.5595399e-03,-1.5409391e-02,2.7719801e-03,-9.0618827e-03,-6.5739299e-01,-3.9594213e-02
2.9199464e+00,-2.4446276e-02,9.8520124e-04,1.4935791e-03,-8.2928104e-02,-5.2308376e-02,-8.3933307e-02,-5.7764984e-03,-8.5564387e-03,1.5002175e-03,-2.1695867e-02,6.8529588e-01,-1.2717638e-01
2.9299464e+00,-2.5315560e-02,4.4078126e-04,1.6599908e-03,-8.6576375e-02,-5.4198380e-02,-8.7430727e-02,-4.2331583e-03,-7.0055279e-03,1.3896663e-03,1.5433415e-01,1.5509122e-01,-1.1055124e-02
2.9399464e+00,-2.6010476e-02,-1.4274700e-04,1.8476658e-03,-6.9182838e-02,-5.8224705e-02,-6.9906090e-02,-3.1406822e-03,-4.9617771e-03,1.8003257e-03,1.0924772e-01,2.0437528e-01,4.1065973e-02
2.9499464e+00,-2.6594594e-02,7.3867947e-05,1.8513676e-03,-5.8368172e-02,2.1658279e-02,-5.8456719e-02,-4.7352036e-03,-4.6763029e-03,2.4896559e-03,-1.5945230e-01,2.8547439e-02,6.8933086e-02
2.9599464e+00,-2.7399557e-02,5.8315863e-04,1.6981086e-03,-8.0431632e-02,5.1165317e-02,-8.0411266e-02,-4.6190447e-03,-7.5500085e-03,3.7091848e-03,1.1615902e-02,-2.8737083e-01,1.2195301e-01
2.9699464e+00,-2.8367423e-02,5.2134531e-04,2.1349800e-03,-9.6473146e-02,-5.7740327e-03,-9.7124351e-02,-5.0696207e-03,-9.2474787e-03,2.8990189e-03,-4.5057635e-02,-1.6974719e-01,-8.1016667e-02
2.9799464e+00,-2.9440402e-02,2.1829235e-04,2.2977851e-03,-1.0680188e-01,-3.0181557e-02,-1.0782659e-01,-5.3770034e-03,-6.5003635e-03,3.0860465e-03,-3.0738305e-02,2.7471179e-01,1.8702775e-02
2.9899464e+00,-3.0983397e-02,4.9355306e-04,2.0998473e-03,-1.5421089e-01,2.8416505e-02,-1.5422682e-01,-5.0883496e-03,-1.0855757e-02,1.4685160e-03,2.8865411e-02,-4.3553973e-01,-1.6175320e-01
2.9999464e+00,-3.2020398e-02,6.5445498e-05,2.3291724e-03,-1.0332098e-01,-4.2267169e-02,-1.0429999e-01,-4.0906128e-03,-9.2934374e-03,1.9578479e-03,9.9773777e-02,1.5623207e-01,4.8933238e-02
3.0099463e+00,-3.3244157e-02,2.0972680e-04,1.8517575e-03,-1.2245248e-01,1.4731202e-02,-1.2226340e-01,-5.4331269e-03,-7.9148893e-03,1.1098757e-06,-1.3425154e-01,1.3785494e-01,-1.9567399e-01
3.0199463e+00,-3.4219427e-02,1.0809872e-03,2.0203357e-03,-9.7848380e-02,8.8250126e-02,-9.6185485e-02,-4.7664121e-03,-1.6406200e-02,9.5214708e-04,6.6671549e-02,-8.4913186e-01,9.5103812e-02
3.0299463e+00,-3.4972993e-02,6.0007961e-04,2.2998317e-03,-7.4993218e-02,-4.7721091e-02,-7.5951834e-02,-6.0742040e-03,-1.0920329e-02,9.2717638e-04,-1.3077932e-01,5.4858759e-01,-2.4970733e-03
3.0399463e+00,-3.5951924e-02,4.7140428e-04,2.3382812e-03,-9.7651996e-02,-1.2328989e-02,-9.8203076e-02,-5.4638121e-03,-1.0936435e-02,1.7301130e-03,6.1039252e-02,-1.6105569e-03,8.0293735e-02
3.0499463e+00,-3.6779324e-02,4.4630665e-04,2.4316064e-03,-8.2533629e-02,-2.1519741e-03,-8.2955927e-02,-5.5410567e-03,-9.8405810e-03,2.3082163e-03,-7.7244634e-03,1.0958547e-01,5.7810391e-02
3.0599463e+00,-3.8179569e-02,3.1118787e-04,2.5546549e-03,-1.3972999e-01,-1.2923074e-02,-1.4037412e-01,-5.3621479e-03,-9.5463533e-03,1.5712206e-03,1.7890890e-02,2.9422795e-02,-7.3699646e-02
3.0699463e+00,-3.9441859e-02,2.7994250e-04,2.4080546e-03,-1.2613640e-01,-2.8437644e-03,-1.2632837e-01,-5.0834112e-03,-7.3023252e-03,5.9547157e-04,2.7873704e-02,2.2440302e-01,-9.7574992e-02
3.0799463e+00,-4.1044413e-02,5.4643272e-04,2.6120112e-03,-1.6047389e-01,2.7870341e-02,-1.5982879e-01,-4.8775755e-03,-1.2520480e-02,-5.6327176e-04,2.0583589e-02,-5.2181598e-01,-1.1587444e-01
3.0899463e+00,-4.2328348e-02,7.4953258e-04,2.4494042e-03,-1.2864074e-01,2.1325400e-02,-1.2798093e-01,-5.2656379e-03,-1.3204605e-02,-1.1063903e-03,-3.8806284e-02,-6.8412563e-02,-5.4311904e-02
3.0999463e+00,-4.3340502e-02,6.5812916e-04,2.7034405e-03,-1.0129741e-01,-8.1044862e-03,-1.0122193e-01,-4.7166673e-03,-1.4958466e-02,-1.2464509e-03,5.4897118e-02,-1.7538631e-01,-1.4006072e-02
3.1099465e+00,-4.4246822e-02,-1.2394316e-04,2.8746990e-03,-9.0510564e-02,-7.7849656e-02,-9.1054497e-02,-3.9033562e-03,-7.8121673e-03,-2.0611147e-03,8.1329246e-02,7.1461356e-01,-8.1464515e-02
3.1199465e+00,-4.4978853e-02,-1.9684731e-04,2.6787184e-03,-7.3183740e-02,-6.9640191e-03,-7.3254352e-02,-3.0007326e-03,-7.4566405e-03,-3.7972796e-05,9.0262445e-02,3.5552722e-02,2.0231438e-01
3.1299465e+00,-4.5809057e-02,-2.0084039e-04,2.8892659e-03,-8.2752244e-02,-1.7857635e-04,-8.3288651e-02,-4.0523423e-03,-6.6895445e-03,3.1983470e-03,-1.0516107e-01,7.6709667e-02,3.2363229e-01
3.1399465e+00,-4.7077164e-02,-4.0242709e-04,3.0489546e-03,-1.2632091e-01,-1.9785145e-02,-1.2735740e-01,-4.2501283e-03,-7.1675353e-03,3.1734840e-03,-1.9778614e-02,-4.7799121e-02,-2.4863086e-03
3.1499465e+00,-4.8392093e-02,-2.8412524e-04,3.0583060e-03,-1.3125565e-01,1.1897501e-02,-1.3172384e-01,-5.0033865e-03,-5.5053323e-03,2.2401008e-03,-7.5325901e-02,1.6622046e-01,-9.3338405e-02
3.1599464e+00,-5.0268283e-02,2.2568368e-04,2.8072212e-03,-1.8751177e-01,5.2384386e-02,-1.8733986e-01,-4.4968551e-03,-1.1977962e-02,1.7829994e-03,5.0653195e-02,-6.4726362e-01,-4.5710191e-02
3.1699464e+00,-5.1794830e-02,-4.7226521e-04,2.8945448e-03,-1.5219158e-01,-6.9547328e-02,-1.5322920e-01,-4.5217323e-03,-6.1247184e-03,9.5623158e-04,-2.4877250e-03,5.8532495e-01,-8.2676856e-02
