time, x, y, z, vx, vy, vz, yaw, pitch, roll, yaw_rate, pitch_rate, roll_rate
0.0000000e+00,0.0000000e+00,0.0000000e+00,0.0000000e+00,0.0000000e+00,0.0000000e+00,0.0000000e+00,0.0000000e+00,0.0000000e+00,0.0000000e+00,0.0000000e+00,0.0000000e+00,0.0000000e+00
9.9999905e-03,1.2992515e-04,-5.0913086e-04,-1.9074762e-04,1.2922599e-02,-5.0903141e-02,1.3100975e-02,1.5335835e-03,2.2893384e-03,-6.2868063e-04,1.5335849e-01,2.2893405e-01,-6.2868123e-02
1.9999981e-02,-2.2636945e-04,1.3759365e-04,-9.4513584e-05,-3.5572164e-02,6.4951792e-02,-3.5175864e-02,1.7122865e-03,-6.1727045e-03,-1.5015728e-03,1.7870320e-02,-8.4620509e-01,-8.7289298e-02
2.9999971e-02,1.5264243e-04,-2.0658713e-04,-4.3377509e-05,3.7908400e-02,-3.4316723e-02,3.7985887e-02,-3.8621244e-05,2.6337087e-03,-1.5428678e-04,-1.7509094e-01,8.8064216e-01,1.3472873e-01
3.9999962e-02,9.6512292e-05,-1.8182710e-04,-5.2268293e-05,-5.6134640e-03,2.4640708e-03,-5.6178242e-03,1.1363671e-04,2.2391253e-03,-1.2940096e-04,1.5225810e-02,-3.9458372e-02,2.4885845e-03
4.9999952e-02,6.3586651e-04,1.5506759e-03,-6.8725146e-04,5.4368651e-02,1.7158671e-01,5.8616062e-02,2.2194423e-03,-2.7439758e-02,-9.0504868e-04,2.1058076e-01,-2.9678912e+00,-7.7564846e-02
5.9999943e-02,1.9983896e-04,1.2000943e-03,-4.5366790e-04,-4.3798610e-02,-3.3971314e-02,-4.4261902e-02,2.4104798e-03,-2.2372598e-02,-2.5589169e-03,1.9103760e-02,5.0671649e-01,-1.6538698e-01
6.9999933e-02,2.2774035e-04,1.2680499e-03,-4.3488015e-04,2.8139421e-03,6.7214931e-03,2.9415665e-03,2.4385888e-03,-2.3495651e-02,-2.5970978e-03,2.8109095e-03,-1.1230539e-01,-3.8180955e-03
7.9999924e-02,3.7741191e-04,2.9664602e-04,-4.1259258e-04,1.4801824e-02,-9.7311349e-02,1.3989764e-02,1.9557822e-03,-9.8004869e-03,-1.6494975e-03,-4.8280710e-02,1.3695177e+00,9.4760128e-02
8.9999914e-02,6.9392447e-04,1.4187454e-03,-6.6296913e-04,3.1921031e-02,1.1129027e-01,3.4499650e-02,2.1508892e-03,-2.5752029e-02,-8.9978506e-04,1.9510718e-02,-1.5951557e+00,7.4971313e-02
9.9999905e-02,6.1334073e-04,1.2028723e-03,-6.2853689e-04,-8.1182848e-03,-2.1372347e-02,-8.5559298e-03,2.2633714e-03,-2.3691379e-02,-1.3738797e-03,1.1248235e-02,2.0606521e-01,-4.7409511e-02
1.0999990e-01,2.2991138e-04,-5.2750023e-04,-1.5229720e-04,-3.8611924e-02,-1.7308425e-01,-3.7858666e-02,1.4250933e-03,2.6685694e-03,-5.8428620e-04,-8.3827892e-02,2.6359973e+00,7.8959427e-02
1.1999989e-01,1.5723297e-04,-4.4228621e-04,-1.4337576e-04,-7.2584113e-03,8.5165719e-03,-7.2829336e-03,1.4865476e-03,2.1492718e-03,-4.4580220e-04,6.1454389e-03,-5.1929813e-02,1.3848413e-02
1.2999988e-01,-2.3177149e-04,-4.8482057e-04,-1.7924076e-04,-3.8971391e-02,-4.2530625e-03,-3.8829488e-02,2.0158702e-03,2.0098385e-03,-1.6056952e-03,5.2932306e-02,-1.3943344e-02,-1.1598941e-01
1.3999987e-01,2.7511548e-04,-5.8445819e-04,-1.7311737e-04,5.0703827e-02,-9.8668129e-03,5.0692626e-02,1.2794566e-03,3.1928707e-03,-5.5002202e-04,-7.3641434e-02,1.1830334e-01,1.0556741e-01
1.4999986e-01,1.8997337e-04,-5.7251911e-04,-1.7813007e-04,-8.5169915e-03,1.1810469e-03,-8.5132402e-03,1.4539992e-03,2.9654134e-03,-5.3069258e-04,1.7454284e-02,-2.2745752e-02,1.9329455e-03
1.5999985e-01,-3.3029027e-05,5.3609471e-06,-1.9392497e-05,-2.2290179e-02,5.7793765e-02,-2.2295557e-02,1.2999988e-04,-1.2582179e-04,1.1521033e-04,-1.3240006e-01,-3.0912382e-01,6.4590352e-02
1.6999984e-01,6.7498666e-04,2.2532227e-03,-6.6391408e-04,7.1027482e-02,2.2216777e-01,7.8429857e-02,9.5190319e-04,-3.4189510e-02,-1.6813436e-04,8.2190410e-02,-3.4063721e+00,-2.8334496e-02
1.7999983e-01,-1.1954194e-04,1.0144061e-04,-8.1325161e-05,-7.9911684e-02,-2.1459748e-01,-8.0556387e-02,1.5822012e-03,-5.6907997e-03,-1.4912167e-03,6.3029862e-02,2.8498738e+00,-1.3230836e-01
1.9000006e-01,-1.8309652e-04,7.5772513e-05,-1.0064517e-04,-6.3692553e-03,-2.5198804e-03,-6.3601113e-03,1.7051489e-03,-5.6714628e-03,-1.5076848e-03,1.2294484e-02,1.9336451e-03,-1.6467750e-03
2.0000005e-01,-3.3547910e-06,-3.5881327e-05,-1.2984324e-05,1.7975066e-02,-1.1159871e-02,1.7976745e-02,1.2682937e-04,4.3411400e-04,-1.2750621e-04,-1.5783210e-01,6.1055826e-01,1.3801799e-01
2.1000004e-01,2.0993172e-05,9.4848683e-06,-1.4383131e-05,2.4357375e-03,4.5359509e-03,2.4351135e-03,1.3579078e-04,-1.4060532e-04,-1.3259340e-04,8.9614200e-04,-5.7471986e-02,-5.0872026e-04
2.2000003e-01,-1.0484478e-04,8.2295735e-05,-9.4379613e-05,-1.2592802e-02,7.3710446e-03,-1.2522291e-02,1.5350700e-03,-5.6320387e-03,-1.6054627e-03,1.3992806e-01,-5.4914387e-01,-1.4728707e-01
2.3000002e-01,-6.1934997e-05,6.7580924e-05,-1.4807535e-04,4.2953149e-03,-1.5016605e-03,4.2761674e-03,1.6456163e-03,-5.4013108e-03,-1.5765824e-03,1.1054644e-02,2.3072818e-02,2.8880291e-03
2.4000001e-01,6.6753760e-05,-2.6426903e-04,-2.0248433e-04,1.2835123e-02,-3.3225140e-02,1.2798917e-02,1.5420394e-03,-1.5834335e-03,-1.3548211e-03,-1.0357703e-02,3.8178810e-01,2.2176159e-02
2.5000000e-01,7.1339039e-04,2.3477755e-03,-6.4487333e-04,6.4943374e-02,2.5862525e-01,7.4067741e-02,9.9892563e-04,-3.6254144e-02,-2.9011356e-04,-5.4311430e-02,-3.4670743e+00,1.0647085e-01
2.5999999e-01,4.8963050e-04,1.6500841e-03,-5.1742370e-04,-2.2452203e-02,-6.9165521e-02,-2.4106913e-02,8.7801987e-04,-2.5134832e-02,-6.6798140e-04,-1.2090587e-02,1.1119322e+00,-3.7786820e-02
2.6999998e-01,1.3956609e-04,1.1335524e-03,-4.7532264e-04,-3.5222901e-02,-5.0790863e-02,-3.6036053e-02,2.4814883e-03,-2.1853688e-02,-2.5272608e-03,1.6034699e-01,3.2811474e-01,-1.8592811e-01
2.7999997e-01,3.4358288e-05,2.4058834e-04,-2.4357952e-04,-1.0699472e-02,-8.9195651e-02,-1.1175617e-02,1.7784732e-03,-7.5646994e-03,-1.8920459e-03,-7.0301574e-02,1.4289002e+00,6.3521546e-02
2.8999996e-01,6.8620728e-04,2.2398441e-03,-6.5409642e-04,6.5391052e-02,1.9750101e-01,7.2012728e-02,9.7095761e-04,-3.4422554e-02,-1.8413700e-04,-8.0751636e-02,-2.6857881e+00,1.7079105e-01
2.9999995e-01,-3.5310039e-05,-7.2662104e-05,-2.4830054e-05,-7.2202490e-02,-2.3125531e-01,-7.2086754e-02,2.1031826e-04,2.7239702e-04,-2.8474267e-05,-7.6064008e-02,3.4694985e+00,1.5566288e-02
3.0999994e-01,-2.4462596e-04,-5.6166270e-04,-2.0678441e-04,-2.1078339e-02,-4.8887348e-02,-2.0813840e-02,2.2969163e-03,1.6997696e-03,-1.6478340e-03,2.0866000e-01,1.4273740e-01,-1.6193613e-01
3.1999993e-01,-3.5056770e-04,-1.4438204e-04,-3.8581390e-05,-1.0516677e-02,4.1780618e-02,-1.0463636e-02,2.2799506e-03,-2.7059816e-03,-1.6681923e-03,-1.6965698e-03,-4.4057554e-01,-2.0358295e-03
3.2999992e-01,1.2178761e-04,-2.7762994e-04,-1.9570869e-05,4.7230965e-02,-1.3203431e-02,4.7274252e-02,1.4701895e-04,2.7153033e-03,5.6132209e-05,-2.1329337e-01,5.4212900e-01,1.7243261e-01
3.3999991e-01,-5.4062607e-05,-9.0511608e-05,1.6732544e-05,-1.7577660e-02,1.8732526e-02,-1.7570397e-02,3.0805361e-04,-8.6802088e-04,9.1702707e-05,1.6103482e-02,-3.5833276e-01,3.5570532e-03
3.4999990e-01,1.4564970e-04,-6.6726575e-04,-1.4637874e-04,1.9880593e-02,-5.7658059e-02,2.0111479e-02,1.7662315e-03,2.6249911e-03,-5.6309182e-04,1.4581793e-01,3.4930153e-01,-6.5479515e-02
3.5999990e-01,-1.6696391e-04,-1.8484290e-04,-4.3645136e-05,-3.1221456e-02,4.8472265e-02,-3.0944008e-02,1.8504366e-03,-5.5399188e-03,-1.5811146e-03,8.4205178e-03,-8.1649177e-01,-1.0180238e-01
3.6999989e-01,-6.8533277e-04,-1.8540794e-04,7.6080584e-05,-5.1920472e-02,2.5413318e-04,-5.1752672e-02,2.6933565e-03,-3.3045627e-03,-1.6135166e-03,8.4292066e-02,2.2353583e-01,-3.2402006e-03
3.7999988e-01,-7.0904149e-04,3.4806425e-04,2.2101591e-04,-2.2905359e-03,5.3363856e-02,-2.0556100e-03,1.5550283e-03,-5.8610748e-03,-1.1060250e-03,-1.1383292e-01,-2.5565146e-01,5.0749212e-02
3.8999987e-01,7.3788096e-04,2.1914304e-03,-6.9025404e-04,1.4503318e-01,1.7877798e-01,1.5118079e-01,1.5624043e-03,-3.6048481e-02,-3.6609733e-04,7.3760210e-04,-3.0187435e+00,7.3992836e-02
3.9999986e-01,1.8390482e-04,1.1331539e-03,-4.8742775e-04,-5.5838489e-02,-1.0433228e-01,-5.7742131e-02,2.7780928e-03,-2.3737992e-02,-2.6577584e-03,1.2156896e-01,1.2310501e+00,-2.2916632e-01
4.0999985e-01,1.3642282e-04,8.0938923e-04,-4.5414546e-04,-4.8418434e-03,-3.2273069e-02,-5.3230024e-03,2.5567605e-03,-1.8128018e-02,-2.2932290e-03,-2.2133246e-02,5.6099789e-01,3.6452968e-02
4.1999984e-01,-5.2968244e-05,-1.8389898e-04,5.9407186e-05,-1.9135713e-02,-9.9295009e-02,-1.8919302e-02,1.6994317e-03,-8.3385695e-05,-1.4696555e-03,-8.5732965e-02,1.8044650e+00,8.2357430e-02
4.2999983e-01,1.4098135e-04,-2.4465522e-04,-1.7671724e-05,1.9392921e-02,-6.0283480e-03,1.9411781e-02,1.8454818e-04,2.6211658e-03,4.8226274e-05,-1.5148849e-01,2.7045540e-01,1.5178833e-01
4.4000006e-01,2.1570696e-04,-2.3603118e-04,-2.2684615e-04,7.4765573e-03,8.2909533e-04,7.4719891e-03,1.7140729e-03,-2.7412383e-03,-3.6141893e-04,1.5294897e-01,-5.3622814e-01,-4.0963583e-02
4.5000005e-01,7.8057532e-05,-6.2561748e-04,-1.9037181e-04,-1.3846779e-02,-3.8963252e-02,-1.3669583e-02,1.8870309e-03,2.2335334e-03,-6.0545268e-04,1.7295816e-02,4.9747765e-01,-2.4403398e-02
4.6000004e-01,-4.1430460e-05,-1.1758390e-04,-1.3766426e-05,-1.1932542e-02,5.0802962e-02,-1.1966943e-02,3.1519318e-04,3.5188902e-04,2.1316154e-05,-1.5718392e-01,-1.8816462e-01,6.2676943e-02
4.7000003e-01,1.5257081e-04,2.6987677e-04,-8.9844507e-05,1.9394686e-02,3.8648901e-02,1.9598481e-02,4.4008974e-05,-4.9402335e-03,3.6925355e-04,-2.7118446e-02,-5.2921275e-01,3.4793773e-02
4.7996593e-01,-7.3176234e-04,-1.6625166e-04,6.9954174e-05,-8.8985655e-02,-4.3212791e-02,-8.8755057e-02,2.6827565e-03,-3.5079456e-03,-1.4958657e-03,2.6477773e-01,1.4371892e-01,-1.8715017e-01
4.8996592e-01,-5.0475035e-04,-6.7551534e-04,-1.1280872e-04,2.2612916e-02,-5.0962927e-02,2.2707415e-02,2.4780939e-03,8.6347213e-04,-1.6738349e-03,-2.0466283e-02,4.3714219e-01,-1.7796933e-02
4.9996591e-01,-1.3997671e-05,-1.7120953e-04,-2.2925982e-05,4.9095738e-02,5.0376285e-02,4.9110690e-02,4.0912037e-04,-6.9790618e-04,4.1857153e-06,-2.0689755e-01,-1.5613798e-01,1.6780222e-01
5.0996590e-01,1.3854770e-04,2.4356397e-04,-8.2172009e-05,1.5260748e-02,4.1401151e-02,1.5454150e-02,2.2978973e-04,-4.7363241e-03,2.1859495e-04,-1.7933081e-02,-4.0384218e-01,2.1440943e-02
5.1996589e-01,-2.3405643e-04,2.6685542e-05,-6.1226632e-05,-3.7357403e-02,-2.1396316e-02,-3.7331857e-02,2.0156474e-03,-5.8063282e-03,-1.4319017e-03,1.7858593e-01,-1.0700050e-01,-1.6504982e-01
5.2996588e-01,-2.2335439e-04,-1.3838541e-04,-6.0437635e-05,1.0407660e-03,-1.6514821e-02,9.7615950e-04,1.8849894e-03,-5.5967680e-03,-1.5693518e-03,-1.3065804e-02,2.0956039e-02,-1.3745021e-02
5.3996587e-01,1.3178768e-04,-2.7771227e-04,-7.0245138e-05,3.5517039e-02,-1.3871750e-02,3.5535296e-02,4.3230217e-04,2.1480965e-03,-2.4850127e-04,-1.4526887e-01,7.7448718e-01,1.3208518e-01
5.4996586e-01,9.7240478e-05,-2.3757436e-04,-4.5974106e-05,-3.4541347e-03,4.0076206e-03,-3.4624723e-03,3.2451502e-04,2.1095838e-03,-2.0661096e-04,-1.0778726e-02,-3.8512747e-03,4.1890349e-03
5.5996585e-01,-2.1618380e-04,6.9273996e-05,-1.0570678e-04,-3.1327680e-02,3.0934708e-02,-3.1110779e-02,2.0291542e-03,-5.9708246e-03,-1.5183065e-03,1.7046408e-01,-8.0804161e-01,-1.3116968e-01
5.6996584e-01,-1.1018120e-04,4.9439858e-05,-9.5481328e-05,1.0612556e-02,-2.0670306e-03,1.0571964e-02,1.9373980e-03,-5.9634376e-03,-1.5245725e-03,-9.1756291e-03,7.3870006e-04,-6.2660664e-04
5.7996583e-01,6.6587938e-04,1.7603255e-03,-7.2927661e-04,7.8242868e-02,1.6816571e-01,8.3157224e-02,3.2425851e-03,-3.3236536e-02,-1.0620185e-03,1.3051883e-01,-2.7273125e+00,4.6255447e-02
5.8996582e-01,6.4094724e-04,2.0233683e-03,-6.5022571e-04,-2.4622886e-03,2.6374219e-02,-1.6389733e-03,1.1945243e-03,-3.2409117e-02,-1.9844833e-04,-2.0480628e-01,8.2742029e-02,8.6357101e-02
5.9996581e-01,6.3657243e-04,1.4050618e-03,-6.7903057e-04,-5.9181798e-04,-6.1793971e-02,-2.1388815e-03,2.4907381e-03,-2.7531132e-02,-7.6542170e-04,1.2962151e-01,4.8779890e-01,-5.6697390e-02
6.0996580e-01,-1.7774293e-04,-1.8504078e-05,-9.0930574e-05,-8.1831058e-02,-1.4174879e-01,-8.2089031e-02,1.9944793e-03,-5.4494289e-03,-1.4215854e-03,-4.9625925e-02,2.2081725e+00,-6.5616437e-02
6.1996579e-01,-7.5090672e-04,-1.7199918e-04,5.4587923e-05,-5.7453175e-02,-1.4985966e-02,-5.7275725e-02,2.7885877e-03,-3.5575677e-03,-1.6441714e-03,7.9410920e-02,1.8918629e-01,-2.2258616e-02
6.2996578e-01,-6.4992847e-05,-7.4080991e-05,-1.5921268e-05,6.8592150e-02,9.7334895e-03,6.8599059e-02,4.2568444e-04,-4.2479138e-04,5.0516319e-05,-2.3629056e-01,3.1327793e-01,1.6946893e-01
6.3996577e-01,-1.8142641e-05,-9.3083087e-05,-3.7852047e-05,4.6839860e-03,-1.9032653e-03,4.6848242e-03,4.6009414e-04,-1.9180477e-04,3.5050350e-05,3.4409732e-03,2.3298684e-02,-1.5465984e-03
6.4996576e-01,-4.6100143e-04,-4.7839251e-04,-1.2734871e-04,-4.4447524e-02,-3.8413023e-02,-4.4226454e-02,2.4390576e-03,-2.2220047e-04,-1.5311359e-03,1.9789653e-01,-3.0395729e-03,-1.5661877e-01
6.5996575e-01,-1.8997219e-04,3.8348388e-05,-1.1705557e-04,2.7248555e-02,5.1462374e-02,2.7358668e-02,2.1037392e-03,-5.6824758e-03,-1.3644878e-03,-3.3531875e-02,-5.4602806e-01,1.6664824e-02
6.6996574e-01,1.0476809e-04,-5.0921052e-04,-1.5144053e-04,2.9386638e-02,-5.4751050e-02,2.9570277e-02,1.8478446e-03,2.0078682e-03,-4.6875303e-04,-2.5589484e-02,7.6903513e-01,8.9573562e-02
6.7996573e-01,-4.9528084e-05,-5.9651134e-05,-2.8967231e-06,-1.5399695e-02,4.4977758e-02,-1.5396037e-02,6.6034690e-04,-7.5250202e-04,1.5987794e-05,-1.1874988e-01,-2.7603728e-01,4.8474128e-02
6.8996596e-01,5.0649602e-04,1.4304117e-03,-5.0907016e-04,5.5823191e-02,1.4758483e-01,5.9053523e-02,1.2798477e-03,-2.3497848e-02,-5.6486449e-04,6.1948666e-02,-2.2744825e+00,-5.8083899e-02
6.9996595e-01,2.0660262e-04,1.4446552e-03,-4.0342707e-04,-3.0066650e-02,2.3473930e-03,-2.9853636e-02,2.7494931e-03,-2.8129745e-02,-2.7150056e-03,1.4696467e-01,-4.6319016e-01,-2.1501432e-01
7.0996594e-01,2.0983875e-04,1.0512021e-03,-4.4469162e-04,2.1766620e-04,-3.9343945e-02,-5.2204405e-04,2.7127958e-03,-2.1479060e-02,-2.4431223e-03,-3.6697295e-03,6.6506911e-01,2.7188354e-02
7.1996593e-01,5.1865031e-04,1.0621104e-03,-4.5676655e-04,3.0894454e-02,5.3233943e-04,3.0882592e-02,7.5952548e-04,-1.7328275e-02,-4.0319678e-04,-1.9532722e-01,4.1507895e-01,2.0399275e-01
7.2996593e-01,6.0914716e-05,-2.4366357e-04,-8.4907629e-05,-4.5873390e-02,-1.3060739e-01,-4.5588131e-02,6.5838528e-04,1.3142800e-03,-3.0210574e-04,-1.0114030e-02,1.8642573e+00,1.0109114e-02
7.3996592e-01,-1.9970942e-04,2.1597241e-05,-9.8279997e-05,-2.6043821e-02,2.6732831e-02,-2.5869111e-02,2.0932815e-03,-5.8667456e-03,-1.4193735e-03,1.4348976e-01,-7.1810325e-01,-1.1172688e-01
7.4996591e-01,7.6893859e-06,3.6793287e-04,-1.7025048e-04,2.0825480e-02,3.4377293e-02,2.1077808e-02,1.7774797e-03,-1.0498293e-02,-1.1603398e-03,-3.1580211e-02,-4.6315518e-01,2.5903394e-02
7.5996590e-01,1.7032658e-04,2.4064918e-04,-9.9868647e-05,1.6256046e-02,-1.2809502e-02,1.6207635e-02,2.9655231e-04,-4.6988848e-03,2.4059195e-04,-1.4809288e-01,5.7994137e-01,1.4009331e-01
7.6996589e-01,7.2039103e-06,-2.0579635e-04,-5.6306817e-05,-1.6331066e-02,-4.4666540e-02,-1.6233224e-02,4.6414811e-04,1.8139811e-03,1.1869636e-04,1.6759596e-02,6.5128721e-01,-1.2189571e-02
7.7996588e-01,-6.7183606e-06,-5.6394949e-04,-1.3178824e-04,-1.4650974e-03,-3.5814297e-02,-1.3436206e-03,2.0179857e-03,1.3397077e-03,-4.2893235e-04,1.5538390e-01,-4.7427381e-02,-5.4762923e-02
7.8994966e-01,7.4829639e-04,1.7583130e-03,-8.1263780e-04,7.6319000e-02,2.2972767e-01,8.3324997e-02,2.8097511e-03,-3.3506998e-02,-5.5008710e-04,7.9305192e-02,-3.4903326e+00,-1.2135161e-02
7.9994965e-01,6.8019328e-04,2.2286204e-03,-6.8098033e-04,-6.7390550e-03,4.7255394e-02,-5.1154756e-03,1.5304778e-03,-3.5927998e-02,-1.0641084e-04,-1.2792745e-01,-2.4210022e-01,4.4367669e-02
8.0994964e-01,-2.3376414e-04,-5.6861969e-04,-1.6885915e-04,-9.2178526e-02,-2.7969347e-01,-9.0701408e-02,2.2739915e-03,1.9538912e-03,-1.6079847e-03,7.4351446e-02,3.7881925e+00,-1.5015753e-01
8.1994963e-01,1.2013244e-04,-6.0399301e-04,-1.7057176e-04,3.5404156e-02,-3.5045143e-03,3.5378487e-02,1.7651721e-03,2.6936312e-03,-5.8688509e-04,-5.0881993e-02,7.3974069e-02,1.0211005e-01
8.2994962e-01,8.6696605e-05,-5.8947266e-04,-1.4956847e-04,-3.3425396e-03,1.4520766e-03,-3.3446150e-03,2.0126982e-03,1.9999099e-03,-5.6321212e-04,2.4752638e-02,-6.9372200e-02,2.3672996e-03
8.3994961e-01,8.3194357e-05,-3.0406232e-04,-5.5793126e-05,-3.3573940e-04,2.8540409e-02,-4.1204564e-04,5.0954526e-04,2.1679567e-03,-1.6337180e-04,-1.5031544e-01,1.6804694e-02,3.9984070e-02
8.4994960e-01,-6.3046279e-04,-1.4292067e-04,9.7923692e-05,-7.1422312e-02,1.6573981e-02,-7.1203745e-02,2.7813150e-03,-3.6691986e-03,-1.4250016e-03,2.2717719e-01,-5.8371609e-01,-1.2616310e-01
8.5994959e-01,-6.4496032e-04,-1.5067954e-04,8.0617265e-05,-1.4540947e-03,-7.6666407e-04,-1.4503138e-03,2.7931068e-03,-3.5692641e-03,-1.5043244e-03,1.1791779e-03,9.9934640e-03,-7.9322886e-03
8.6994958e-01,1.0882448e-04,-5.7165450e-04,-1.8832887e-04,7.5339376e-02,-4.2113830e-02,7.5408609e-02,2.0074766e-03,1.7903813e-03,-6.0362715e-04,-7.8563090e-02,5.3596505e-01,9.0069816e-02
8.7994957e-01,6.1072845e-04,2.1269000e-03,-6.7456328e-04,5.0629338e-02,2.6786002e-01,5.9564604e-02,1.5515357e-03,-3.4944151e-02,-4.0380313e-04,-4.5594133e-02,-3.6734568e+00,1.9982421e-02
8.8994956e-01,4.8930042e-04,7.6399815e-04,-4.0718442e-04,-1.2231870e-02,-1.3610988e-01,-1.3943707e-02,6.2327943e-04,-1.3252981e-02,-3.3860346e-04,-9.2825720e-02,2.1691191e+00,6.5199728e-03
8.9994955e-01,3.5395911e-04,1.6927267e-03,-5.0746684e-04,-1.3283513e-02,9.3287220e-02,-1.0619446e-02,3.0261951e-03,-3.0983236e-02,-2.2547432e-03,2.4029180e-01,-1.7730272e+00,-1.9161416e-01
9.0994954e-01,1.9236645e-04,9.5226424e-04,-4.5319304e-04,-1.6416217e-02,-7.3643133e-02,-1.7671967e-02,2.9477866e-03,-2.1023606e-02,-2.3998701e-03,-7.8408587e-03,9.9596395e-01,-1.4512704e-02
9.1994953e-01,3.0474904e-05,-3.2215642e-04,-9.0083378e-05,-1.6316813e-02,-1.2745296e-01,-1.5974813e-02,9.8672524e-04,1.6669979e-03,-1.1740281e-04,-1.9610632e-01,2.2690625e+00,2.2824695e-01
9.2994952e-01,-7.9646003e-05,-1.7811294e-04,9.5142822e-06,-1.0999318e-02,1.4411471e-02,-1.1015575e-02,7.7071058e-04,1.2470523e-04,1.5238222e-04,-2.1601486e-02,-1.5422942e-01,2.6978529e-02
9.3994975e-01,8.9178448e-05,-6.0719325e-04,-1.5681765e-04,1.6794391e-02,-4.2905511e-02,1.6973159e-02,2.1686497e-03,2.2480003e-03,-3.2124836e-04,1.3979072e-01,2.1232464e-01,-4.7361974e-02
9.4994974e-01,-2.5130119e-04,5.9070126e-06,-1.0079094e-04,-3.3956359e-02,6.1592771e-02,-3.3626697e-02,2.2663994e-03,-6.0826636e-03,-1.3932125e-03,9.7749702e-03,-8.3306718e-01,-1.0719652e-01
9.5994973e-01,2.8566535e-04,-2.5432055e-04,-2.5081651e-04,5.3666558e-02,-2.6285412e-02,5.3598835e-02,1.6815559e-03,-3.2134741e-03,-2.5493696e-04,-5.8484398e-02,2.8691922e-01,1.1382766e-01
9.6994972e-01,2.5329284e-05,-2.6498318e-04,-7.5588676e-05,-2.6034802e-02,-1.0895241e-03,-2.6031497e-02,6.1909786e-04,1.5126257e-03,-1.9811549e-05,-1.0624591e-01,4.7261044e-01,2.3512563e-02
9.7994971e-01,1.9058354e-05,-3.0718634e-04,-6.2400498e-05,-6.2967605e-04,-4.2212164e-03,-6.1841288e-04,6.0508659e-04,2.0498873e-03,-4.6080843e-05,-1.4011286e-03,5.3726205e-02,-2.6269319e-03
9.8994970e-01,-2.7295871e-04,-4.2599305e-05,-6.5939140e-05,-2.9178712e-02,2.6698219e-02,-2.9006116e-02,2.3535038e-03,-5.8738477e-03,-1.3477205e-03,1.7484189e-01,-7.9237425e-01,-1.3016409e-01
9.9994969e-01,-1.7465797e-04,-3.4362493e-05,-7.4344248e-05,9.8459995e-03,7.4484734e-04,9.8204386e-03,2.2346268e-03,-5.7918853e-03,-1.4354419e-03,-1.1887717e-02,8.1962515e-03,-8.7721545e-03
1.0099497e+00,-1.5283330e-04,4.2015703e-04,8.5996486e-05,2.2272917e-03,4.5432086e-02,2.5248845e-03,9.8123674e-04,-7.5403708e-03,-1.0259399e-04,-1.2533912e-01,-1.7484872e-01,1.3328492e-01
1.0199497e+00,4.7010367e-04,1.0146825e-03,-4.5150361e-04,6.2376573e-02,5.8284764e-02,6.3306281e-02,1.0223324e-03,-1.7584162e-02,-3.5433604e-04,4.1095689e-03,-1.0043800e+00,-2.5174229e-02
1.0299497e+00,6.1133770e-04,1.3115444e-03,-6.6538974e-04,1.4214258e-02,2.9264344e-02,1.4891826e-02,2.6475167e-03,-2.6504848e-02,-8.7107037e-04,1.6251858e-01,-8.9206952e-01,-5.1673482e-02
1.0399497e+00,-7.1083563e-04,-1.7233858e-04,6.9467440e-05,-1.3286875e-01,-1.4753112e-01,-1.3252361e-01,2.9120771e-03,-3.5661773e-03,-1.6632727e-03,2.6456075e-02,2.2938693e+00,-7.9220309e-02
1.0499496e+00,-1.3141289e-04,4.4282080e-06,-1.1426837e-04,5.8068383e-02,1.7222149e-02,5.7953024e-02,1.9743274e-03,-5.8739708e-03,-1.5763932e-03,-9.3775066e-02,-2.3077956e-01,8.6879638e-03
1.0599496e+00,-1.8965799e-04,-2.8148529e-05,-7.7579692e-05,-5.8402990e-03,-3.2116246e-03,-5.8342776e-03,2.1244887e-03,-5.7804302e-03,-1.5250182e-03,1.5016149e-02,9.3540638e-03,5.1374991e-03
1.0699496e+00,-5.9977650e-05,-2.0323499e-04,1.6884454e-06,1.2957621e-02,-1.7526285e-02,1.2954657e-02,6.7036117e-04,-6.8921432e-04,-1.0134491e-04,-1.4541289e-01,5.0912207e-01,1.4236747e-01
1.0799496e+00,2.8553236e-05,-3.6486447e-04,-5.1825098e-05,8.8428994e-03,-1.6148311e-02,8.8899505e-03,6.6565644e-04,2.3155578e-03,-6.3631995e-05,-4.7047392e-04,3.0047750e-01,3.7712948e-03
1.0899496e+00,-1.2196524e-04,2.8799079e-04,-1.2082149e-04,-1.4936661e-02,6.5463333e-02,-1.4379611e-02,2.0210090e-03,-1.0026094e-02,-1.1149214e-03,1.3553539e-01,-1.2341664e+00,-1.0512904e-01
1.0999496e+00,-3.2340042e-04,-1.6604689e-05,-9.5026158e-05,-2.0243144e-02,-3.0292079e-02,-2.0295691e-02,2.3248616e-03,-5.9679853e-03,-1.4330763e-03,3.0385287e-02,4.0581127e-01,-3.1815521e-02
1.1099496e+00,4.4179802e-04,1.3504334e-03,-5.0928920e-04,7.6684194e-02,1.3488687e-01,7.9521245e-02,1.0268738e-03,-2.2284034e-02,-3.1289865e-04,-1.2979891e-01,-1.6316065e+00,1.1201787e-01
1.1199496e+00,6.1473862e-04,2.0841679e-03,-6.6387161e-04,1.7405776e-02,7.2701059e-02,1.9835275e-02,1.4374878e-03,-3.4881638e-02,-3.6113713e-04,4.1061442e-02,-1.2597616e+00,-4.8238527e-03
1.1299496e+00,6.1155615e-04,2.0096988e-03,-7.1217614e-04,-3.2947557e-04,-7.4315707e-03,-5.6774899e-04,1.4904107e-03,-3.3554634e-02,-4.0828985e-04,5.2922952e-03,1.3270059e-01,-4.7152768e-03
1.1399496e+00,-4.8187571e-04,-2.0787922e-04,-4.9105489e-05,-1.1012388e-01,-2.2119595e-01,-1.0969780e-01,2.6490123e-03,-2.4823497e-03,-1.7715418e-03,1.1586027e-01,3.1072313e+00,-1.3632533e-01
1.1499496e+00,-2.6816852e-04,-6.6194595e-04,-1.3954956e-04,2.1291445e-02,-4.5411462e-02,2.1439692e-02,2.4917290e-03,2.2612269e-03,-1.5881823e-03,-1.5728344e-02,4.7435812e-01,1.8335965e-02
1.1599495e+00,8.5811585e-05,-4.1266133e-04,-5.1945941e-05,3.5422002e-02,2.5006974e-02,3.5318629e-02,6.7455616e-04,2.8955464e-03,-2.0201498e-04,-1.8171746e-01,6.3432001e-02,1.3861687e-01
1.1699495e+00,1.2393478e-04,-3.6026276e-04,-8.7915453e-05,3.8168136e-03,5.2453475e-03,3.8002686e-03,7.5595119e-04,2.1987152e-03,-1.3909387e-04,8.1395105e-03,-6.9683179e-02,6.2921173e-03
1.1799495e+00,-1.7599785e-04,-3.2259896e-05,-7.5535671e-05,-2.9965288e-02,3.3042888e-02,-2.9754075e-02,2.2189455e-03,-5.8991408e-03,-1.4965381e-03,1.4629957e-01,-8.0978637e-01,-1.3574455e-01
1.1899498e+00,-6.8268267e-04,-2.0702663e-04,6.1125508e-05,-5.0800959e-02,-1.7156959e-02,-5.0642637e-02,2.9348371e-03,-3.3694206e-03,-1.6308734e-03,7.1587526e-02,2.5296623e-01,-1.3433225e-02
1.1999497e+00,6.3997690e-04,1.6997751e-03,-7.1692670e-04,1.3307096e-01,1.8575762e-01,1.3832518e-01,3.4791488e-03,-3.2989699e-02,-1.0762379e-03,5.4431221e-02,-2.9620307e+00,5.5463601e-02
1.2099497e+00,-7.2427276e-06,3.0298931e-04,-3.0412749e-04,-6.5207724e-02,-1.3881280e-01,-6.6083149e-02,2.4722606e-03,-1.0798243e-02,-2.1743710e-03,-1.0068891e-01,2.2191477e+00,-1.0981341e-01
1.2199497e+00,7.7249010e-04,1.4852647e-03,-7.4521397e-04,7.8372399e-02,1.1550865e-01,8.1565836e-02,2.9787256e-03,-3.1174235e-02,-6.0578661e-04,5.0646543e-02,-2.0376011e+00,1.5685859e-01
1.2299497e+00,6.5346874e-04,1.9782465e-03,-6.3971299e-04,-1.1813676e-02,4.9695200e-02,-1.0220665e-02,1.8647786e-03,-3.3891002e-02,-2.9239957e-04,-1.1139480e-01,-2.7167695e-01,3.1338735e-02
1.2399497e+00,1.8230464e-04,-2.8563889e-04,-1.7916885e-04,-4.7558475e-02,-2.2616454e-01,-4.7744981e-02,1.9032081e-03,-2.8283979e-03,-2.3860966e-04,3.8429559e-03,3.1062633e+00,5.3789958e-03
1.2499497e+00,-7.8278082e-04,-2.4844555e-04,1.0885451e-04,-9.6643521e-02,4.2995761e-03,-9.6349425e-02,2.9776436e-03,-3.0396465e-03,-1.5179566e-03,1.0744365e-01,-2.1124880e-02,-1.2793482e-01
1.2599497e+00,2.1374665e-04,-2.6335452e-04,-2.3735640e-04,9.9678090e-02,-2.0068287e-03,9.9618530e-02,1.8592038e-03,-3.3191365e-03,-2.8294311e-04,-1.1184409e-01,-2.7949023e-02,1.2350147e-01
1.2699497e+00,6.1238680e-05,-2.8707885e-04,-8.8507802e-05,-1.5252881e-02,-2.3929725e-03,-1.5245532e-02,5.8921254e-04,1.9362351e-03,-4.4206145e-05,-1.2699925e-01,5.2553765e-01,2.3873720e-02
1.2799497e+00,-2.9055103e-05,-1.4542949e-04,-2.7405879e-05,-9.0240131e-03,1.4165472e-02,-9.0339387e-03,3.8982276e-04,3.3178833e-04,-1.6466971e-05,-1.9938997e-02,-1.6044482e-01,2.7739200e-03
1.2899497e+00,1.4090538e-04,-6.8759196e-04,-1.7557118e-04,1.6910798e-02,-5.4190573e-02,1.7162349e-02,1.7510087e-03,3.2447919e-03,-5.7041352e-04,1.3611872e-01,2.9130063e-01,-5.5394708e-02
1.2999496e+00,-2.4462897e-04,-4.4018860e-05,-8.4587799e-05,-3.8465795e-02,6.4670573e-02,-3.8114449e-02,2.2391030e-03,-5.9269841e-03,-1.4671433e-03,4.8809477e-02,-9.1717847e-01,-8.9673065e-02
1.3099496e+00,3.3225865e-04,1.8262417e-03,-6.1130915e-04,5.8409863e-02,1.8477731e-01,6.3878335e-02,3.3609826e-03,-3.3814411e-02,-1.6096246e-03,1.1218807e-01,-2.7887454e+00,-1.4248141e-02
1.3199496e+00,6.2506746e-04,1.9452185e-03,-6.5458489e-04,2.9307402e-02,1.0883105e-02,2.9646799e-02,1.5915673e-03,-3.2854267e-02,-2.5938071e-04,-1.7694170e-01,9.6014551e-02,1.3502452e-01
1.3299496e+00,1.1743025e-04,1.7377722e-04,-5.6241483e-05,-5.0847935e-02,-1.7688066e-01,-5.1592091e-02,5.5984677e-04,-4.5949414e-03,2.9543276e-04,-1.0317215e-01,2.8259352e+00,5.5481399e-02
1.3399496e+00,-1.0567811e-04,-8.1582066e-05,-9.2824700e-05,-2.2398971e-02,-2.5358605e-02,-2.2424560e-02,2.1784735e-03,-5.7573082e-03,-1.4594164e-03,1.6186283e-01,-1.1623679e-01,-1.7548509e-01
1.3499496e+00,-8.3199682e-05,-1.2667673e-04,-1.3653528e-04,2.2419511e-03,-4.5261583e-03,2.2200194e-03,2.0929124e-03,-5.3727889e-03,-1.5800582e-03,-8.5561209e-03,3.8451968e-02,-1.2064184e-02
1.3599496e+00,-7.2741344e-04,-1.9152255e-04,5.8333886e-05,-6.4547763e-02,-6.0597829e-03,-6.4336291e-02,2.8983252e-03,-3.7009575e-03,-1.6747892e-03,8.0541357e-02,1.6718329e-01,-9.4731162e-03
1.3699496e+00,1.8339886e-04,3.4818230e-04,-9.6448674e-07,9.0985472e-02,5.4255446e-02,9.1007810e-02,-1.9022288e-03,1.2274721e-03,-7.6692111e-05,-4.8005585e-01,4.9284344e-01,1.5980987e-01
1.3799496e+00,1.0848155e-04,-3.0918134e-04,-1.1461471e-04,-7.5363325e-03,-6.5744524e-02,-7.3750516e-03,6.5354084e-04,1.7500087e-03,-2.1821163e-04,2.5557721e-01,5.2253706e-02,-1.4151966e-02
1.3899496e+00,-1.6763575e-04,-1.2535986e-04,-1.1487720e-04,-2.7613641e-02,1.8590572e-02,-2.7469977e-02,2.1375993e-03,-5.4296471e-03,-1.4947538e-03,1.4840599e-01,-7.1796626e-01,-1.2765434e-01
1.3999496e+00,2.7810254e-04,1.8029759e-03,-6.0777736e-04,4.5287468e-02,1.9111655e-01,5.0813660e-02,3.3313800e-03,-3.2891062e-02,-1.6040829e-03,1.1937818e-01,-2.7461441e+00,-1.0932924e-02
1.4099495e+00,3.1219670e-05,-2.5529974e-04,-1.4439661e-07,-2.4788311e-02,-2.0587174e-01,-2.4216957e-02,5.0975937e-04,2.3138571e-03,1.9924283e-04,-2.8216233e-01,3.5204952e+00,1.8033275e-01
1.4199495e+00,-3.6587004e-05,-2.4490418e-04,-2.5016287e-05,-6.7805804e-03,1.0435027e-03,-6.7801612e-03,5.4995216e-04,-3.1980172e-05,-7.0683010e-05,4.0192829e-03,-2.3458396e-01,-2.6992610e-02
1.4299495e+00,-2.5071918e-04,-6.9076300e-05,-8.7742193e-05,-2.1406659e-02,1.7753629e-02,-2.1278442e-02,2.1866513e-03,-5.8154730e-03,-1.4917764e-03,1.6367007e-01,-5.7834984e-01,-1.4210948e-01
1.4399498e+00,-7.9520092e-04,-1.6364156e-04,7.3632428e-05,-5.4562410e-02,-9.0905319e-03,-5.4393598e-02,2.8745207e-03,-3.8478379e-03,-1.6272035e-03,6.8785368e-02,1.9675901e-01,-1.3542397e-02
1.4499497e+00,3.1539739e-04,8.2163049e-04,-1.6433669e-04,1.1085382e-01,9.8091484e-02,1.1165008e-01,-1.9606411e-03,-5.8671314e-03,1.1461350e-04,-4.8351665e-01,-2.0192955e-01,1.7418187e-01
1.4599497e+00,4.6086083e-05,-2.9353775e-04,-9.1704091e-05,-2.7005648e-02,-1.1155058e-01,-2.6716347e-02,6.1747883e-04,1.8754200e-03,-2.0933766e-04,2.5781224e-01,7.7425588e-01,-3.2395147e-02
1.4699497e+00,-7.0852169e-04,-4.3438247e-04,2.7682661e-05,-7.5639170e-02,-1.3732208e-02,-7.5347162e-02,2.8172275e-03,-1.8534899e-03,-1.8429259e-03,2.1997508e-01,-3.7289134e-01,-1.6335898e-01
1.4799497e+00,2.3572705e-04,-2.8614412e-04,-2.1484301e-04,9.4478720e-02,1.4354752e-02,9.4443670e-02,1.8835633e-03,-3.0842185e-03,-2.7540669e-04,-9.3366506e-02,-1.2307298e-01,1.5675207e-01
1.4899497e+00,2.3771175e-04,1.3866886e-04,-9.9443979e-05,2.1380242e-04,4.2480057e-02,3.7679516e-04,3.6151493e-04,-4.1971449e-03,1.2761827e-04,-1.5220498e-01,-1.1129274e-01,4.0302534e-02
1.4999497e+00,-7.0250070e-04,-2.5751319e-04,7.6653166e-05,-9.4288455e-02,-3.9052815e-02,-9.3990387e-02,2.9023858e-03,-3.1127181e-03,-1.6236002e-03,2.5408733e-01,1.0844278e-01,-1.7512202e-01
1.5099497e+00,-1.8849668e-04,-8.1034976e-05,-1.0473128e-04,5.1516699e-02,1.7258655e-02,5.1416219e-02,2.0899707e-03,-5.4842798e-03,-1.5474167e-03,-8.1241592e-02,-2.3715639e-01,7.6183560e-03
1.5199497e+00,-1.5030594e-04,1.5965684e-05,-9.1370158e-05,3.8455908e-03,9.6679412e-03,3.8735652e-03,2.1267983e-03,-6.2418364e-03,-1.5439722e-03,3.6827659e-03,-7.5755736e-02,3.4445278e-04
1.5299497e+00,9.8555159e-05,-2.9252357e-04,-9.4311076e-05,2.4872773e-02,-3.0813403e-02,2.4943470e-02,5.6735863e-04,1.9936176e-03,-1.6659046e-04,-1.5594411e-01,8.2354619e-01,1.3773831e-01
1.5399497e+00,4.5441766e-04,8.6591796e-04,-4.5374604e-04,3.5700243e-02,1.1525371e-01,3.7346150e-02,8.7383938e-04,-1.5342879e-02,-3.5815402e-04,3.0648104e-02,-1.7336514e+00,-1.9156374e-02
1.5499425e+00,-2.0982401e-04,-2.8897803e-07,-7.8119381e-05,-6.6759134e-02,-8.6128162e-02,-6.6903327e-02,2.2445208e-03,-6.0803183e-03,-1.3995542e-03,1.3716638e-01,9.2691998e-01,-1.0421466e-01
1.5599425e+00,-1.7208900e-04,-7.8770791e-05,-7.4815292e-05,3.7617652e-03,-7.8779240e-03,3.7229248e-03,2.1949895e-03,-5.7326073e-03,-1.4577536e-03,-4.9531321e-03,3.4771133e-02,-5.8199418e-03
1.5699425e+00,1.1365374e-04,-7.0301141e-04,-1.7920007e-04,2.8457060e-02,-6.2406104e-02,2.8730234e-02,2.0808361e-03,2.6998935e-03,-4.4505946e-04,-1.1415349e-02,8.4325088e-01,1.0126951e-01
1.5799425e+00,-1.3970008e-06,-6.1788623e-04,-1.5579696e-04,-1.1490307e-02,8.5164746e-03,-1.1516926e-02,2.2930443e-03,1.9473095e-03,-4.1482157e-04,2.1220836e-02,-7.5258468e-02,3.0237914e-03
1.5899425e+00,-7.3329103e-06,-2.1968993e-04,-2.1893940e-05,-5.5824884e-04,3.9819515e-02,-6.3662091e-04,8.8555016e-04,1.0787091e-03,1.3498828e-04,-1.4074955e-01,-8.6860126e-02,5.4981038e-02
1.5999424e+00,-2.5722527e-04,-7.1743116e-04,-2.0754712e-04,-2.5166212e-02,-4.9757035e-02,-2.4845392e-02,2.7981747e-03,2.1279892e-03,-1.5127356e-03,1.9126263e-01,1.0492811e-01,-1.6477254e-01
1.6099424e+00,-2.7935335e-04,-1.0051149e-04,-1.1555034e-04,-2.0597831e-03,6.1709335e-02,-1.8478108e-03,2.5326833e-03,-5.8667212e-03,-1.4587354e-03,-2.6549163e-02,-7.9947181e-01,5.4000183e-03
1.6199424e+00,-5.4646244e-05,-6.5855191e-04,-1.2457012e-04,2.2355484e-02,-5.5844327e-02,2.2485732e-02,2.2556724e-03,4.5889356e-04,-4.7558854e-04,-2.7701113e-02,6.3256208e-01,9.8314784e-02
1.6299424e+00,-4.5920411e-05,-2.3562211e-04,7.6174083e-06,9.0589309e-04,4.2291534e-02,9.0990509e-04,7.8835518e-04,-8.8165754e-04,3.7472960e-05,-1.4673187e-01,-1.3405524e-01,5.1306199e-02
1.6399424e+00,1.5270764e-04,6.5432626e-05,-1.0453043e-04,1.9884071e-02,2.9999711e-02,2.0001147e-02,7.9204042e-04,-4.5175555e-03,1.3045373e-04,3.6852433e-04,-3.6359014e-01,9.2980859e-03
1.6499424e+00,-1.7019327e-04,-1.8453537e-04,-1.2407705e-04,-3.2398950e-02,-2.4741443e-02,-3.2377680e-02,2.4736188e-03,-5.4295669e-03,-1.4595573e-03,1.6815799e-01,-9.1201230e-02,-1.5900125e-01
1.6599424e+00,-1.8297739e-04,-1.0468906e-04,-8.5272753e-05,-1.2601948e-03,7.9954770e-03,-1.2277582e-03,2.5135820e-03,-6.1096482e-03,-1.4523872e-03,3.9963249e-03,-6.8008192e-02,7.1700874e-04
1.6699424e+00,1.2939300e-04,-3.6958252e-04,-5.5708536e-05,3.1220091e-02,-2.6435820e-02,3.1299346e-02,7.8142359e-04,2.4931745e-03,-1.1945895e-04,-1.7321600e-01,8.6028310e-01,1.3329295e-01
1.6799424e+00,-2.9663437e-04,-7.3958336e-04,-1.5668332e-04,-4.2778276e-02,-3.6969295e-02,-4.2453414e-02,2.8775339e-03,2.1631477e-03,-1.6257924e-03,2.0961123e-01,-3.3002713e-02,-1.5063349e-01
1.6899426e+00,-5.2873400e-04,-8.1602716e-04,-1.2777627e-04,-2.3272796e-02,-7.6066284e-03,-2.3158272e-02,2.9272628e-03,1.3122745e-03,-1.7718226e-03,4.9727781e-03,-8.5085375e-02,-1.4602682e-02
1.6999426e+00,-2.5461675e-04,-8.0029279e-05,-6.9429868e-05,2.7642027e-02,7.3352957e-02,2.7838990e-02,2.6057417e-03,-6.3472749e-03,-1.4086609e-03,-3.2152133e-02,-7.6595567e-01,3.6316198e-02
1.7099426e+00,7.6536536e-05,-4.3038620e-04,-6.4157101e-05,3.3089135e-02,-3.4969969e-02,3.3210943e-02,7.6850110e-04,2.7499502e-03,-2.1417761e-05,-1.8372424e-01,9.0972337e-01,1.3872445e-01
1.7199426e+00,7.2576464e-04,1.6906705e-03,-7.9493380e-04,6.5648804e-02,2.0952467e-01,7.2169978e-02,3.2615238e-03,-3.4556012e-02,-5.3139457e-04,2.4930251e-01,-3.7305997e+00,-5.0997730e-02
1.7299426e+00,5.0540021e-04,1.2052026e-03,-6.7977967e-04,-2.2195201e-02,-4.7886505e-02,-2.3286531e-02,2.8747760e-03,-2.6344350e-02,-8.7471072e-04,-3.8674820e-02,8.2116693e-01,-3.4331647e-02
1.7399426e+00,5.7102725e-04,1.3313262e-03,-7.0011059e-04,6.6065369e-03,1.2398842e-02,6.9161103e-03,3.0550697e-03,-2.8709163e-02,-8.1184767e-04,1.8029387e-02,-2.3648152e-01,6.2863110e-03
1.7499425e+00,4.5528614e-04,1.5708001e-03,-5.3554583e-04,-1.1544853e-02,2.4263422e-02,-1.0927129e-02,1.3507889e-03,-2.6702085e-02,-2.6693610e-04,-1.7042824e-01,2.0070799e-01,5.4491209e-02
1.7599425e+00,6.7145415e-05,-7.1572022e-04,-1.8011548e-04,-3.9337389e-02,-2.2865857e-01,-3.8245915e-02,2.2181137e-03,2.4135927e-03,-4.1744011e-04,8.6732567e-02,2.9115706e+00,-1.5050416e-02
1.7699425e+00,-3.5568784e-04,-7.3700765e-04,-1.9173603e-04,-4.2355644e-02,-2.0859074e-03,-4.2213103e-02,3.0117638e-03,2.0021100e-03,-1.5634983e-03,7.9365082e-02,-4.1148311e-02,-1.1460593e-01
1.7799425e+00,5.2534320e-07,-3.7916515e-04,-1.0116621e-04,3.5670810e-02,3.5781774e-02,3.5574351e-02,1.1954759e-03,1.1265708e-03,-1.8821956e-04,-1.8162896e-01,-8.7554003e-02,1.3752801e-01
1.7899425e+00,3.8555725e-06,-4.0997361e-04,-8.3098988e-05,3.2986021e-04,-3.0805683e-03,3.3872218e-04,1.0414132e-03,1.8644250e-03,-1.3687490e-04,-1.5406289e-02,7.3785496e-02,5.1344711e-03
1.7999425e+00,-3.1675626e-04,-6.9437355e-04,-1.6227066e-04,-3.2194961e-02,-2.8403298e-02,-3.1959581e-02,3.0113529e-03,1.8743580e-03,-1.5060572e-03,1.9699417e-01,9.9329475e-04,-1.3691836e-01
1.8099425e+00,-7.0272374e-04,-3.3508077e-04,8.8417977e-05,-3.8543782e-02,3.6168515e-02,-3.8425962e-02,3.1695041e-03,-3.0417837e-03,-1.5834709e-03,1.5815135e-02,-4.9161463e-01,-7.7413774e-03
1.8199425e+00,1.7760966e-04,9.4024896e-04,-4.9891192e-04,8.8689883e-02,1.2520443e-01,9.0677527e-02,3.3418805e-03,-2.2788986e-02,-2.6246396e-03,1.7237656e-02,-1.9747221e+00,-1.0411697e-01
1.8299425e+00,7.0217841e-05,8.1557005e-04,-4.4186717e-04,-1.0806225e-02,-1.2209228e-02,-1.0966738e-02,3.2755144e-03,-2.0611534e-02,-2.4475401e-03,-6.6366215e-03,2.1774541e-01,1.7709965e-02
1.8399425e+00,5.4048103e-04,1.6684714e-03,-5.9422111e-04,4.7184561e-02,8.3775654e-02,4.9524085e-02,1.7011142e-03,-2.9715631e-02,-2.8025116e-04,-1.5744017e-01,-9.1041056e-01,2.1672910e-01
1.8499424e+00,4.1206401e-04,1.2943247e-03,-4.7025247e-04,-1.2901909e-02,-3.7091529e-02,-1.3690801e-02,1.4285567e-03,-2.2979317e-02,-5.2647211e-04,-2.7255772e-02,6.7363197e-01,-2.4622119e-02
1.8599424e+00,1.4007112e-04,8.6524567e-04,-4.7571352e-04,-2.7410084e-02,-4.2218345e-02,-2.8053451e-02,3.3559028e-03,-2.1674607e-02,-2.4636876e-03,1.9273479e-01,1.3047110e-01,-1.9372173e-01
1.8699424e+00,-2.3329784e-04,-3.1142966e-04,-4.8636648e-05,-3.7677041e-02,-1.1737094e-01,-3.7924526e-02,2.4033572e-03,-5.4951322e-03,-1.5390782e-03,-9.5254645e-02,1.6179491e+00,9.2461024e-02
1.8799424e+00,1.1035568e-05,-3.6745113e-04,-2.8634747e-05,2.4425319e-02,-5.5627364e-03,2.4450408e-02,7.4107420e-04,2.3531682e-03,1.5908400e-04,-1.6622846e-01,7.8483079e-01,1.6981638e-01
1.8899424e+00,8.9213360e-05,2.3087220e-04,3.8082019e-05,7.7165130e-03,5.9855349e-02,7.7422945e-03,-1.6862598e-03,1.2674419e-03,4.7280021e-05,-2.4273363e-01,-1.0857274e-01,-1.1180409e-02
1.8999424e+00,-9.5304700e-05,-3.1680354e-04,-4.4583578e-05,-1.8508970e-02,-5.4736522e-02,-1.8486852e-02,9.7089083e-04,-7.1284038e-04,-2.1582985e-04,2.6571532e-01,-1.9802841e-01,-2.6311012e-02
1.9099424e+00,-2.8304470e-04,-2.5909564e-04,-8.0269147e-05,-1.8790286e-02,5.9210909e-03,-1.8710837e-02,2.3273500e-03,-5.6930755e-03,-1.5858558e-03,1.3564605e-01,-4.9802399e-01,-1.3700273e-01
1.9199424e+00,-5.2347089e-04,-2.4540727e-04,-2.6957176e-05,-2.4078620e-02,1.5141585e-03,-2.3997882e-02,3.0601528e-03,-2.9896655e-03,-1.6767457e-03,7.3280343e-02,2.7034126e-01,-9.0889974e-03
1.9299424e+00,-1.0162312e-03,9.3223901e-04,4.3326793e-04,-4.9317342e-02,1.1798360e-01,-4.8708002e-02,4.8631978e-04,-3.9823215e-03,-2.0016894e-03,-2.5738354e-01,-9.9265703e-02,-3.2494402e-02
1.9399426e+00,-1.8545742e-05,-3.5937963e-04,-6.7933982e-05,9.9638256e-02,-1.2914752e-01,9.9908839e-02,1.1259156e-03,1.2384955e-03,-1.7517299e-04,6.3958114e-02,5.2206976e-01,1.8264746e-01
1.9499426e+00,-2.2840665e-04,-1.7981381e-04,-1.3372201e-04,-2.0968401e-02,1.8131088e-02,-2.0853366e-02,2.6524988e-03,-5.6870853e-03,-1.4302650e-03,1.5265847e-01,-6.9255875e-01,-1.2550932e-01
1.9599426e+00,-1.8456523e-04,-9.4219310e-05,-8.2242722e-05,4.4120846e-03,8.5221371e-03,4.4285998e-03,2.5375700e-03,-5.9430259e-03,-1.4225144e-03,-1.1492893e-02,-2.5594081e-02,7.7505611e-04
1.9699426e+00,2.7841580e-04,1.5064946e-04,-1.6308287e-05,4.6258909e-02,2.4692643e-02,4.6228042e-02,-1.5695513e-03,2.8771041e-03,1.6144866e-05,-4.1071252e-01,8.8201384e-01,1.4386606e-01
1.9799426e+00,2.8178396e-05,-3.4686596e-04,-9.3904571e-05,-2.5082714e-02,-4.9757957e-02,-2.4951983e-02,1.0467246e-03,1.3042971e-03,-2.7526454e-04,2.6162784e-01,-1.5728085e-01,-2.9140968e-02
1.9899426e+00,-1.9425679e-04,-1.1489054e-04,-1.0673384e-04,-2.2219090e-02,2.3384263e-02,-2.2071824e-02,2.5119739e-03,-5.9120149e-03,-1.5248177e-03,1.4652506e-01,-7.2163189e-01,-1.2495544e-01
1.9999397e+00,-1.2320571e-04,-1.4009475e-04,-1.3677982e-04,7.1120345e-03,-2.5781184e-03,7.0817770e-03,2.3997495e-03,-5.6320179e-03,-1.5428002e-03,-1.1225659e-02,2.8007740e-02,-1.7987615e-03
2.0099397e+00,3.4315792e-04,1.7766017e-03,-6.0051515e-04,4.7394698e-02,1.8980537e-01,5.3055604e-02,3.5479768e-03,-3.4084696e-02,-1.6856570e-03,1.1482284e-01,-2.8452705e+00,-1.4285698e-02
2.0199380e+00,6.1376239e-04,1.9395894e-03,-6.2677070e-04,2.7101441e-02,1.5325012e-02,2.7593887e-02,1.7836229e-03,-3.3964740e-02,-2.7411391e-04,-1.7646500e-01,1.1997541e-02,1.4117801e-01
2.0299380e+00,5.8475278e-04,1.1131424e-03,-6.6245542e-04,-3.1580011e-03,-8.2535423e-02,-4.9921729e-03,3.0804961e-03,-2.5352888e-02,-8.4982573e-04,1.2968744e-01,8.6118604e-01,-5.7571237e-02
2.0399380e+00,5.4460674e-05,7.9985679e-04,-4.6809939e-04,-5.3258810e-02,-3.0061338e-02,-5.3530374e-02,3.3803797e-03,-2.0440245e-02,-2.3401334e-03,2.9988386e-02,4.9126478e-01,-1.4903091e-01
2.0499380e+00,1.7347014e-04,-3.7406575e-04,-2.3585550e-04,1.1640233e-02,-1.1745332e-01,1.1552347e-02,2.2433918e-03,-2.9463530e-03,-2.2366797e-04,-1.1369890e-01,1.7493909e+00,2.1164675e-01
2.0599380e+00,1.9707906e-04,7.4802108e-04,-1.1188337e-04,2.2105325e-03,1.1219429e-01,3.0846646e-03,-1.3350583e-03,-6.4459016e-03,2.3453075e-04,-3.5784535e-01,-3.4995519e-01,4.5819916e-02
2.0699379e+00,1.1195623e-04,1.3175929e-04,-1.2769225e-04,-8.5555927e-03,-6.1578273e-02,-8.8107629e-03,7.2897914e-04,-4.8189354e-03,1.9035433e-04,2.0640394e-01,1.6269678e-01,-4.4176456e-03
2.0799379e+00,-2.4772833e-04,-1.1112180e-04,-1.2585232e-04,-3.6083597e-02,-2.3974738e-02,-3.6063331e-02,2.4849229e-03,-6.2225516e-03,-1.5264985e-03,1.7559454e-01,-1.4036176e-01,-1.7168545e-01
2.0899379e+00,-7.0846681e-06,-7.0744918e-04,-1.2186992e-04,2.3942837e-02,-5.9666363e-02,2.4102395e-02,2.2252158e-03,8.2365764e-04,-4.6568356e-04,-2.5970737e-02,7.0462160e-01,1.0608160e-01
2.0999379e+00,-1.4704470e-05,-3.1159036e-04,-2.7015945e-05,-7.2552340e-04,3.9585364e-02,-8.2386927e-04,9.1954541e-04,1.5620420e-03,7.3625121e-05,-1.3056716e-01,7.3838504e-02,5.3930919e-02
2.1099379e+00,-5.3580004e-04,-5.7217490e-04,-5.5875351e-05,-5.2264179e-02,-2.5884899e-02,-5.2041272e-02,2.9503982e-03,-3.7900471e-04,-1.4963740e-03,2.0308547e-01,-1.9410485e-01,-1.5700007e-01
2.1199379e+00,-1.6744159e-04,-3.0797314e-04,-5.8684688e-05,3.6955012e-02,2.6130166e-02,3.6923333e-02,2.3056633e-03,-5.5639407e-03,-1.5843535e-03,-6.4473546e-02,-5.1849410e-01,-8.7979533e-03
2.1299379e+00,1.1435496e-04,8.7727073e-04,-4.8629887e-04,2.8657551e-02,1.1777920e-01,3.0709142e-02,3.4296953e-03,-2.2032461e-02,-2.5417318e-03,1.1240330e-01,-1.6468536e+00,-9.5737927e-02
2.1399379e+00,2.7280402e-04,1.4822771e-04,4.0295812e-06,1.5967708e-02,-7.2829558e-02,1.6064188e-02,-1.6726294e-03,3.0216882e-03,-5.4729817e-05,-5.1023295e-01,2.5054173e+00,2.4870044e-01
2.1499379e+00,-1.7736788e-04,1.5726339e-04,-4.0188859e-05,-4.5070218e-02,8.1485616e-04,-4.4965881e-02,-7.1821483e-04,1.2538533e-03,-1.1635103e-03,9.5441548e-02,-1.7678366e-01,-1.1087815e-01
2.1599054e+00,-1.1374831e-04,-1.1545150e-04,-1.5740549e-04,6.3261648e-03,-2.7412746e-02,6.2112710e-03,2.4325642e-03,-5.8916400e-03,-1.5805337e-03,3.1610316e-01,-7.1687448e-01,-4.1838042e-02
2.1699054e+00,-2.4372297e-04,-3.0222688e-04,-7.6653249e-05,-1.3062105e-02,-1.8576338e-02,-1.3077501e-02,2.2859485e-03,-5.4855448e-03,-1.6913935e-03,-1.4661578e-02,4.0609567e-02,-1.1085995e-02
2.1799054e+00,1.4092366e-04,2.2476063e-04,3.3951106e-05,3.8372369e-02,5.2823708e-02,3.8385507e-02,-1.6794598e-03,1.5713108e-03,9.8045853e-05,-3.9654121e-01,7.0568623e-01,1.7894411e-01
2.1899056e+00,-1.4348779e-03,2.9623787e-04,2.4740600e-04,-1.5794979e-01,8.8742505e-03,-1.5711442e-01,3.7595177e-03,-7.2183629e-03,-2.5494547e-03,5.4388530e-01,-8.7894725e-01,-2.6474399e-01
2.1999056e+00,-2.4514385e-04,-1.5092236e-04,-1.1961662e-04,1.1901866e-01,-4.5734856e-02,1.1854032e-01,2.6492078e-03,-5.9301557e-03,-1.3795138e-03,-1.1103109e-01,1.2882084e-01,1.1699420e-01
2.2099056e+00,-2.4526311e-04,-1.5877283e-04,-1.3320491e-04,-1.3939481e-05,-7.8493357e-04,-1.6453866e-05,2.5439702e-03,-5.7928997e-03,-1.3853469e-03,-1.0523776e-02,1.3725616e-02,-5.8331305e-04
2.2199056e+00,8.0642958e-05,-3.2703752e-04,-2.7004733e-05,3.2569539e-02,-1.6789238e-02,3.2630914e-02,6.1144116e-04,1.7528363e-03,3.3145875e-04,-1.9325309e-01,7.5457432e-01,1.7168073e-01
2.2299056e+00,-1.6593280e-03,2.0257173e-04,2.4009292e-04,-1.7416285e-01,5.4803870e-02,-1.7325934e-01,4.8823187e-03,-5.7320081e-03,-2.4526521e-03,4.2708816e-01,-7.4848515e-01,-2.7841135e-01
2.2399056e+00,-5.1245470e-04,-2.8580787e-04,-1.7595889e-05,1.1460729e-01,-4.9436807e-02,1.1451088e-01,2.0685826e-03,-3.1562018e-03,-1.8417735e-04,-2.8137388e-01,2.5758087e-01,2.2684769e-01
2.2499056e+00,-1.3279057e-03,-5.3137573e-04,2.1384679e-05,-8.1744892e-02,-2.4133215e-02,-8.1471647e-02,2.5180312e-03,-2.6790981e-03,-1.6954548e-03,4.4944906e-02,4.7710415e-02,-1.5112788e-01
2.2599056e+00,-1.2009179e-03,-2.0079198e-04,7.2272083e-05,1.2768274e-02,3.2968197e-02,1.2862589e-02,1.8593851e-03,-5.2080233e-03,-6.3286901e-04,-6.5864678e-02,-2.5289275e-01,1.0625868e-01
2.2699056e+00,-7.3755229e-04,5.4007019e-04,2.3539803e-05,4.6147964e-02,7.4067374e-02,4.6554582e-02,-2.6547792e-03,-3.0504124e-03,-1.7712705e-04,-4.5141686e-01,2.1576129e-01,4.5574240e-02
2.2799056e+00,-1.5948371e-03,1.3892249e-04,1.4798593e-04,-8.5767272e-02,-3.9529606e-02,-8.5961363e-02,4.2462807e-04,-6.3936657e-03,-2.5296171e-04,3.0794102e-01,-3.3432565e-01,-7.5834736e-03
2.2899055e+00,-1.5239600e-03,2.8381093e-05,6.2874233e-05,7.0820160e-03,-1.1092310e-02,7.0335831e-03,5.5734424e-04,-4.8454421e-03,-6.5675836e-05,1.3271630e-02,1.5482250e-01,1.8728605e-02
2.2999055e+00,-1.9931065e-03,4.2197658e-04,1.4808211e-04,-4.6974327e-02,3.9518042e-02,-4.6721423e-02,-9.8614669e-04,-4.3740496e-03,-4.4430541e-04,-1.5434924e-01,4.7139299e-02,-3.7862993e-02
2.3099055e+00,-2.5247601e-03,4.2181768e-04,1.1568377e-04,-5.3194537e-02,2.1920103e-04,-5.3135802e-02,-5.1214365e-04,-4.9367422e-03,-5.4843212e-04,4.7400349e-02,-5.6269311e-02,-1.0412681e-02
2.3199055e+00,-2.7646592e-03,3.7533084e-04,1.2810052e-04,-2.4006085e-02,-4.6593809e-03,-2.3971696e-02,-1.5119743e-03,-1.0669979e-03,-9.6782744e-04,-9.9983163e-02,3.8697480e-01,-4.1939572e-02
2.3299055e+00,-3.0235342e-03,2.1005379e-03,-4.8538900e-04,-2.5995541e-02,1.7319306e-01,-2.0788835e-02,-3.5782303e-04,-2.9226460e-02,-1.7893573e-03,1.1541524e-01,-2.8159489e+00,-8.2153064e-02
2.3399055e+00,-2.8856741e-03,2.3084545e-03,-6.6889834e-04,1.3789649e-02,2.0314122e-02,1.4477042e-02,-3.9362730e-04,-3.4188472e-02,-8.5712938e-04,-3.5804298e-03,-4.9620163e-01,9.3222880e-02
2.3499055e+00,-3.1383735e-03,1.9120245e-03,-5.4764387e-04,-2.5232821e-02,-3.8980811e-02,-2.6315637e-02,-1.1166738e-03,-2.6769871e-02,-2.8287986e-04,-7.2304721e-02,7.4186083e-01,5.7425007e-02
2.3599055e+00,-3.6516268e-03,1.6779946e-03,-5.0942327e-04,-5.1398241e-02,-2.1505058e-02,-5.2077279e-02,2.3057108e-03,-3.4422692e-02,-3.7101449e-04,3.4223879e-01,-7.6528284e-01,-8.8134721e-03
2.3699055e+00,-4.2568486e-03,9.1093576e-04,-3.8372995e-04,-6.0707641e-02,-7.5192932e-02,-6.2211684e-02,2.1056689e-03,-2.2579459e-02,-3.9687240e-04,-2.0004214e-02,1.1843245e+00,-2.5857927e-03
2.3799055e+00,-5.7369736e-03,3.0266569e-04,1.8712648e-04,-1.4808762e-01,-6.0543565e-02,-1.4805388e-01,-9.7812296e-04,-2.8942168e-03,-9.0940728e-04,-3.0837948e-01,1.9685261e+00,-5.1253537e-02
2.3899055e+00,-5.7913786e-03,-1.8422534e-04,1.6834723e-04,-5.4562925e-03,-4.8679742e-02,-5.5084408e-03,3.4179522e-04,-1.3779882e-03,1.5639856e-04,1.3199194e-01,1.5162301e-01,1.0658069e-01
2.3999054e+00,-6.2210845e-03,-1.9525378e-04,1.7903514e-04,-4.2979659e-02,-1.0154348e-03,-4.2963759e-02,2.8320894e-04,-1.7512938e-03,-2.0285394e-04,-5.8586338e-03,-3.7330598e-02,-3.5925285e-02
2.4099054e+00,-6.6791136e-03,2.4026489e-04,3.4965529e-04,-4.5795788e-02,4.3901776e-02,-4.5474936e-02,4.8236497e-04,-7.1830446e-03,-3.0236751e-04,1.9915622e-02,-5.4317559e-01,-9.9513662e-03
2.4199054e+00,-7.2899444e-03,-4.4385563e-04,2.2976827e-04,-6.1345803e-02,-6.8053725e-02,-6.1220106e-02,2.5766231e-03,-3.2856009e-03,-1.4185981e-03,2.0942602e-01,3.8974474e-01,-1.1162317e-01
2.4299054e+00,-7.4146144e-03,-3.8925947e-04,2.9164941e-04,-1.2458086e-02,5.5300854e-03,-1.2444839e-02,2.1138269e-03,-3.5426758e-03,-2.1277131e-04,-4.6279661e-02,-2.5707518e-02,1.2058280e-01
2.4399056e+00,-7.5624978e-03,-3.2236884e-04,2.8550506e-04,-1.4779938e-02,6.6973502e-03,-1.4792257e-02,2.1585613e-04,-3.5481143e-04,4.4802784e-04,-1.8979274e-01,3.1877914e-01,6.6078403e-02
2.4499056e+00,-7.4054924e-03,2.2265002e-03,-1.8491638e-04,1.6022324e-02,2.5409217e-01,2.5316553e-02,1.2716951e-03,-3.7772949e-02,1.5028808e-04,1.0558399e-01,-3.7418173e+00,-2.9774005e-02
2.4599056e+00,-7.8931565e-03,1.7088192e-03,-3.1741328e-05,-4.8874059e-02,-5.0200691e-02,-5.0274169e-02,1.2194323e-03,-3.0462470e-02,-9.1319451e-04,-5.2262808e-03,7.3104865e-01,-1.0634836e-01
2.4699056e+00,-8.4205840e-03,1.1166052e-03,-2.3435068e-04,-5.3122966e-02,-5.7507246e-02,-5.4237022e-02,3.4042125e-03,-2.8730779e-02,-3.3971367e-03,2.1847823e-01,1.7316917e-01,-2.4839446e-01
2.4799056e+00,-8.2948119e-03,1.3465322e-03,1.4959542e-04,1.2533824e-02,2.2812277e-02,1.2943792e-02,-2.1320959e-03,-1.6241687e-02,-4.4945811e-04,-5.5363137e-01,1.2489105e+00,2.9476814e-01
2.4899056e+00,-8.3426082e-03,2.4185458e-03,-2.6853696e-04,-4.8689003e-03,1.0730085e-01,-8.1484097e-04,-8.2754598e-04,-3.6958609e-02,-1.1566122e-04,1.3045512e-01,-2.0716942e+00,3.3379721e-02
2.4999056e+00,-9.5881512e-03,8.1695767e-05,2.9358795e-04,-1.2452994e-01,-2.3349102e-01,-1.2494251e-01,-7.8390381e-04,-2.3403521e-03,-1.2752776e-03,4.3642214e-03,3.4618290e+00,-1.1596175e-01
2.5099056e+00,-9.8026315e-03,-3.2555664e-04,3.2364297e-04,-2.1591644e-02,-4.0539706e-02,-2.1654536e-02,2.5559206e-03,-6.0665490e-03,-1.8469909e-03,3.3398276e-01,-3.7262004e-01,-5.7171383e-02
2.5199056e+00,-9.8134388e-03,-8.0235372e-04,2.1502759e-04,-1.1969919e-03,-4.7675374e-02,-1.1492307e-03,2.4072637e-03,-1.4712799e-03,-1.3758898e-03,-1.4865709e-02,4.5952735e-01,4.7110153e-02
2.5299056e+00,-9.7864410e-03,-7.9062457e-04,2.6451739e-04,2.7010471e-03,1.1676432e-03,2.7007912e-03,1.3900475e-03,-5.6261208e-04,1.3228976e-04,-1.0172171e-01,9.0866868e-02,1.5081810e-01
2.5399055e+00,-9.6638756e-03,2.0258069e-03,-1.8769622e-04,1.2508470e-02,2.8097928e-01,2.2751674e-02,8.9386977e-04,-3.7304865e-02,-1.3755186e-05,-4.9617822e-02,-3.6742288e+00,-1.4604508e-02
2.5499055e+00,-1.0345433e-02,1.3806114e-03,-1.3719719e-04,-6.8490792e-02,-6.2243143e-02,-6.9914368e-02,2.3895737e-03,-3.0651657e-02,-2.6588526e-03,1.4957054e-01,6.6532138e-01,-2.6450999e-01
2.5599055e+00,-1.0414154e-02,1.4120868e-03,-1.9099819e-04,-6.8839132e-03,3.3768799e-03,-6.7501992e-03,2.4325653e-03,-3.1260792e-02,-2.8495254e-03,4.2991580e-03,-6.0913494e-02,-1.9067301e-02
2.5699055e+00,-1.1195620e-02,-4.0753514e-04,4.7903206e-04,-7.8638929e-02,-1.8141268e-01,-7.8926964e-02,2.1399554e-03,-4.8676836e-03,-1.3195084e-03,-2.9261018e-02,2.6393133e+00,1.5300185e-01
2.5799055e+00,-1.0530021e-02,-6.5446805e-04,3.9785390e-04,6.6483412e-02,-2.4820017e-02,6.6589312e-02,8.1053592e-04,-1.0924707e-03,8.4852352e-04,-1.3294207e-01,3.7752165e-01,2.1680340e-01
2.5899055e+00,-1.1119173e-02,-5.0571874e-04,5.0136036e-04,-5.8841521e-02,1.4900280e-02,-5.8982528e-02,-2.1395560e-04,-6.4319919e-04,1.3048840e-03,-1.0244925e-01,4.4927191e-02,4.5636095e-02
2.5999055e+00,-1.1565601e-02,-3.7116870e-04,4.3242981e-04,-4.4653693e-02,1.3777783e-02,-4.4533478e-02,1.3049643e-03,-5.9344007e-03,-6.3665686e-04,1.5189214e-01,-5.2912066e-01,-1.9415427e-01
2.6099055e+00,-1.2174674e-02,-4.9144384e-04,5.6626721e-04,-6.0983494e-02,-1.1764612e-02,-6.0882556e-02,1.3899231e-03,-2.9285232e-03,-9.7670814e-04,8.4958823e-03,3.0058804e-01,-3.4005160e-02
2.6199055e+00,-1.2304717e-02,-4.6675120e-04,6.8863488e-04,-1.2992394e-02,2.4521309e-03,-1.3019387e-02,-6.9401169e-04,6.2297723e-04,1.0447485e-03,-2.0839367e-01,3.5515038e-01,2.0214586e-01
2.6299055e+00,-1.3345625e-02,-8.6255664e-06,7.2430031e-04,-1.0404719e-01,4.6563841e-02,-1.0380095e-01,3.4472723e-04,-6.8810258e-03,2.6859414e-04,1.0387399e-01,-7.5040102e-01,-7.7615509e-02
2.6399055e+00,-1.3661781e-02,8.8000386e-04,5.1312104e-05,-3.1458671e-02,8.9712319e-02,-2.9287779e-02,2.7481298e-03,-2.5082224e-02,-2.7701231e-03,2.4034049e-01,-1.8201216e+00,-3.0387201e-01
2.6499054e+00,-1.3823507e-02,1.0236193e-03,1.2470196e-04,-1.6176429e-02,1.4841495e-02,-1.5729543e-02,2.6391416e-03,-2.7449467e-02,-2.5823821e-03,-1.0898830e-02,-2.3672450e-01,1.8774115e-02
2.6599054e+00,-1.3633386e-02,1.7295572e-03,1.2327788e-04,1.8839735e-02,7.0118594e-02,2.0853273e-02,-2.1836791e-03,-2.5904422e-02,9.5494605e-04,-4.8228254e-01,1.5450466e-01,3.5373315e-01
2.6699054e+00,-1.4204490e-02,1.3261218e-03,1.6021465e-04,-5.6935690e-02,-3.9286956e-02,-5.8014345e-02,-2.6537193e-03,-2.0973357e-02,1.1805388e-03,-4.7004062e-02,4.9310696e-01,2.2559295e-02
2.6799054e+00,-1.4933484e-02,1.6948784e-03,7.6238367e-05,-7.2838713e-02,3.9508793e-02,-7.1568472e-02,6.7714982e-04,-3.5756444e-02,4.8992675e-04,3.3308723e-01,-1.4783101e+00,-6.9061269e-02
2.6899056e+00,-1.6493008e-02,-9.0856100e-05,7.9933198e-04,-1.5600366e-01,-1.7738767e-01,-1.5723730e-01,2.8534488e-04,-7.2621183e-03,-2.4874582e-05,-3.9179597e-02,2.8493673e+00,-5.1478955e-02
2.6999056e+00,-1.7613171e-02,1.1956407e-04,9.1910265e-04,-1.1218270e-01,2.1820123e-02,-1.1170082e-01,1.7162850e-04,-6.7892422e-03,-1.5173244e-03,-1.1371649e-02,4.7287659e-02,-1.4924512e-01
2.7099056e+00,-1.7075412e-02,5.0449126e-05,8.6235239e-04,5.3813376e-02,-6.7035497e-03,5.3764909e-02,-3.3888959e-03,4.7747713e-04,-2.6549301e-04,-3.5605278e-01,7.2667263e-01,1.2518326e-01
2.7199056e+00,-1.7483946e-02,-8.4152914e-04,6.6402877e-04,-4.0920486e-02,-8.9160151e-02,-4.0868719e-02,4.8088215e-04,-4.4319886e-04,-5.9202008e-04,3.8697818e-01,-9.2067687e-02,-3.2652739e-02
2.7299056e+00,-1.7770556e-02,-8.5067384e-04,6.8531970e-04,-2.8652863e-02,-8.8464926e-04,-2.8670265e-02,5.3007051e-04,-5.1027170e-04,3.0402557e-04,4.9188403e-03,-6.7072902e-03,8.9604651e-02
2.7399056e+00,-1.7883738e-02,1.7632761e-03,3.6310563e-04,-1.1350763e-02,2.6162888e-01,-2.2733090e-03,-1.7860453e-04,-3.4637744e-02,1.2472268e-03,-7.0867572e-02,-3.4127505e+00,9.4320209e-02
2.7499056e+00,-1.8576963e-02,1.7995640e-03,4.0972715e-04,-6.9249003e-02,6.0756747e-03,-6.9224630e-02,1.1961310e-04,-3.5180094e-02,1.0534730e-03,2.9821791e-02,-5.4235009e-02,-1.9375394e-02
2.7599056e+00,-1.9844360e-02,2.4645307e-04,1.0491257e-03,-1.2646492e-01,-1.5528187e-01,-1.2705012e-01,-2.2522561e-03,-2.4786443e-03,-5.9339123e-04,-2.3718714e-01,3.2701480e+00,-1.6468658e-01
2.7699056e+00,-2.0290710e-02,3.4980342e-04,9.3468644e-04,-4.4715413e-02,1.0468932e-02,-4.4523280e-02,-2.1336072e-03,-5.1435121e-03,-1.3094703e-03,1.1864897e-02,-2.6648704e-01,-7.1607977e-02
2.7799056e+00,-2.0717870e-02,1.1191565e-03,3.2597359e-04,-4.2635664e-02,7.8341066e-02,-4.0165305e-02,2.3113465e-03,-3.1577261e-02,-2.2865195e-03,4.4449580e-01,-2.6433774e+00,-9.7705011e-02
2.7899055e+00,-2.0562638e-02,4.7843988e-04,7.2151922e-04,1.5728474e-02,-6.4141987e-02,1.5018275e-02,-3.3783629e-03,-8.0560808e-03,7.1679558e-04,-5.6897149e-01,2.3521202e+00,3.0033179e-01
2.7999055e+00,-2.2042038e-02,1.5962994e-04,1.0295168e-03,-1.4778280e-01,-3.1399109e-02,-1.4820029e-01,-2.2483828e-03,-5.4989096e-03,5.7651700e-04,1.1299811e-01,2.5571736e-01,-1.4027871e-02
2.8099055e+00,-2.3066991e-02,-1.0653722e-03,1.1020336e-03,-1.0216742e-01,-1.2370559e-01,-1.0136897e-01,-4.7516610e-03,7.0686584e-03,-2.4940046e-03,-2.5032805e-01,1.2567580e+00,-3.0705245e-01
2.8199055e+00,-2.3662994e-02,-1.3449226e-03,1.3173685e-03,-5.9591482e-02,-2.9114908e-02,-5.9051469e-02,-6.2708605e-03,1.3278328e-02,-2.8154337e-03,-1.5192010e-01,6.2096758e-01,-3.2142938e-02
2.8299055e+00,-2.4830268e-02,-2.0496117e-03,1.6292945e-03,-1.1670127e-01,-7.3256352e-02,-1.1502524e-01,-5.1727054e-03,1.8879290e-02,-2.9158721e-03,1.0981562e-01,5.6009673e-01,-1.0043854e-02
2.8399055e+00,-2.3928690e-02,1.2622362e-03,5.6957922e-04,9.1449072e-02,3.2758292e-01,1.0132599e-01,4.4959463e-03,-3.3317458e-02,2.1811494e-03,9.6686609e-01,-5.2196798e+00,5.0970264e-01
2.8499055e+00,-2.4827110e-02,1.4934679e-03,6.8164941e-04,-8.9572391e-02,2.6787821e-02,-8.9090239e-02,4.5191502e-03,-3.6388292e-02,1.8265263e-03,2.3203912e-03,-3.0708367e-01,-3.5462349e-02
2.8599055e+00,-2.6549400e-02,-1.3055115e-03,1.2429992e-03,-1.7122547e-01,-2.8237112e-01,-1.6916603e-01,-4.6310662e-03,9.8404689e-03,-1.7107788e-03,-9.1502251e-01,4.6228805e+00,-3.5373085e-01
2.8699055e+00,-2.8130919e-02,-7.8305794e-04,1.2369845e-03,-1.5858946e-01,5.1774977e-02,-1.5786855e-01,-2.5890196e-03,3.8510333e-04,-1.9154736e-03,2.0420485e-01,-9.4553746e-01,-2.0469501e-02
2.8799055e+00,-2.9662018e-02,7.3230769e-04,1.5417619e-03,-1.5293984e-01,1.5426022e-01,-1.5053877e-01,3.1042988e-03,-1.4827223e-02,-1.9676245e-03,5.6933238e-01,-1.5212341e+00,-5.2150954e-03
2.8899055e+00,-2.9862080e-02,-7.1740909e-04,1.1265798e-03,-2.0230415e-02,-1.4486565e-01,-2.0542666e-02,1.3184258e-03,-3.9323617e-03,-1.6529392e-03,-1.7858747e-01,1.0894872e+00,3.1468560e-02
2.8999054e+00,-3.0952204e-02,-1.5389474e-03,1.0392720e-03,-1.0951265e-01,-8.1847218e-02,-1.0874160e-01,1.6052243e-03,-1.2106878e-03,-3.3851094e-03,2.8679880e-02,2.7216765e-01,-1.7321718e-01
2.9099054e+00,-3.1875785e-02,-1.7800535e-03,1.3494157e-03,-9.2498075e-02,-2.5714293e-02,-9.1783871e-02,-5.2595657e-03,1.2162894e-02,-2.9055408e-03,-6.8647965e-01,1.3373595e+00,4.7956908e-02
2.9199054e+00,-3.2599192e-02,-2.7989697e-04,1.2029359e-03,-7.2254440e-02,1.5063734e-01,-7.1125133e-02,9.7663790e-04,-7.6840496e-03,-8.3341898e-04,6.2362095e-01,-1.9846963e+00,2.0721238e-01
2.9299054e+00,-3.3407329e-02,-4.2703118e-04,1.1882773e-03,-8.0924570e-02,-1.4181669e-02,-8.0798022e-02,4.7049256e-04,-6.1141379e-03,-1.2859401e-03,-5.0614582e-02,1.5699132e-01,-4.5252156e-02
2.9399056e+00,-3.3634123e-02,9.7466887e-04,7.2736278e-04,-2.1939545e-02,1.4095457e-01,-1.8051571e-02,5.4755304e-03,-3.2707134e-02,-1.2570992e-03,5.0049233e-01,-2.6592387e+00,2.8840280e-03
2.9499056e+00,-3.4608077e-02,9.0328032e-04,7.8348601e-04,-9.7500028e-02,-3.4509841e-03,-9.7491269e-02,4.3421862e-03,-3.3515336e-02,-7.6515430e-04,-1.1333453e-01,-8.0820352e-02,4.9194534e-02
2.9599056e+00,-3.6955284e-02,2.7803622e-03,2.2567432e-03,-2.3623486e-01,1.9980059e-01,-2.2292390e-01,-1.1110878e-03,-5.4127907e-02,-5.5776476e-03,-5.4532792e-01,-2.0612591e+00,-4.8124979e-01
2.9699056e+00,-3.7561157e-02,1.8990460e-03,1.0944048e-03,-6.0823346e-02,-8.5463967e-02,-6.4072550e-02,2.5111126e-03,-4.0354223e-02,-2.4496166e-04,3.6222039e-01,1.3773697e+00,5.3326911e-01
2.9799056e+00,-3.8712536e-02,9.6048583e-04,5.9933100e-04,-1.1560629e-01,-8.8942733e-02,-1.1851946e-01,5.5315972e-03,-3.6580570e-02,4.2652977e-04,3.0204874e-01,3.7736566e-01,6.7149207e-02
2.9899056e+00,-4.1838051e-02,-2.1035839e-03,1.0961540e-03,-3.1574146e-01,-3.0439616e-01,-3.1130846e-01,4.9692496e-03,-1.4600018e-03,-5.3605374e-03,-5.6234805e-02,3.5120602e+00,-5.7870727e-01
2.9999056e+00,-4.2320200e-02,-3.0628033e-03,1.7416092e-03,-4.7684228e-02,-9.7397350e-02,-4.5720597e-02,-7.0363478e-03,2.4274795e-02,-3.0198062e-03,-1.2005609e+00,2.5734821e+00,2.3407335e-01
3.0099056e+00,-4.4456851e-02,-4.4313656e-04,1.8614462e-03,-2.1289978e-01,2.6538632e-01,-2.1018132e-01,3.8701571e-03,-1.2249424e-02,-1.1703413e-03,1.0906515e+00,-3.6524254e+00,1.8494667e-01
3.0199056e+00,-4.5424396e-02,-2.0523511e-03,1.2885463e-03,-9.7244215e-02,-1.6054021e-01,-9.6897256e-02,2.6142763e-03,-1.3214270e-03,-7.1584366e-04,-1.2558820e-01,1.0928008e+00,4.5449803e-02
3.0299056e+00,-4.6636806e-02,-1.8227245e-03,1.3375273e-03,-1.2124240e-01,2.3612399e-02,-1.2111498e-01,1.9076841e-03,-3.4540242e-03,-3.7371721e-04,-7.0659290e-02,-2.1325993e-01,3.4212678e-02
3.0399055e+00,-4.7878592e-02,-3.6001864e-04,1.1510578e-03,-1.2417717e-01,1.4885480e-01,-1.2107065e-01,6.3680492e-04,-2.0435316e-02,-7.3828562e-04,-1.2708804e-01,-1.6981308e+00,-3.6456877e-02
3.0499055e+00,-4.9079763e-02,-4.2811640e-05,6.9115119e-04,-1.2003033e-01,3.5845781e-02,-1.1903897e-01,2.2498137e-03,-3.2232591e-02,1.2634248e-04,1.6130103e-01,-1.1797286e+00,8.6462893e-02
3.0599055e+00,-5.1919921e-02,-1.9933901e-03,1.6940048e-03,-2.8413791e-01,-1.9538186e-01,-2.8367141e-01,4.7014271e-04,1.6114681e-03,-1.0622799e-04,-1.7796727e-01,3.3844091e+00,-2.3257069e-02
3.0699055e+00,-5.3085580e-02,-3.5865443e-04,8.1103998e-04,-1.1612840e-01,1.6738319e-01,-1.1133731e-01,2.9323545e-03,-3.1317900e-02,-3.6241554e-04,2.4622142e-01,-3.2929399e+00,-2.5618780e-02
3.0799055e+00,-5.5162414e-02,3.2751110e-04,9.9614061e-04,-2.0769066e-01,7.6433660e-02,-2.0492846e-01,1.7590842e-03,-3.6127488e-02,-6.1695342e-04,-1.1732714e-01,-4.8095925e-01,-2.5453812e-02
3.0899055e+00,-5.7637226e-02,-1.8914221e-03,1.5561522e-03,-2.4811124e-01,-2.2002949e-01,-2.4851302e-01,1.7445289e-03,-5.7769480e-03,-9.8259918e-04,-1.4555382e-03,3.0350569e+00,-3.6564611e-02
3.0999055e+00,-5.9488368e-02,-2.4903737e-03,1.3662076e-03,-1.8550893e-01,-5.9282123e-02,-1.8491675e-01,2.1032176e-03,-1.2095501e-03,-1.4538901e-03,3.5868910e-02,4.5674022e-01,-4.7129138e-02
3.1099055e+00,-6.1902262e-02,-2.4590168e-03,1.5881716e-03,-2.4166479e-01,4.7836216e-03,-2.4108698e-01,2.8945061e-03,-3.9372021e-03,-1.1826209e-03,7.9128928e-02,-2.7276546e-01,2.7126948e-02
3.1199055e+00,-6.3672988e-02,-2.4005255e-03,1.5830106e-03,-1.7716945e-01,6.9759083e-03,-1.7693523e-01,1.9187861e-03,-4.4476557e-03,-6.1132255e-04,-9.7572098e-02,-5.1045409e-02,5.7129889e-02
3.1299055e+00,-6.5744415e-02,-1.3211425e-03,1.8121049e-03,-2.0756267e-01,1.0806400e-01,-2.0665656e-01,-2.3309451e-03,-2.9433324e-03,-8.1513232e-04,-4.2497353e-01,1.5043248e-01,-2.0380996e-02
3.1399055e+00,-6.7734609e-02,-2.3763253e-03,1.6928823e-03,-1.9926731e-01,-1.0430912e-01,-1.9940881e-01,1.4695252e-03,-4.6025713e-03,-4.6672932e-04,3.8004740e-01,-1.6592406e-01,3.4840333e-02
3.1499054e+00,-6.9700449e-02,-2.3680001e-03,1.4304521e-03,-1.9687434e-01,2.5249298e-03,-1.9627920e-01,1.3167519e-03,-7.3034029e-03,-1.4833299e-03,-1.5277347e-02,-2.7008341e-01,-1.0166016e-01
3.1599054e+00,-7.1959008e-02,-2.7167464e-03,1.5216796e-03,-2.2615098e-01,-3.3647402e-02,-2.2574713e-01,1.6037457e-03,-3.8328126e-03,-1.0599114e-03,2.8699405e-02,3.4705936e-01,4.2341894e-02
