time, x, y, z, vx, vy, vz, yaw, pitch, roll, yaw_rate, pitch_rate, roll_rate
0.0000000e+00,0.0000000e+00,0.0000000e+00,0.0000000e+00,0.0000000e+00,0.0000000e+00,0.0000000e+00,0.0000000e+00,0.0000000e+00,0.0000000e+00,0.0000000e+00,0.0000000e+00,0.0000000e+00
9.9999905e-03,5.1527817e-06,1.2753750e-04,3.7189996e-05,5.0707036e-04,1.2753944e-02,5.1891369e-04,-6.4467362e-04,-2.8607683e-04,-2.6815146e-05,-6.4467424e-02,-2.8607711e-02,-2.6815171e-03
1.9999981e-02,-9.6055107e-06,1.0943638e-04,4.4949257e-05,-1.4753195e-03,-1.8096947e-03,-1.4768556e-03,-2.2488416e-04,-5.0877253e-04,7.0524993e-05,4.1978987e-02,-2.2269591e-02,9.7340231e-03
2.9999971e-02,5.2071330e-06,2.8638227e-05,1.2291588e-05,1.4812495e-03,-8.0803967e-03,1.4781483e-03,1.9623575e-06,-3.8587755e-04,3.1735306e-07,2.2684673e-02,1.2289511e-02,-7.0207706e-03
3.9999962e-02,2.2969309e-05,-4.9222748e-05,2.7108408e-05,1.7752630e-03,-7.7864099e-03,1.7758383e-03,9.5039074e-05,-7.6701166e-05,1.2177139e-04,9.3076805e-03,3.0917667e-02,1.2145415e-02
4.9999952e-02,9.2227470e-06,-2.9583467e-04,6.6386391e-05,-1.4022924e-03,-2.4660238e-02,-1.3642293e-03,1.1367298e-03,4.3931876e-04,2.8901881e-04,1.0416917e-01,5.1602042e-02,1.6724758e-02
5.9999943e-02,1.8160713e-05,-3.0470528e-04,6.8798426e-05,8.9243517e-04,-8.8779296e-04,8.9443304e-04,1.2422028e-03,4.2365783e-04,2.9055688e-04,1.0547308e-02,-1.5660945e-03,1.5380706e-04
6.9820166e-02,2.4182430e-05,-2.3582433e-07,5.4421778e-05,6.1651787e-04,3.1004014e-02,6.2585583e-04,1.0933338e-04,-4.0615255e-04,1.1007029e-04,-1.1536086e-01,-8.4500158e-02,-1.8379072e-02
7.9820156e-02,1.2363901e-05,1.2823374e-04,4.7194843e-05,-1.1861601e-03,1.2847527e-02,-1.1714243e-03,-3.4937276e-04,-8.2609064e-04,1.5427817e-04,-4.5870658e-02,-4.1993849e-02,4.4207923e-03
8.9820385e-02,1.9220805e-05,4.4751520e-05,7.1869425e-05,6.8402055e-04,-8.3487011e-03,6.7913135e-04,1.6972200e-04,-8.1215809e-04,3.4613618e-04,5.1908288e-02,1.3932230e-03,1.9185362e-02
9.9820375e-02,5.5503123e-06,-9.3413799e-05,4.1852285e-05,-1.3717768e-03,-1.3815929e-02,-1.3685419e-03,3.5367620e-04,-9.6293292e-05,1.1724583e-04,1.8395438e-02,7.1586548e-02,-2.2889057e-02
1.0982037e-01,1.0269583e-04,-8.2659494e-05,2.2249166e-05,9.7106361e-03,1.0699592e-03,9.7190883e-03,4.5042064e-04,-1.1283163e-04,4.5368127e-04,9.6744524e-03,-1.6538353e-03,3.3643576e-02
1.1982036e-01,-4.6446118e-05,8.1565382e-05,2.5559120e-05,-1.4924654e-02,1.6430567e-02,-1.4894866e-02,-3.8759913e-04,-9.2908730e-04,-2.7368475e-04,-8.3802057e-02,-8.1625645e-02,-7.2736671e-02
1.2982035e-01,1.1946041e-05,-2.0391466e-04,-8.9325131e-05,5.8430590e-03,-2.8537308e-02,5.8876002e-03,-2.2209500e-04,1.6072517e-03,4.2852808e-04,1.6550429e-02,2.5363415e-01,7.0221350e-02
1.3982034e-01,-9.3074977e-07,5.2506656e-06,3.5588118e-05,-1.2849406e-03,2.0916969e-02,-1.2836558e-03,1.2475353e-04,-1.9862675e-04,1.0121985e-04,3.4684886e-02,-1.8058802e-01,-3.2730854e-02
1.4982033e-01,5.6254626e-05,1.5009611e-06,1.6513198e-05,5.7155836e-03,-3.7075658e-04,5.7217755e-03,-1.5639440e-04,5.8022746e-04,5.2761374e-04,-2.8114820e-02,7.7885495e-02,4.2639429e-02
1.5982032e-01,2.3096586e-05,2.3172245e-05,-1.8630429e-05,-3.3153066e-03,2.1642874e-03,-3.3181638e-03,-2.7173953e-04,5.8536549e-04,3.2848331e-04,-1.1534524e-02,5.1380384e-04,-1.9913061e-02
1.6982031e-01,-5.7241415e-05,1.2891965e-04,2.4270679e-05,-8.0380706e-03,1.0581605e-02,-8.0205075e-03,-1.1471568e-04,-9.6891388e-04,-3.7968785e-04,1.5702400e-02,-1.5542808e-01,-7.0817184e-02
1.7982030e-01,-7.2301482e-05,-8.1881559e-05,-9.5420663e-06,-1.5157909e-03,-2.1079632e-02,-1.5033267e-03,4.5164422e-04,1.1469517e-04,-1.7404487e-04,5.6636044e-02,1.0836101e-01,2.0564318e-02
1.8982029e-01,-1.2256334e-04,-1.6379610e-05,4.8175758e-06,-5.0262190e-03,6.5498819e-03,-5.0265784e-03,9.7937742e-05,1.6145241e-04,-1.3328576e-04,-3.5370682e-02,4.6757286e-03,4.0759147e-03
1.9982028e-01,-1.3437247e-04,4.3264957e-05,2.6380929e-05,-1.1816293e-03,5.9648204e-03,-1.1783875e-03,-1.2132431e-04,-4.2492639e-04,6.9054773e-06,-2.1926226e-02,-5.8637936e-02,1.4019137e-02
2.0982027e-01,-1.0262917e-04,-6.2258907e-05,4.3125269e-06,3.1740569e-03,-1.0553751e-02,3.1701013e-03,1.4675317e-05,-4.1236082e-04,3.7998540e-05,1.3599976e-02,1.2565584e-03,3.1093092e-03
2.1982026e-01,-5.4319135e-05,-2.4154788e-04,6.1517050e-05,4.8142521e-03,-1.7933954e-02,4.8290287e-03,8.2705186e-04,-2.1746483e-04,3.9873430e-04,8.1237732e-02,1.9489618e-02,3.6073611e-02
2.2982025e-01,-1.4729015e-04,-2.5717559e-04,2.4427101e-05,-9.2934821e-03,-1.5681436e-03,-9.2998323e-03,2.0789037e-04,7.8530988e-04,4.2504066e-04,-6.1916208e-02,1.0027757e-01,2.6306378e-03
2.3982024e-01,-1.6623324e-04,-7.5037058e-05,-1.7555731e-05,-1.9033018e-03,1.8212344e-02,-1.8999692e-03,-5.3865667e-04,2.6542960e-04,4.3280274e-04,-7.4654775e-02,-5.1988078e-02,7.7620863e-04
2.4982023e-01,-1.5222141e-04,-9.1192840e-05,-3.5653868e-05,1.4015460e-03,-1.6156219e-03,1.4007743e-03,-2.6984182e-04,-3.0000530e-04,5.3110925e-05,2.6881510e-02,-5.6543543e-02,-3.7969217e-02
2.5982022e-01,-1.7283010e-04,-1.0463587e-04,-1.1435763e-05,-2.0607750e-03,-1.3441508e-03,-2.0610668e-03,-6.9120366e-05,-1.4334881e-04,1.4840736e-06,2.0072165e-02,1.5665664e-02,-5.1626900e-03
2.6982021e-01,-1.5624957e-04,3.3412509e-05,5.2222155e-05,1.6534878e-03,1.3804805e-02,1.6629889e-03,-3.1790963e-04,-3.4456208e-04,1.0738623e-04,-2.4878950e-02,-2.0121346e-02,1.0590226e-02
2.7982020e-01,-1.1280504e-04,-5.5878236e-05,-1.3652646e-05,4.3458120e-03,-8.9250108e-03,4.3514634e-03,-3.6703940e-04,5.6959539e-04,4.4224289e-04,-4.9129815e-03,9.1415834e-02,3.3485698e-02
2.8982019e-01,-1.5691115e-04,1.3472665e-04,1.6139826e-05,-4.4200292e-03,1.9064239e-02,-4.3849873e-03,-4.4466940e-04,-1.2951343e-03,-2.1287836e-04,-7.7630071e-03,-1.8647315e-01,-6.5512188e-02
2.9982018e-01,-1.5521941e-04,1.7105366e-04,-1.8143165e-06,1.6709084e-04,3.6326690e-03,1.7197721e-04,-5.7468061e-04,-7.7268991e-04,-2.4640775e-05,-1.3001133e-02,5.2244490e-02,1.8823777e-02
3.0982018e-01,-1.5724788e-04,1.9328233e-04,1.3402776e-05,-2.0434127e-04,2.2228723e-03,-2.0131432e-04,-6.6921147e-04,-6.8657601e-04,-3.2672079e-05,-9.4530954e-03,8.6113984e-03,-8.0313121e-04
3.1982017e-01,-1.0589342e-04,-7.5292100e-05,-6.2468946e-05,5.1495761e-03,-2.6849398e-02,5.1634348e-03,-5.5968816e-04,1.0083321e-03,1.7635338e-04,1.0952341e-02,1.6949097e-01,2.0902565e-02
3.2982016e-01,-1.1279688e-04,-1.4497697e-04,-1.0615588e-04,-6.8481601e-04,-6.9700789e-03,-6.7976786e-04,-7.6755081e-04,1.5436599e-03,2.6291433e-04,-2.0786284e-02,5.3532830e-02,8.6561033e-03
3.3982038e-01,-2.0390006e-04,2.1584456e-04,1.5288592e-05,-9.1490453e-03,3.6081821e-02,-9.0690395e-03,-9.9926971e-04,-1.0581122e-03,-3.1670486e-04,-2.3171360e-02,-2.6017126e-01,-5.7960592e-02
3.4982038e-01,-2.3097674e-04,-1.9429795e-05,-4.6280564e-05,-2.6893305e-03,-2.3531001e-02,-2.6951253e-03,-7.7790910e-04,5.3471343e-04,1.3661577e-05,2.2136082e-02,1.5928272e-01,3.3036676e-02
3.5982037e-01,-1.1784449e-04,-1.9764084e-04,-7.6485885e-05,1.1312708e-02,-1.7807870e-02,1.1334610e-02,-1.9770739e-04,9.7253078e-04,3.5797072e-04,5.8020226e-02,4.3781777e-02,3.4430947e-02
3.6982036e-01,-1.3481978e-04,-3.1659771e-04,-1.1498153e-04,-1.6922923e-03,-1.1899367e-02,-1.6769210e-03,-3.9109789e-04,1.7812201e-03,3.4477935e-04,-1.9339068e-02,8.0869007e-02,-1.3191375e-03
3.7982035e-01,-2.0471461e-04,-2.0701961e-04,-1.0773797e-04,-6.9990743e-03,1.0941327e-02,-7.0057173e-03,-8.5274696e-04,1.5046894e-03,-3.4778264e-05,-4.6164951e-02,-2.7653091e-02,-3.7955798e-02
3.8982034e-01,-1.5967777e-04,-3.9712809e-04,3.8556727e-05,4.5048760e-03,-1.8999381e-02,4.5507208e-03,-2.2031865e-04,2.3168591e-03,6.6604233e-04,6.3242891e-02,8.1217041e-02,7.0082126e-02
3.9982033e-01,-1.0839877e-04,-1.6410331e-04,4.4308622e-05,5.1333340e-03,2.3299196e-02,5.1374767e-03,3.1443268e-04,-3.2934066e-04,3.6985976e-04,5.3475184e-02,-2.6462023e-01,-2.9618285e-02
4.0982032e-01,-1.1226303e-04,-1.7651916e-04,-6.7051693e-05,-3.8608698e-04,-1.2418451e-03,-3.8593172e-04,-1.0977395e-04,5.6167363e-04,5.2527158e-04,-4.2420703e-02,8.9101514e-02,1.5541197e-02
4.1982031e-01,-1.1739976e-04,-6.8585136e-05,-6.5137655e-05,-5.1715625e-04,1.0793047e-02,-5.1784598e-04,-3.4482404e-04,3.6432634e-04,4.6485750e-04,-2.3505032e-02,-1.9734748e-02,-6.0414144e-03
4.2982030e-01,-1.4646600e-04,3.9754464e-06,-1.2718869e-05,-2.9073742e-03,7.2570430e-03,-2.9034354e-03,-1.0652872e-04,-4.4320490e-04,8.6415154e-06,2.3829555e-02,-8.0753202e-02,-4.5621642e-02
4.3982029e-01,-7.0031807e-05,-6.6041950e-05,-4.5312990e-05,7.6432707e-03,-6.9940394e-03,7.6506346e-03,-3.7122611e-04,6.3660199e-04,3.6029097e-04,-2.6469764e-02,1.0798079e-01,3.5164979e-02
4.4982028e-01,-7.1694146e-05,2.7948058e-06,-4.9987514e-05,-1.7323144e-04,6.8833363e-03,-1.7326062e-04,-1.0307351e-03,1.0059844e-03,5.8817963e-04,-6.5950965e-02,3.6938275e-02,2.2788887e-02
4.5982027e-01,-1.5602126e-04,2.3979037e-04,4.1939962e-05,-8.4491997e-03,2.3707686e-02,-8.3933426e-03,-6.1093610e-04,-1.5767428e-03,-2.3751467e-04,4.1979943e-02,-2.5827297e-01,-8.2569508e-02
4.6982026e-01,-1.2252859e-04,5.5166550e-05,-2.3524894e-05,3.3582661e-03,-1.8463073e-02,3.3365269e-03,-4.0916228e-04,-6.1193388e-04,-4.3062184e-04,2.0177401e-02,9.6480986e-02,-1.9310735e-02
4.7982025e-01,-1.2360286e-04,1.3601623e-05,-3.8892850e-05,-1.0571047e-04,-4.1565360e-03,-1.0760728e-04,-4.1963519e-04,-5.0077199e-05,-2.6070588e-04,-1.0472917e-03,5.6185721e-02,1.6991612e-02
4.8982024e-01,-1.1171515e-04,1.0190962e-06,-1.0927803e-05,1.1887624e-03,-1.2587415e-03,1.1882650e-03,3.6391153e-05,-3.7385363e-04,-3.0551966e-05,4.5602678e-02,-3.2377674e-02,2.3015413e-02
4.9982023e-01,-9.5314447e-05,-3.2201645e-05,-1.3844929e-05,1.6396856e-03,-3.3226876e-03,1.6392216e-03,1.0550444e-04,-2.6669257e-04,2.1805183e-05,6.9113348e-03,1.0716116e-02,5.2357199e-03
5.0982022e-01,-1.2325765e-04,-1.8709365e-04,-6.8098299e-05,-2.7876919e-03,-1.5493889e-02,-2.7749706e-03,-4.0060620e-04,1.2766426e-03,1.5247877e-04,-5.0611112e-02,1.5433366e-01,1.3067371e-02
5.1982021e-01,-4.3535602e-05,-2.2929152e-04,-7.3056255e-05,7.9678785e-03,-4.2080629e-03,7.9827382e-03,-4.7871775e-05,1.4218978e-03,5.6885205e-04,3.5273476e-02,1.4525541e-02,4.1637367e-02
5.2982020e-01,-9.2400465e-05,-1.7815657e-05,3.5099850e-05,-4.8838566e-03,2.1150280e-02,-4.8775460e-03,9.4074885e-05,-4.5342232e-04,1.3196685e-04,1.4194679e-02,-1.8753219e-01,-4.3688561e-02
5.3982019e-01,-8.6947810e-05,-3.8550907e-05,2.3080458e-05,5.4472751e-04,-2.0738379e-03,5.4462167e-04,2.4381592e-04,-3.2653064e-04,6.0299208e-05,1.4974118e-02,1.2689180e-02,-7.1667713e-03
5.4982018e-01,-8.4417333e-05,3.6601895e-05,3.7988897e-05,2.5357551e-04,7.5151065e-03,2.5784567e-04,7.6402706e-05,-6.3216569e-04,1.8452780e-04,-1.6741337e-02,-3.0563534e-02,1.2422871e-02
5.5982018e-01,-1.0491544e-04,1.1589183e-05,4.1481593e-05,-2.0501567e-03,-2.4993878e-03,-2.0517676e-03,2.5392772e-04,-6.6561171e-04,1.4191328e-04,1.7752518e-02,-3.3446057e-03,-4.2614562e-03
5.6982017e-01,-8.8490162e-05,-1.7587497e-04,7.0087913e-05,1.6242516e-03,-1.8748522e-02,1.6368513e-03,9.4957732e-04,-3.2794165e-04,2.8956684e-04,6.9565026e-02,3.3767039e-02,1.4765370e-02
5.7982016e-01,-8.9128477e-05,-1.1792405e-04,1.8108066e-05,-6.1610439e-05,5.7951259e-03,-6.3390192e-05,3.8316602e-04,-7.6250317e-05,9.1214153e-06,-5.6641184e-02,2.5169157e-02,-2.8044569e-02
5.8982038e-01,-1.1799891e-04,-1.3358762e-05,-1.4182010e-06,-2.8864768e-03,1.0457386e-02,-2.8835035e-03,6.3653317e-05,-3.1637321e-04,-5.7261001e-05,-3.1950539e-02,-2.4011740e-02,-6.6380897e-03
5.9982038e-01,-1.0536352e-04,7.6863334e-05,1.0893888e-05,1.2635675e-03,9.0211243e-03,1.2712996e-03,1.2305302e-05,-8.5074486e-04,6.6496303e-05,-5.1348065e-03,-5.3437216e-02,1.2375742e-02
6.0982037e-01,-1.8229584e-04,1.4639050e-05,-2.0219170e-06,-7.6952207e-03,-6.2166349e-03,-7.6959473e-03,1.6810504e-04,-5.8565692e-04,-1.2150732e-04,1.5579989e-02,2.6508819e-02,-1.8800380e-02
6.1982036e-01,-1.8937986e-04,3.4291807e-05,2.2864635e-05,-7.0814222e-04,1.9658387e-03,-7.0710373e-04,1.7264959e-04,-6.2017538e-04,-1.1209452e-04,4.5445582e-04,-3.4518492e-03,9.4128069e-04
6.2982035e-01,-2.4530990e-04,9.8121861e-05,-1.3179682e-06,-5.5984003e-03,6.3849671e-03,-5.5853788e-03,-3.3638723e-04,-6.8676895e-04,-5.8017178e-04,-5.0903731e-02,-6.6593631e-03,-4.6807771e-02
6.3982034e-01,-2.3875417e-04,9.8895704e-05,-1.2531341e-05,6.5596363e-04,7.7158603e-05,6.5520949e-04,-3.1945930e-04,-6.6423294e-04,-6.3326701e-04,1.6927945e-03,2.2536032e-03,-5.3095278e-03
6.4982033e-01,-2.1584230e-04,2.9963977e-05,-1.0322846e-05,2.2925058e-03,-6.8945701e-03,2.2856815e-03,4.3301256e-06,-6.0361106e-04,-5.8765775e-04,3.2378974e-02,6.0621937e-03,4.5609306e-03
6.5982032e-01,-1.1093586e-04,1.8495500e-05,1.0398516e-05,1.0490326e-02,-1.1514427e-03,1.0490478e-02,1.2349401e-04,-3.1441896e-04,1.7703993e-05,1.1916400e-02,2.8919237e-02,6.0536232e-02
6.6982031e-01,-1.0696813e-04,5.4568978e-05,1.2971236e-05,3.9657663e-04,3.6071166e-03,3.9909757e-04,-4.4957635e-05,-6.3447945e-04,8.8278007e-05,-1.6845181e-02,-3.2006079e-02,7.0574081e-03
6.7982030e-01,-1.2697307e-04,6.0251595e-06,3.6499823e-06,-2.0006550e-03,-4.8532439e-03,-2.0031078e-03,4.4956172e-05,-5.2585059e-04,2.9661633e-05,8.9913893e-03,1.0862896e-02,-5.8616430e-03
6.8982029e-01,-1.5391489e-04,-1.5423389e-05,8.8970941e-06,-2.6947159e-03,-2.1430581e-03,-2.6950834e-03,-9.8633066e-05,-7.6629099e-04,-2.7597776e-04,-1.4358938e-02,-2.4044063e-02,-3.0563968e-02
6.9982028e-01,-1.0769916e-04,-2.0347477e-05,2.8938412e-05,4.6210082e-03,-4.9396158e-04,4.6219800e-03,-1.0707666e-04,-4.4292949e-04,1.3445586e-04,-8.4435989e-04,3.2336182e-02,4.1043401e-02
7.0982027e-01,-2.1683330e-04,-3.0701954e-04,-7.4888747e-05,-1.0909093e-02,-2.8687534e-02,-1.0864299e-02,-1.0584928e-04,1.7582126e-03,1.1882350e-04,1.2273821e-04,2.2011442e-01,-1.5632372e-03
7.1982026e-01,-1.5389929e-04,-4.0677664e-05,1.6093358e-05,6.3015053e-03,2.6629141e-02,6.3067480e-03,3.4796347e-04,-4.5703429e-04,1.8569503e-04,4.5381318e-02,-2.2152490e-01,6.6871589e-03
7.2982025e-01,-2.0895319e-04,7.0219060e-05,-3.2393458e-06,-5.5090116e-03,1.1094706e-02,-5.4916404e-03,-2.0824731e-04,-1.1222226e-03,-2.3741701e-04,-5.5621131e-02,-6.6518893e-02,-4.2311244e-02
7.3982024e-01,-2.0164043e-04,1.6839966e-05,1.0295703e-06,7.3225027e-04,-5.3382719e-03,7.2768599e-04,-1.8018449e-04,-6.7081757e-04,-1.4784946e-05,2.8062850e-03,4.5140546e-02,2.2263228e-02
7.4982023e-01,-1.6198836e-04,-1.9194661e-04,6.1439309e-05,3.9506378e-03,-2.0881346e-02,3.9657042e-03,6.5404339e-04,-2.0012936e-05,2.3090061e-04,8.3422867e-02,6.5080525e-02,2.4568579e-02
7.5982022e-01,-1.4483174e-04,2.4307035e-05,3.6713229e-05,1.7172298e-03,2.1624164e-02,1.7294268e-03,7.8981503e-05,-6.2984570e-04,8.2962525e-05,-5.7506243e-02,-6.0983334e-02,-1.4793822e-02
7.6982021e-01,-1.4370310e-04,1.5540395e-04,5.9693494e-06,1.0963449e-04,1.3109566e-02,1.3061993e-04,-2.4811546e-04,-1.3561241e-03,-2.0494012e-04,-3.2709728e-02,-7.2627912e-02,-2.8790292e-02
7.7982020e-01,-2.3855695e-04,1.5564436e-04,-4.8432411e-05,-9.4900802e-03,3.2435204e-05,-9.4806796e-03,-3.6102561e-04,-1.2465497e-03,-4.9336129e-04,-1.1291025e-02,1.0957448e-02,-2.8842144e-02
7.8982019e-01,-2.0162715e-04,-3.3602885e-05,-8.3765828e-05,3.6943807e-03,-1.8922874e-02,3.7011547e-03,-9.1377985e-05,4.1430705e-04,8.9751929e-05,2.6964788e-02,1.6608584e-01,5.8311377e-02
7.9982018e-01,-2.6575277e-04,1.5870974e-04,6.4474643e-06,-6.4263576e-03,1.9235165e-02,-6.3870646e-03,-5.3811175e-04,-1.1468062e-03,-5.3683650e-04,-4.4673419e-02,-1.5611147e-01,-6.2658903e-02
8.0982018e-01,-1.7915713e-04,9.6871340e-05,1.2309148e-05,8.6648231e-03,-6.1896476e-03,8.6501705e-03,-3.1101996e-04,-9.8174526e-04,-3.8434508e-04,2.2709200e-02,1.6506105e-02,1.5249157e-02
8.1982017e-01,-1.4950815e-04,4.0741397e-05,2.4558314e-06,2.9658750e-03,-5.6139349e-03,2.9621543e-03,-1.4719236e-04,-4.6289182e-04,-4.9946485e-05,1.6382776e-02,5.1885393e-02,3.3439891e-02
8.2982016e-01,-2.0286243e-04,-2.7328356e-04,-2.4709210e-05,-5.3181887e-03,-3.1417876e-02,-5.2617697e-03,-4.8776394e-04,2.4062366e-03,3.6102393e-04,-3.4057190e-02,2.8691311e-01,4.1097080e-02
8.3982038e-01,-1.1501344e-04,-1.9820496e-04,-1.2105644e-04,8.7764792e-03,7.5273758e-03,8.7760594e-03,-6.4831921e-04,1.5935234e-03,3.8116466e-04,-1.6055160e-02,-8.1269460e-02,2.0140277e-03
8.4982038e-01,-1.4112667e-04,-5.1898169e-05,-2.9753613e-05,-2.6148873e-03,1.4630777e-02,-2.6072909e-03,-2.3336536e-04,-2.6566291e-04,-5.6520135e-05,4.1495425e-02,-1.8591880e-01,-4.3768522e-02
8.5982037e-01,-1.5401770e-04,-1.6357857e-04,-3.8491944e-05,-1.2842464e-03,-1.1169451e-02,-1.2818035e-03,-4.1636635e-04,6.7208741e-04,1.6067958e-04,-1.8300117e-02,9.3775121e-02,2.1719992e-02
8.6982036e-01,-1.6842542e-04,-3.4438872e-04,8.6918427e-05,-1.4436573e-03,-1.8082927e-02,-1.4138497e-03,2.1893704e-04,1.5485400e-03,7.4559575e-04,6.3530400e-02,8.7645347e-02,5.8491672e-02
8.7982035e-01,-1.5165039e-04,-2.8835134e-05,-5.7145364e-06,1.6717084e-03,3.1554784e-02,1.6945666e-03,-1.7336977e-04,-5.3044047e-04,1.9383053e-04,-3.9230718e-02,-2.0789825e-01,-5.5176574e-02
8.8982034e-01,-1.2303912e-04,-1.1973209e-04,-8.2867797e-05,2.8640025e-03,-9.0865870e-03,2.8681475e-03,-4.3584854e-04,6.5235140e-04,3.8038087e-04,-2.6247902e-02,1.1827930e-01,1.8655052e-02
8.9982033e-01,-1.1133322e-04,-8.6135322e-05,-5.1073666e-05,1.1687077e-03,3.3608847e-03,1.1690135e-03,-3.9712419e-04,6.3271432e-04,4.6915669e-04,3.8724389e-03,-1.9637100e-03,8.8775898e-03
9.0982032e-01,-1.2178091e-04,2.1639001e-06,9.1376560e-06,-1.0458541e-03,8.8302059e-03,-1.0413528e-03,-1.3961999e-04,-4.0385139e-04,1.4229762e-04,2.5750444e-02,-1.0365667e-01,-3.2685938e-02
9.1982031e-01,-1.1096849e-04,4.3686677e-05,8.1192909e-06,1.0800390e-03,4.1519209e-03,1.0838282e-03,-2.8198112e-04,-6.1470890e-04,3.0512577e-05,-1.4236126e-02,-2.1085771e-02,-1.1178515e-02
9.2982030e-01,-1.9829402e-04,1.3752012e-04,3.4719119e-05,-8.7404228e-03,9.3882943e-03,-8.7193751e-03,-5.9212746e-04,-1.1591510e-03,-2.6424421e-04,-3.1014664e-02,-5.4444261e-02,-2.9475707e-02
9.3982029e-01,-2.5971293e-04,1.0181025e-04,-1.9870729e-06,-6.1430481e-03,-3.5685014e-03,-6.1421930e-03,-4.9510966e-04,-9.0049181e-04,-4.7547877e-04,9.7017892e-03,2.5865943e-02,-2.1123476e-02
9.4982028e-01,-2.4360983e-04,1.1190107e-04,-2.1910555e-05,1.6104385e-03,1.0089891e-03,1.6102447e-03,-7.1227197e-04,-7.7062896e-04,-5.2514661e-04,-2.1716251e-02,1.2986298e-02,-4.9667884e-03
9.5982027e-01,-7.8246345e-05,-1.1732981e-04,-7.7881103e-05,1.6531467e-02,-2.2909823e-02,1.6559657e-02,6.5911456e-05,8.6871146e-04,2.0475798e-04,7.7818417e-02,1.6393420e-01,7.2990528e-02
9.6982026e-01,-7.1641902e-05,-1.0430874e-04,-6.9881833e-05,6.6048161e-04,1.3025783e-03,6.5948015e-04,1.6529742e-04,8.7806623e-04,2.7042946e-04,9.9386062e-03,9.3547727e-04,6.5671546e-03
9.7982025e-01,-1.5608379e-04,1.8256137e-04,1.7571003e-05,-8.4582050e-03,2.8693889e-02,-8.4068207e-03,-4.2017232e-04,-1.2345325e-03,-2.3161649e-04,-5.8547030e-02,-2.1126007e-01,-5.0204643e-02
9.8982024e-01,-1.6447881e-04,8.4596814e-05,-1.6267763e-05,-8.3516573e-04,-9.7959027e-03,-8.5032457e-04,-4.6352957e-04,-1.1253437e-03,-2.4276280e-04,-4.3357294e-03,1.0918889e-02,-1.1146323e-03
9.9982023e-01,-1.1049286e-04,-8.5315590e-05,-1.8162492e-05,5.3949529e-03,-1.6994116e-02,5.3932451e-03,1.8506250e-04,-3.4473411e-04,9.3178766e-05,6.4859268e-02,7.8061031e-02,3.3594189e-02
1.0098202e+00,-1.2355245e-04,-2.1545673e-04,3.7775516e-05,-1.3177289e-03,-1.3012711e-02,-1.3082458e-03,9.3772421e-04,-1.4192118e-04,3.3278281e-04,7.5266243e-02,2.0281313e-02,2.3960427e-02
1.0198202e+00,-1.4024662e-04,-1.6363943e-05,1.1029526e-05,-1.6691627e-03,1.9910110e-02,-1.6599662e-03,5.4000861e-06,-4.8226298e-04,8.9182541e-05,-9.3232501e-02,-3.4034213e-02,-2.4360050e-02
1.0298202e+00,-1.6155629e-04,-4.2415936e-05,-2.0030732e-05,-2.1310519e-03,-2.6041824e-03,-2.1321314e-03,4.8445292e-05,-4.2979836e-04,2.0229854e-05,4.3045247e-03,5.2464671e-03,-6.8952753e-03
1.0398202e+00,-1.3914144e-04,-2.7775621e-05,9.7061189e-06,2.2412593e-03,1.4626305e-03,2.2426303e-03,4.8740575e-05,-5.7672752e-04,1.3349598e-04,2.9528319e-05,-1.4692930e-02,1.1326623e-02
1.0498202e+00,-1.3530441e-04,-6.9563333e-05,2.9940047e-05,3.8259295e-04,-4.1790357e-03,3.8196999e-04,2.4893323e-04,-4.3131636e-04,1.8169859e-04,2.0019284e-02,1.4541130e-02,4.8202657e-03
1.0598202e+00,-5.4655141e-05,-2.8456798e-04,2.9470327e-05,8.0366336e-03,-2.1504099e-02,8.0835310e-03,9.8969574e-04,5.3947305e-04,8.6987382e-04,7.4076322e-02,9.7079034e-02,6.8817588e-02
1.0698202e+00,-1.5824028e-04,1.6477850e-05,1.0041828e-05,-1.0357602e-02,3.0111482e-02,-1.0339459e-02,6.1911507e-05,-6.0194302e-04,-9.0893131e-05,-9.2778512e-02,-1.1414172e-01,-9.6076786e-02
1.0798202e+00,-1.7075929e-04,1.2377556e-04,3.4423181e-06,-1.2567658e-03,1.0730437e-02,-1.2413647e-03,-4.1072310e-04,-9.3929527e-04,-3.6511659e-04,-4.7263506e-02,-3.3735257e-02,-2.7422373e-02
1.0898204e+00,-2.2249388e-04,9.2474684e-05,1.0574972e-05,-5.1735346e-03,-3.1279389e-03,-5.1744019e-03,-1.4736782e-04,-5.4890311e-04,-1.2678988e-04,2.6334925e-02,3.9038323e-02,2.3832126e-02
1.0998204e+00,-2.3368067e-04,5.0625036e-05,9.9215084e-06,-1.1187356e-03,-4.1841910e-03,-1.1215305e-03,-3.2764361e-05,-7.2721095e-04,-1.7222389e-04,1.1460357e-02,-1.7830801e-02,-4.5434057e-03
1.1098204e+00,-2.4040176e-04,-1.5651102e-05,-5.0557090e-06,-6.7330155e-04,-6.6272080e-03,-6.7497443e-04,1.5634700e-04,-4.5576289e-04,-2.3149527e-04,1.8911154e-02,2.7144831e-02,-5.9271437e-03
1.1198204e+00,-2.3367319e-04,1.2133138e-04,-1.0681241e-05,6.6800438e-04,1.3697875e-02,6.8543987e-04,-3.7734663e-04,-9.4141226e-04,-4.6935384e-04,-5.3369414e-02,-4.8564983e-02,-2.3785880e-02
1.1298203e+00,-2.5225549e-04,2.0267769e-04,-4.9812723e-06,-1.8642626e-03,8.1355210e-03,-1.8483020e-03,-6.2543696e-04,-1.1044022e-03,-5.0772109e-04,-2.4809056e-02,-1.6299007e-02,-3.8367292e-03
1.1398203e+00,-2.5032066e-04,6.1718224e-05,-2.0284280e-05,1.9443294e-04,-1.4096058e-02,1.8521558e-04,-6.3751674e-05,-5.8290822e-04,-2.6310131e-04,5.6168582e-02,5.2149445e-02,2.4462002e-02
1.1498203e+00,-2.3221815e-04,4.0786253e-05,-1.4886868e-06,1.8104566e-03,-2.0943213e-03,1.8087500e-03,1.0451011e-05,-6.0977200e-04,-1.2475688e-04,7.4202756e-03,-2.6863804e-03,1.3834456e-02
1.1598203e+00,-2.7250183e-04,-1.4500225e-04,-2.8014860e-05,-4.0303721e-03,-1.8580444e-02,-4.0190943e-03,8.9079860e-05,4.8080582e-04,-8.5592456e-05,7.8628924e-03,1.0905789e-01,3.9164459e-03
1.1698203e+00,-2.7545973e-04,-1.5722593e-04,-4.1915116e-05,-2.9562872e-04,-1.2225988e-03,-2.9500184e-04,-1.6990236e-04,6.0619660e-04,-1.5810058e-04,-2.5898247e-02,1.2539090e-02,-7.2508193e-03
1.1798203e+00,-3.0189565e-04,-1.0921841e-04,-2.3994632e-05,-2.6443069e-03,4.7999697e-03,-2.6443107e-03,-1.0207018e-04,1.9560930e-04,-8.4185507e-05,6.7832246e-03,-4.1058769e-02,7.3915143e-03
1.1898203e+00,-2.4598790e-04,3.0353984e-06,1.0219389e-05,5.5876811e-03,1.1224104e-02,5.5964612e-03,-2.9776788e-04,-5.2776726e-04,-4.3589988e-05,-1.9569789e-02,-7.2337725e-02,4.0595558e-03
1.1998203e+00,-2.1804890e-04,-1.4845364e-05,1.4123694e-05,2.7940351e-03,-1.7889900e-03,2.7931863e-03,-1.8253124e-04,-5.0901234e-04,6.9406334e-05,1.1523675e-02,1.8754942e-03,1.1299643e-02
1.2098203e+00,-2.8650311e-04,-1.5017944e-04,-4.1988132e-05,-6.8408292e-03,-1.3539425e-02,-6.8381474e-03,-3.5267271e-04,5.2490179e-04,-2.5515094e-05,-1.7014163e-02,1.0339151e-01,-9.4921518e-03
1.2198203e+00,-2.8348969e-04,-1.0788950e-04,-3.3650458e-05,2.9918434e-04,4.2292463e-03,3.0000191e-04,-5.0821273e-04,3.1888795e-04,2.8202338e-05,-1.5554017e-02,-2.0601403e-02,5.3717482e-03
1.2298203e+00,-2.4290234e-04,7.7190400e-05,7.3816984e-06,4.0462954e-03,1.8505695e-02,4.0816452e-03,-7.2525435e-04,-1.2904433e-03,-2.4163809e-04,-2.1704183e-02,-1.6093328e-01,-2.6984069e-02
1.2398202e+00,-2.1175180e-04,2.1750967e-05,1.4670044e-05,3.1149294e-03,-5.5471020e-03,3.1095668e-03,2.1236723e-05,-9.9191551e-04,3.2785249e-06,7.4649179e-02,2.9852809e-02,2.4491685e-02
1.2498202e+00,-1.8211822e-04,-1.3252492e-04,-3.3097504e-05,2.9581412e-03,-1.5427471e-02,2.9692604e-03,2.8436277e-04,3.2861226e-04,2.8066406e-04,2.6312629e-02,1.3205290e-01,2.7738580e-02
1.2598202e+00,-1.7848103e-04,-1.7726849e-04,-5.9271897e-05,3.6160391e-04,-4.4743514e-03,3.6595086e-04,4.5696907e-04,4.8274263e-04,1.9612155e-04,1.7260647e-02,1.5413052e-02,-8.4542593e-03
1.2698202e+00,-2.1044257e-04,8.6975878e-05,6.9076761e-06,-3.2056172e-03,2.6428027e-02,-3.1569744e-03,-3.1725506e-04,-1.4418532e-03,-3.3709648e-04,-7.7422488e-02,-1.9245977e-01,-5.3321853e-02
1.2798202e+00,-1.8186017e-04,5.7081391e-05,1.8603010e-05,2.8604746e-03,-2.9920580e-03,2.8532779e-03,-3.9397743e-04,-1.3073397e-03,-3.6903128e-04,-7.6722441e-03,1.3451359e-02,-3.1934832e-03
1.2898202e+00,-1.7808304e-04,-1.0782894e-04,3.5273958e-05,3.7570533e-04,-1.6491473e-02,3.6086007e-04,1.2772942e-04,-1.0160425e-03,-2.5993296e-04,5.2170735e-02,2.9129750e-02,1.0909843e-02
1.2998202e+00,-1.8309471e-04,-2.0396980e-04,2.7794653e-05,-5.0539352e-04,-9.6136279e-03,-5.0584933e-04,4.4150131e-04,-4.8499482e-04,3.7521634e-05,3.1377219e-02,5.3104820e-02,2.9745487e-02
1.3098202e+00,-2.4478513e-04,-3.1355326e-04,-3.9130375e-05,-6.1746132e-03,-1.0956441e-02,-6.1668836e-03,5.2104294e-04,2.1077251e-04,2.3377333e-05,7.9541705e-03,6.9576800e-02,-1.4144314e-03
1.3198202e+00,-2.9250010e-04,-2.6709943e-04,-5.7120502e-05,-4.7711521e-03,4.6446099e-03,-4.7726080e-03,1.7918899e-04,3.4224424e-04,-1.0128157e-04,-3.4185427e-02,1.3147185e-02,-1.2465902e-02
1.3298202e+00,-3.0117891e-04,-1.3584228e-04,-1.0407554e-05,-8.6931939e-04,1.3126195e-02,-8.5932945e-04,-8.3959159e-05,-6.2597037e-04,-3.8660181e-04,-2.6314840e-02,-9.6821553e-02,-2.8532051e-02
1.3398204e+00,-3.0212715e-04,-2.6513581e-04,-2.7123121e-06,-9.7847046e-05,-1.2929055e-02,-9.2078282e-05,2.3400478e-04,2.1209544e-04,-5.7781446e-06,3.1795666e-02,8.3804663e-02,3.8081495e-02
1.3498204e+00,-2.4062910e-04,-3.3322408e-04,8.9452210e-05,6.1396952e-03,-6.8163481e-03,6.1515928e-03,1.0674958e-03,-1.5498823e-04,4.6224832e-04,8.3349182e-02,-3.6708402e-02,4.6802691e-02
1.3598204e+00,-2.1085715e-04,-2.5299970e-04,1.0292205e-04,2.9874082e-03,8.0156814e-03,2.9851796e-03,1.4436538e-03,-8.2446220e-04,4.5931917e-04,3.7615838e-02,-6.6947461e-02,-2.9291516e-04
1.3698204e+00,-3.2934127e-04,-2.0400067e-04,-6.2501554e-06,-1.1846125e-02,4.9052007e-03,-1.1848531e-02,4.2271912e-04,-2.4033604e-05,1.9057798e-05,-1.0209357e-01,8.0042936e-02,-4.4026179e-02
1.3798203e+00,-4.0164421e-04,-2.8482319e-04,-2.1860362e-05,-7.2330114e-03,-8.0873724e-03,-7.2218698e-03,-2.1897344e-05,6.8563335e-04,-3.9938519e-04,-4.4461689e-02,7.0966763e-02,-4.1844339e-02
1.3898203e+00,-3.3850163e-04,-3.2999901e-04,-1.3877164e-05,6.3105385e-03,-4.5207012e-03,6.3157594e-03,7.6351898e-04,2.6989030e-04,4.3518028e-05,7.8541707e-02,-4.1574345e-02,4.4290364e-02
1.3998203e+00,-2.9851037e-04,-1.8698712e-04,5.4400373e-05,4.0122877e-03,1.4295201e-02,4.0073971e-03,8.7801471e-04,-6.2060179e-04,-1.5078673e-04,1.1449585e-02,-8.9049294e-02,-1.9430495e-02
1.4098203e+00,-3.2520958e-04,-1.8915807e-04,2.1297370e-05,-2.6697492e-03,-2.1428930e-04,-2.6703257e-03,5.5779706e-04,-4.9297872e-04,1.1070855e-04,-3.2021796e-02,1.2762319e-02,2.6149553e-02
1.4198203e+00,-2.9742095e-04,-7.6312559e-05,2.7986515e-05,2.7808603e-03,1.1280558e-02,2.7930909e-03,1.0049796e-04,-1.3371235e-03,-3.0966229e-04,-4.5729953e-02,-8.4414556e-02,-4.2037124e-02
1.4298203e+00,-2.9128295e-04,-1.0169679e-04,1.7611942e-05,6.1366617e-04,-2.5390665e-03,6.1127940e-04,1.5952893e-04,-8.8635349e-04,-4.4122137e-04,5.9031021e-03,4.5077042e-02,-1.3155921e-02
1.4398203e+00,-1.3980657e-04,-2.9741924e-04,-3.4311685e-05,1.5129963e-02,-1.9570001e-02,1.5168242e-02,6.5225338e-04,8.0070821e-04,3.2479045e-04,4.9272493e-02,1.6870633e-01,7.6601255e-02
1.4498203e+00,-1.9026785e-04,-2.3886201e-04,9.5658467e-06,-5.0421903e-03,5.8601535e-03,-5.0449372e-03,7.8299453e-04,-9.4178012e-05,-1.2766063e-04,1.3074127e-02,-8.9488708e-02,-4.5245152e-02
1.4598203e+00,-2.1702128e-04,-1.9874923e-04,9.7837872e-06,-2.6718188e-03,4.0153387e-03,-2.6727820e-03,8.9015034e-04,-6.2719790e-04,-1.6941355e-05,1.0715591e-02,-5.3302040e-02,1.1071939e-02
1.4698203e+00,-2.6354809e-04,-3.2227583e-05,3.8863600e-05,-4.6509227e-03,1.6659234e-02,-4.6291374e-03,1.6268272e-04,-1.3569833e-03,-2.0341071e-04,-7.2746831e-02,-7.2978606e-02,-1.8646953e-02
1.4798203e+00,-2.6999521e-04,-2.4784991e-04,-1.8658876e-05,-6.5238583e-04,-2.1562112e-02,-6.4171055e-04,3.5884825e-04,1.4229442e-04,1.0053481e-04,1.9616571e-02,1.4992791e-01,3.0394581e-02
1.4898202e+00,-1.2816881e-04,-4.7322147e-04,6.0015629e-06,1.4135194e-02,-2.2551313e-02,1.4207542e-02,1.5763610e-03,5.7693864e-04,8.3977925e-04,1.2175139e-01,4.3464463e-02,7.3924514e-02
1.4998202e+00,-1.1445796e-04,-5.2364242e-04,8.9771247e-06,1.3612398e-03,-5.0430906e-03,1.3772416e-03,1.5937496e-03,8.6398949e-04,1.3190518e-03,1.7388599e-03,2.8705112e-02,4.7927305e-02
1.5098202e+00,-2.4551924e-04,-3.3161316e-04,-3.1165749e-05,-1.3091081e-02,1.9203008e-02,-1.3121090e-02,5.2633210e-04,5.2084932e-04,3.7768372e-04,-1.0674185e-01,-3.4314050e-02,-9.4136902e-02
1.5198202e+00,-2.1276814e-04,-1.0805210e-04,5.3266766e-05,3.2878483e-03,2.2349753e-02,3.3057124e-03,6.3140962e-04,-1.3069821e-03,4.2133845e-04,1.0507761e-02,-1.8278331e-01,4.3654767e-03
1.5298202e+00,-3.3940017e-04,-2.0624753e-04,7.0822497e-05,-1.2668596e-02,-9.8122184e-03,-1.2663519e-02,2.3980353e-04,-3.3935357e-04,-2.3897104e-04,-3.9160646e-02,9.6762943e-02,-6.6031012e-02
1.5398202e+00,-2.5622755e-04,-3.7405113e-04,-2.7677947e-06,8.3016537e-03,-1.6781398e-02,8.3307970e-03,7.6911204e-04,6.4492679e-04,3.2549705e-04,5.2930901e-02,9.8428130e-02,5.6446864e-02
1.5498202e+00,-2.4982311e-04,-2.4235480e-04,5.5209865e-05,6.5262347e-04,1.3168777e-02,6.4598342e-04,9.2496241e-04,-4.2044141e-04,3.3658403e-06,1.5585052e-02,-1.0653692e-01,-3.2213152e-02
1.5598202e+00,-2.2641398e-04,-2.4806731e-04,3.4077487e-05,2.3404240e-03,-5.7414425e-04,2.3407001e-03,9.9547701e-04,-2.4029832e-04,-3.3284562e-05,7.0514669e-03,1.8014326e-02,-3.6650437e-03
1.5698202e+00,-3.0162314e-04,-1.3692743e-04,2.9310412e-05,-7.5133456e-03,1.1125564e-02,-7.5113906e-03,7.7308316e-04,-7.6570034e-04,-1.3520900e-04,-2.2239406e-02,-5.2540252e-02,-1.0192454e-02
1.5798202e+00,-3.0936655e-04,-2.9786546e-05,4.9730215e-05,-7.7127911e-04,1.0715505e-02,-7.5775401e-04,3.0763281e-04,-1.5264204e-03,-3.0132683e-04,-4.6545080e-02,-7.6072074e-02,-1.6611799e-02
1.5898204e+00,-2.6678339e-04,-7.2430822e-05,3.6838678e-05,4.2582587e-03,-4.2710215e-03,4.2514670e-03,2.8007072e-04,-1.2926220e-03,-2.8994219e-04,-2.7561455e-03,2.3379303e-02,1.1384374e-03
1.5998204e+00,-2.8119548e-04,-1.7945465e-04,2.7798805e-05,-1.4488439e-03,-1.0700553e-02,-1.4472058e-03,7.0301549e-04,-5.7055729e-04,-7.6116898e-05,4.2294517e-02,7.2206537e-02,2.1382550e-02
1.6098204e+00,-3.0613671e-04,-9.3461406e-05,2.9125503e-05,-2.4885841e-03,8.6029854e-03,-2.4870540e-03,6.2605447e-04,-8.4042730e-04,6.3231748e-05,-7.6961098e-03,-2.6987026e-02,1.3934878e-02
1.6198204e+00,-3.2778069e-04,-7.7110779e-05,-1.5970835e-05,-2.1644003e-03,1.6386113e-03,-2.1617140e-03,3.9972580e-04,-1.2401233e-03,-3.0258080e-04,-2.2632888e-02,-3.9969635e-02,-3.6581290e-02
1.6298203e+00,-3.0529742e-04,-1.7919779e-04,-1.6221227e-05,2.2406942e-03,-1.0212100e-02,2.2405421e-03,7.6954048e-04,-7.4089755e-04,-9.8767808e-05,3.6981504e-02,4.9922619e-02,2.0381319e-02
1.6398203e+00,-2.8469564e-04,-2.1157526e-04,5.6087155e-05,2.0577461e-03,-3.2402821e-03,2.0586301e-03,7.8117853e-04,-4.4844930e-04,-4.6861831e-05,1.1638058e-03,2.9244853e-02,5.1906026e-03
1.6498203e+00,-2.5344626e-04,-3.1650872e-04,1.2880426e-04,3.1094452e-03,-1.0498886e-02,3.1218251e-03,1.4135966e-03,-3.5941370e-04,2.1117827e-04,6.3241872e-02,8.9035686e-03,2.5804034e-02
1.6598203e+00,-2.9769408e-04,-3.0919629e-04,3.5228138e-05,-4.4239410e-03,7.3506891e-04,-4.4249978e-03,8.1713593e-04,-4.7509264e-05,5.5687499e-05,-5.9646128e-02,3.1190473e-02,-1.5549092e-02
1.6698203e+00,-3.0817405e-04,-2.8058901e-04,-1.1574843e-05,-1.0461282e-03,2.8616311e-03,-1.0474098e-03,6.5784027e-04,-2.0118515e-04,-1.1866294e-05,-1.5929582e-02,-1.5367603e-02,-6.7553858e-03
1.6798203e+00,-2.7953310e-04,-2.2922072e-04,2.6786976e-05,2.8681185e-03,5.1324231e-03,2.8679779e-03,8.4464267e-04,-6.9398695e-04,1.1070640e-04,1.8680258e-02,-4.9280227e-02,1.2257281e-02
1.6898203e+00,-2.8431706e-04,-3.3726158e-04,1.0149251e-04,-4.9262040e-04,-1.0803220e-02,-4.8371153e-04,1.3259841e-03,-4.8227703e-04,2.1270646e-04,4.8134188e-02,2.1171013e-02,1.0200015e-02
1.6998203e+00,-3.0532096e-04,-4.3189846e-04,6.4979393e-05,-2.1138146e-03,-9.4604109e-03,-2.1017328e-03,1.4064371e-03,-1.5391132e-04,-5.4548967e-05,8.0453115e-03,3.2836602e-02,-2.6725568e-02
1.7098203e+00,-2.8973217e-04,-2.9051325e-04,-8.0350389e-06,1.5697221e-03,1.4136508e-02,1.5663592e-03,7.5730550e-04,-5.3868621e-04,-8.6784658e-05,-6.4913224e-02,-3.8477526e-02,-3.2235722e-03
1.7198203e+00,-2.9758876e-04,-2.8671865e-04,-1.5871632e-05,-7.8543876e-04,3.7974539e-04,-7.8574170e-04,4.0787043e-04,4.5103544e-05,8.3363041e-05,-3.4943540e-02,5.8379031e-02,1.7014786e-02
1.7298203e+00,-3.0577000e-04,-2.5276246e-04,-4.3524300e-06,-8.1563874e-04,3.3962629e-03,-8.1794940e-04,6.9201982e-04,-9.1775249e-05,1.6666703e-04,2.8414966e-02,-1.3687892e-02,8.3304068e-03
1.7398202e+00,-3.2179805e-04,-1.9320098e-04,-8.2626013e-06,-1.5989308e-03,5.9576053e-03,-1.6012827e-03,6.7149243e-04,-2.3513948e-04,-7.7173755e-05,-2.0527410e-03,-1.4336437e-02,-2.4384102e-02
1.7498202e+00,-3.1228096e-04,-9.1237849e-05,2.5827170e-05,9.5701171e-04,1.0195087e-02,9.5959769e-04,4.6494829e-04,-8.2886110e-04,-5.8905022e-04,-2.0654434e-02,-5.9372218e-02,-5.1187695e-02
1.7598202e+00,-1.5772422e-04,-9.7027651e-05,9.6854894e-06,1.5453238e-02,-5.9437601e-04,1.5457553e-02,5.8484697e-04,-4.1119505e-04,1.3642940e-04,1.1989880e-02,4.1766645e-02,7.2548031e-02
1.7698202e+00,-1.3160220e-04,-9.3210950e-05,1.5984547e-05,2.6118193e-03,3.7897572e-04,2.6129825e-03,4.9116209e-04,-5.4028780e-04,2.1919589e-04,-9.3684971e-03,-1.2909288e-02,8.2766566e-03
1.7798202e+00,-1.5650526e-04,-1.4608941e-04,2.2482048e-05,-2.4950409e-03,-5.2832779e-03,-2.4952711e-03,9.5351934e-04,-8.8075212e-04,1.2374910e-04,4.6235769e-02,-3.4046464e-02,-9.5446879e-03
1.7898202e+00,-2.0648262e-04,-2.0875405e-04,8.6325018e-06,-5.0053850e-03,-6.2579081e-03,-5.0008201e-03,1.1242664e-03,-5.8810450e-04,-1.2037243e-04,1.7074720e-02,2.9264790e-02,-2.4412176e-02
1.7998202e+00,-1.9041789e-04,-8.3356841e-05,3.5072544e-05,1.6104545e-03,1.2537312e-02,1.6213198e-03,3.5144540e-04,-1.1497588e-03,2.6612936e-04,-7.7282172e-02,-5.6165480e-02,3.8650216e-02
1.8098202e+00,-2.5776981e-04,-2.5126413e-04,-6.9538841e-06,-6.7357198e-03,-1.6790327e-02,-6.7357205e-03,1.0374423e-04,4.1631612e-05,1.8123377e-04,-2.4770141e-02,1.1913915e-01,-8.4895666e-03
1.8198202e+00,-2.4131762e-04,-4.9623536e-04,2.2643588e-05,1.6172252e-03,-2.4498044e-02,1.6595415e-03,1.1217552e-03,5.6395831e-04,3.1239981e-04,1.0180120e-01,5.2232719e-02,1.3116617e-02
1.8298202e+00,-1.8252606e-04,-3.9562676e-04,7.3588723e-05,5.8909873e-03,1.0049898e-02,5.8860854e-03,1.4328224e-03,-4.3125439e-04,4.3939416e-04,3.1106751e-02,-9.9521365e-02,1.2699447e-02
1.8398204e+00,-1.7770706e-04,-3.9345374e-04,7.1724016e-05,4.8197085e-04,2.1637769e-04,4.8222194e-04,1.4729675e-03,-4.3442092e-04,4.9434038e-04,4.0144103e-03,-3.1664534e-04,5.4944959e-03
1.8498204e+00,-2.5542540e-04,-4.6706130e-04,-3.9135894e-05,-7.7724391e-03,-7.3668055e-03,-7.7655164e-03,3.8916669e-04,1.1670135e-03,2.9158672e-04,-1.0838018e-01,1.6014359e-01,-2.0275385e-02
1.8598204e+00,-2.0464353e-04,-2.6997687e-04,3.0708699e-05,5.0932526e-03,1.9701631e-02,5.0896042e-03,8.0485920e-04,-5.3845606e-04,1.5760867e-04,4.1569290e-02,-1.7054711e-01,-1.3397818e-02
1.8698204e+00,-1.7281297e-04,-3.0925980e-04,-8.2278158e-06,3.1784149e-03,-3.9295847e-03,3.1861075e-03,7.3212646e-04,3.2697151e-04,5.5485178e-04,-7.2732802e-03,8.6542840e-02,3.9724349e-02
1.8798203e+00,-1.9176685e-04,-2.8850350e-04,-2.1002884e-05,-1.8927832e-03,2.0765613e-03,-1.8969747e-03,7.9351040e-04,3.0260058e-04,5.0551516e-04,6.1383994e-03,-2.4370953e-03,-4.9336662e-03
1.8898203e+00,-2.1363845e-04,-2.8555871e-04,-4.3836909e-05,-2.1860858e-03,2.9637292e-04,-2.1879831e-03,1.0667821e-03,2.0086167e-04,3.4804345e-04,2.7327193e-02,-1.0173901e-02,-1.5747186e-02
1.8998203e+00,-1.8785643e-04,-1.6374591e-04,-1.6566364e-05,2.5834026e-03,1.2179296e-02,2.5824241e-03,5.5179464e-04,-2.2110803e-04,5.9065742e-04,-5.1498792e-02,-4.2197011e-02,2.4261420e-02
1.9098203e+00,-3.6751536e-04,-9.8243478e-05,3.8517325e-05,-1.7978737e-02,6.5632617e-03,-1.7948322e-02,-2.1129267e-05,-7.4603624e-04,-7.0646332e-04,-5.7292445e-02,-5.2492871e-02,-1.2971220e-01
1.9198203e+00,-2.9740221e-04,-2.0394920e-04,1.1251276e-06,7.0059427e-03,-1.0578720e-02,7.0044222e-03,7.1088024e-04,-4.5037924e-04,-3.0488724e-04,7.3201021e-02,2.9565728e-02,4.0157646e-02
1.9298203e+00,-2.9094505e-04,-2.0618383e-04,2.0084398e-06,6.4570388e-04,-2.2429454e-04,6.4544080e-04,8.4256246e-04,-4.4617227e-04,-2.7228679e-04,1.3168234e-02,4.2069713e-04,3.2600477e-03
1.9398203e+00,-2.9221609e-04,-1.3099007e-04,1.1114592e-05,-1.2103195e-04,7.5195823e-03,-1.2110392e-04,8.0880027e-04,-7.9667980e-04,-7.6904928e-05,-3.3762225e-03,-3.5050787e-02,1.9538205e-02
1.9498203e+00,-3.4799972e-04,-1.9761068e-04,-2.8725193e-05,-5.5813673e-03,-6.6587784e-03,-5.5792952e-03,3.7461243e-04,-2.1487169e-04,-9.0308792e-05,-4.3418825e-02,5.8180866e-02,-1.3403876e-03
1.9598203e+00,-3.8687805e-04,-3.9442661e-04,-9.5697812e-06,-3.8907159e-03,-1.9684871e-02,-3.8684087e-03,6.9775131e-05,9.1047757e-04,-3.8740777e-04,-3.0483759e-02,1.1253503e-01,-2.9709926e-02
1.9698203e+00,-3.0862007e-04,-5.3597274e-04,1.6038228e-05,7.8078223e-03,-1.4157962e-02,7.8377233e-03,1.2022087e-03,7.7389758e-04,1.2276372e-04,1.1324347e-01,-1.3658012e-02,5.1017197e-02
1.9798203e+00,-2.8593726e-04,-4.6568248e-04,2.0829440e-05,2.2761290e-03,7.0271278e-03,2.2663225e-03,1.2132795e-03,3.7627777e-04,3.0009846e-04,1.1070768e-03,-3.9762019e-02,1.7733492e-02
1.9898202e+00,-2.9148312e-04,-3.0283295e-04,1.3200006e-05,-5.4159652e-04,1.6285517e-02,-5.5132504e-04,7.8520221e-04,-2.1244320e-04,3.6583281e-04,-4.2807766e-02,-5.8872154e-02,6.5734413e-03
1.9998202e+00,-3.0225585e-04,-1.9692543e-04,2.7801316e-05,-1.0686684e-03,1.0592585e-02,-1.0678796e-03,7.9026151e-04,-9.0897606e-04,2.1870434e-04,5.0593011e-04,-6.9653352e-02,-1.4712861e-02
2.0098202e+00,-3.1918736e-04,-9.6915780e-05,7.8324683e-05,-1.6868629e-03,1.0004416e-02,-1.6790378e-03,5.8327184e-04,-1.4564818e-03,2.6942212e-04,-2.0698987e-02,-5.4750627e-02,5.0717827e-03
2.0198202e+00,-3.1242058e-04,-2.2661047e-04,5.4404398e-05,6.6549126e-04,-1.2970588e-02,6.6647165e-04,8.5817729e-04,-7.9128148e-04,8.4338893e-05,2.7490572e-02,6.6520096e-02,-1.8508340e-02
2.0298202e+00,-3.2506813e-04,-3.0674354e-04,4.4292327e-05,-1.2730083e-03,-8.0117771e-03,-1.2662228e-03,1.0045145e-03,-2.0861217e-04,-1.6078543e-04,1.4633731e-02,5.8266987e-02,-2.4512456e-02
2.0398202e+00,-2.8345779e-04,-2.9979524e-04,-1.0091916e-05,4.1607387e-03,6.9338067e-04,4.1615780e-03,7.5585566e-04,4.0733310e-04,1.9769845e-04,-2.4865904e-02,6.1594586e-02,3.5848422e-02
2.0498202e+00,-3.2403129e-04,-5.6477633e-05,2.4488509e-05,-4.0476357e-03,2.4338994e-02,-4.0236760e-03,4.4686520e-04,-1.3364611e-03,-2.8487980e-04,-3.0899075e-02,-1.7437959e-01,-4.8257871e-02
2.0598202e+00,-3.0223940e-04,-3.5402285e-05,2.8339818e-05,2.1803978e-03,2.1041458e-03,2.1812602e-03,2.6369798e-04,-1.2918994e-03,-2.9870995e-04,-1.8316740e-02,4.4561727e-03,-1.3830164e-03
2.0698202e+00,-3.0283814e-04,-2.1231159e-04,3.2248996e-05,-7.1795960e-05,-1.7690877e-02,-6.7064057e-05,6.7326845e-04,-4.0715698e-04,-1.8327459e-04,4.0957086e-02,8.8474328e-02,1.1543547e-02
2.0798202e+00,-2.8600367e-04,-2.3769575e-04,3.3800371e-05,1.6819285e-03,-2.5402179e-03,1.6822531e-03,7.0757430e-04,-3.6180540e-04,-1.6432813e-04,3.4305884e-03,4.5351626e-03,1.8946479e-03
2.0898204e+00,-2.8373028e-04,-1.2328453e-04,2.0658898e-05,2.3373191e-04,1.1440543e-02,2.3660332e-04,5.5761011e-04,-8.1191763e-04,-8.2304030e-05,-1.4996076e-02,-4.5010193e-02,8.2022218e-03
2.0998204e+00,-3.1259657e-04,-9.6212290e-05,-9.0991607e-06,-2.8866413e-03,2.7111766e-03,-2.8829120e-03,3.6534723e-04,-1.0038316e-03,-3.4622292e-04,-1.9226306e-02,-1.9191417e-02,-2.6391914e-02
2.1098204e+00,-3.3332209e-04,-2.2619675e-04,-4.4997909e-05,-2.0767043e-03,-1.2997739e-02,-2.0729109e-03,3.0619383e-04,-4.0544381e-05,-8.2057795e-05,-5.9153463e-03,9.6328816e-02,2.6416538e-02
2.1198204e+00,-3.3119738e-04,-3.6961158e-04,-5.2804972e-06,2.0389545e-04,-1.4341510e-02,2.1981866e-04,5.9846953e-04,5.1280514e-04,-3.4113771e-05,2.9227598e-02,5.5335004e-02,4.7944070e-03
2.1298203e+00,-2.6045960e-04,-4.5539497e-04,7.0299973e-05,7.0606514e-03,-8.5886551e-03,7.0743982e-03,1.4602445e-03,1.7884765e-06,8.4712740e-05,8.6177584e-02,-5.1101715e-02,1.1882662e-02
2.1398203e+00,-2.9452404e-04,-2.9600039e-04,3.4415519e-05,-3.3928252e-03,1.5943122e-02,-3.4029624e-03,8.7780283e-04,-1.9534100e-04,-1.0905786e-04,-5.8244227e-02,-1.9712967e-02,-1.9377079e-02
2.1498203e+00,-4.1484084e-04,-2.8602906e-04,-9.3245887e-06,-1.2035706e-02,9.9250704e-04,-1.2028059e-02,1.7805744e-04,5.6275663e-04,-3.4847673e-04,-6.9974605e-02,7.5809835e-02,-2.3941909e-02
2.1598203e+00,-3.5121519e-04,-2.1875271e-04,-1.4470854e-05,6.3650310e-03,6.7230101e-03,6.3650070e-03,4.7760436e-04,-2.5022804e-04,1.1831427e-04,2.9954721e-02,-8.1298544e-02,4.6679144e-02
2.1698203e+00,-3.1922460e-04,-4.9030710e-04,3.6487441e-05,3.1611327e-03,-2.7158867e-02,3.2078725e-03,1.3606819e-03,2.8890155e-04,3.0505779e-04,8.8307835e-02,5.3913010e-02,1.8674370e-02
2.1798203e+00,-2.9594709e-04,-4.5292221e-04,7.1873104e-05,2.3327586e-03,3.7352916e-03,2.3278811e-03,1.4150669e-03,4.1551545e-05,1.2134426e-04,5.4385050e-03,-2.4735024e-02,-1.8371370e-02
2.1898203e+00,-3.2253280e-04,-2.6230653e-04,4.8125086e-05,-2.6429768e-03,1.9064991e-02,-2.6496934e-03,8.1640110e-04,-4.6760991e-04,1.2921887e-05,-5.9866634e-02,-5.0916194e-02,-1.0842248e-02
2.1998203e+00,-3.4401810e-04,-7.8790150e-05,3.0305341e-05,-2.1439422e-03,1.8355275e-02,-2.1220331e-03,2.5766729e-04,-1.4361808e-03,-6.4874722e-05,-5.5873434e-02,-9.6857182e-02,-7.7796683e-03
2.2098203e+00,-3.4583043e-04,-2.1833914e-04,-2.1691710e-05,-1.9002063e-04,-1.3954703e-02,-1.8820094e-04,6.3265173e-04,-4.9622226e-04,2.2680650e-04,3.7498479e-02,9.3995944e-02,2.9168150e-02
2.2198203e+00,-3.1716374e-04,-2.5383198e-04,2.6808256e-05,2.8629878e-03,-3.5523159e-03,2.8666007e-03,8.1462740e-04,-2.4223553e-04,2.7590071e-04,1.8197585e-02,2.5398697e-02,4.9094255e-03
2.2298203e+00,-2.0923736e-04,-1.4005562e-04,8.4341227e-05,1.0798108e-02,1.1359131e-02,1.0806681e-02,9.1202888e-04,-8.0235818e-04,4.5506816e-04,9.7401574e-03,-5.6012319e-02,1.7916761e-02
2.2398202e+00,-3.1173651e-04,-1.1549478e-04,4.4031194e-05,-1.0253007e-02,2.4706764e-03,-1.0243333e-02,3.4505958e-04,-1.0789208e-03,-3.8354829e-04,-5.6696984e-02,-2.7656293e-02,-8.3861724e-02
2.2498202e+00,-2.3193588e-04,-1.0684111e-04,-1.6626875e-06,7.9832728e-03,8.5482679e-04,7.9780046e-03,2.9894008e-04,-1.0223134e-03,-3.6891294e-04,-4.6119542e-03,5.6607552e-03,1.4635362e-03
2.2598202e+00,-1.4668324e-04,-1.8957739e-04,-2.2231260e-05,8.5155676e-03,-8.2776592e-03,8.5310623e-03,6.6103353e-04,1.8873499e-04,4.9640500e-04,3.6209380e-02,1.2110495e-01,8.6531877e-02
2.2698202e+00,-1.6611806e-04,-3.3519608e-04,-3.2290115e-05,-1.9529745e-03,-1.4562652e-02,-1.9281520e-03,7.4940552e-04,1.1510575e-03,7.3140826e-04,8.8372068e-03,9.6232345e-02,2.3500348e-02
2.2798202e+00,-2.1015999e-04,-2.5411226e-04,4.7324853e-06,-4.3958001e-03,8.1153065e-03,-4.3998446e-03,1.0481911e-03,-5.2352535e-04,-2.3762099e-05,2.9878586e-02,-1.6745845e-01,-7.5517108e-02
2.2898202e+00,-2.1723112e-04,-2.6035283e-04,1.7882376e-05,-7.0762634e-04,-6.2297769e-04,-7.0755215e-04,7.9121195e-04,-7.3600782e-04,-2.7823756e-05,-2.5697939e-02,-2.1248266e-02,-4.0616606e-04
2.2998202e+00,-2.3265818e-04,-2.1167224e-04,5.0030576e-05,-1.5407697e-03,4.8692306e-03,-1.5409624e-03,2.3750670e-04,-5.1875127e-04,5.0650216e-04,-5.5370578e-02,2.1725675e-02,5.3432642e-02
2.3098202e+00,-2.1331067e-04,-8.1848788e-05,8.9268887e-05,1.9402434e-03,1.2978821e-02,1.9528926e-03,4.6914062e-04,-1.3512564e-03,3.0964478e-04,2.3163414e-02,-8.3250588e-02,-1.9685756e-02
2.3198202e+00,-1.9258096e-04,-1.4059113e-04,6.7664565e-05,2.0680709e-03,-5.8781644e-03,2.0667364e-03,7.0145397e-04,-1.1939810e-03,3.7699110e-04,2.3231357e-02,1.5727549e-02,6.7346387e-03
2.3298202e+00,-1.6411622e-04,-4.4000374e-04,-5.6186804e-05,2.8237201e-03,-2.9940299e-02,2.8793653e-03,6.9143255e-04,1.0303888e-03,7.2112811e-04,-1.0021426e-03,2.2243720e-01,3.4413734e-02
2.3398204e+00,-1.7480018e-04,-1.8588037e-04,5.2209556e-05,-1.0613643e-03,2.5412801e-02,-1.0503151e-03,2.6007555e-04,-7.2611833e-04,3.7282880e-04,-4.3134713e-02,-1.7564670e-01,-3.4829134e-02
2.3498204e+00,-2.7315098e-04,-4.1760746e-04,8.3780608e-05,-9.8497463e-03,-2.3171406e-02,-9.8235370e-03,5.8622181e-04,4.5220461e-04,-1.0919720e-04,3.2614658e-02,1.1783241e-01,-4.8202646e-02
2.3598204e+00,-2.0645604e-04,-3.1190421e-04,1.8855332e-05,6.6716216e-03,1.0570070e-02,6.6678002e-03,6.3168183e-04,5.9208008e-04,6.8272823e-04,4.5460060e-03,1.3987561e-02,7.9192619e-02
2.3698204e+00,-3.4361606e-04,-2.3186100e-04,-7.4538996e-06,-1.3697423e-02,8.0124282e-03,-1.3729858e-02,7.9978400e-04,2.0889896e-04,8.8803655e-04,1.6810232e-02,-3.8318149e-02,2.0530852e-02
2.3798203e+00,-7.5935635e-04,-2.4856170e-04,4.9711946e-05,-4.1569411e-02,-1.6089759e-03,-4.1581135e-02,7.8730410e-04,-6.8214603e-04,1.4334382e-04,-1.2479903e-03,-8.9104585e-02,-7.4469345e-02
2.3898203e+00,-1.0588736e-03,-4.7110756e-04,-2.0361267e-05,-2.9977050e-02,-2.2201787e-02,-2.9965635e-02,1.5242523e-03,-2.3832846e-04,2.8663872e-04,7.3694891e-02,4.4381800e-02,1.4329504e-02
2.3998203e+00,-1.4298237e-03,-5.6342957e-04,-2.7667624e-05,-3.7117168e-02,-9.1797981e-03,-3.7085929e-02,1.3284168e-03,-8.4290345e-05,-2.6658428e-04,-1.9583574e-02,1.5403826e-02,-5.5322352e-02
2.4098203e+00,-1.6614930e-03,-3.3812066e-04,5.1843458e-05,-2.3155309e-02,2.2604595e-02,-2.3106740e-02,8.4169105e-04,-2.3425444e-03,-3.1636975e-04,-4.8672617e-02,-2.2582562e-01,-4.9785518e-03
2.4198203e+00,-1.9546948e-03,-6.5145899e-04,4.8626242e-05,-2.9354084e-02,-3.1284052e-02,-2.9339493e-02,1.3100515e-03,-3.8773078e-04,2.4371295e-04,4.6836090e-02,1.9548154e-01,5.6008323e-02
2.4298203e+00,-1.7787393e-03,-9.0964663e-04,9.1434951e-06,1.7498399e-02,-2.5856735e-02,1.7636702e-02,2.2733510e-03,1.1273528e-04,2.1816832e-03,9.6330046e-02,5.0046654e-02,1.9379721e-01
2.4398203e+00,-1.9241928e-03,-8.6868101e-04,4.2260782e-05,-1.4493790e-02,4.1346269e-03,-1.4586023e-02,2.2678306e-03,-3.4857577e-04,2.9003411e-03,-5.5204722e-04,-4.6131149e-02,7.1865853e-02
2.4498203e+00,-2.6207643e-03,-8.5422201e-04,1.2914040e-05,-6.9536385e-02,1.6466047e-03,-6.9773402e-02,2.1462645e-03,-7.3385368e-04,1.6864608e-03,-1.2156622e-02,-3.8527829e-02,-1.2138815e-01
2.4598203e+00,-3.3978672e-03,-1.3113356e-03,5.9454028e-05,-7.7815685e-02,-4.5342623e-02,-7.7820930e-02,4.2087692e-03,-5.3087048e-04,1.1108582e-03,2.0625067e-01,2.0298340e-02,-5.7560316e-02
2.4698203e+00,-4.2435230e-03,-1.7070183e-03,3.1266467e-05,-8.4752279e-02,-3.9192864e-02,-8.4553687e-02,5.3046516e-03,8.7139953e-04,2.6121369e-04,1.0958834e-01,1.4022714e-01,-8.4964530e-02
2.4798203e+00,-5.2398194e-03,-1.5465637e-03,1.2761176e-04,-9.9545902e-02,1.6645608e-02,-9.9615063e-02,4.9374928e-03,-1.0881866e-03,3.4027295e-05,-3.6715918e-02,-1.9595880e-01,-2.2718661e-02
2.4898202e+00,-6.0200615e-03,-1.8863023e-03,1.0159704e-04,-7.8211370e-02,-3.3548252e-02,-7.8021151e-02,5.5264745e-03,7.7859573e-05,-6.6808584e-06,5.8898228e-02,1.1660473e-01,-4.0708192e-03
2.4998202e+00,-6.5684664e-03,-2.0131810e-03,4.2108473e-05,-5.4911160e-02,-1.2327616e-02,-5.4852050e-02,6.2939202e-03,-2.7072748e-04,1.4869054e-04,7.6744643e-02,-3.4858739e-02,1.5537155e-02
2.5098202e+00,-7.0541101e-03,-1.9033210e-03,6.8738586e-05,-4.8511690e-02,1.1347233e-02,-4.8534039e-02,6.1441004e-03,-1.2988169e-03,-3.2319580e-04,-1.4981996e-02,-1.0280904e-01,-4.7188679e-02
2.5198202e+00,-7.5539361e-03,-1.6576867e-03,1.5743531e-04,-4.9849393e-02,2.4946989e-02,-4.9925745e-02,5.5467607e-03,-2.1356075e-03,-7.5136973e-05,-5.9734020e-02,-8.3679144e-02,2.4805906e-02
2.5298202e+00,-8.2384265e-03,-1.8649844e-03,1.9300795e-04,-6.8586377e-02,-2.0216421e-02,-6.8465224e-02,6.0077649e-03,-1.4866820e-03,-2.0420408e-04,4.6100459e-02,6.4892619e-02,-1.2906723e-02
2.5398202e+00,-8.6882582e-03,-2.1791791e-03,4.3995323e-05,-4.5187339e-02,-3.1015481e-02,-4.5058962e-02,7.1031632e-03,-1.8590561e-03,3.9835201e-04,1.0953993e-01,-3.7237445e-02,6.0255666e-02
2.5498202e+00,-9.5547541e-03,-2.7840856e-03,2.1730176e-04,-8.7086724e-02,-5.9716299e-02,-8.6748608e-02,8.4166068e-03,-4.9551898e-04,7.9591315e-04,1.3134449e-01,1.3635384e-01,3.9756152e-02
2.5598202e+00,-1.0206471e-02,-2.9385633e-03,3.1383434e-04,-6.5250883e-02,-1.4749432e-02,-6.5254241e-02,9.5353367e-03,-1.1682373e-03,9.9946466e-04,1.1187310e-01,-6.7271892e-02,2.0355171e-02
2.5698202e+00,-1.0667329e-02,-3.0698530e-03,3.0856899e-04,-4.6145099e-02,-1.2575449e-02,-4.6180883e-02,1.0667978e-02,-1.3243290e-03,1.6956469e-03,1.1326424e-01,-1.5609191e-02,6.9618289e-02
2.5798202e+00,-1.1536176e-02,-3.0918509e-03,2.5409835e-04,-8.6869063e-02,-1.3085689e-03,-8.6918454e-02,9.2171219e-03,-1.0391649e-03,3.7154564e-04,-1.4508575e-01,2.8516435e-02,-1.3241025e-01
2.5898204e+00,-1.2158119e-02,-3.3931979e-03,1.7103268e-04,-6.2453326e-02,-2.9443147e-02,-6.2262873e-02,1.0205303e-02,-8.7722708e-04,7.0556566e-04,9.8815840e-02,1.6193415e-02,3.3401237e-02
2.5998204e+00,-1.2869815e-02,-3.7752998e-03,2.7635012e-04,-7.1525893e-02,-3.7443116e-02,-7.1220227e-02,1.1263039e-02,5.1784550e-04,9.7750915e-04,1.0577376e-01,1.3950739e-01,2.7194375e-02
2.6098204e+00,-1.3565911e-02,-4.3587295e-03,2.5030898e-04,-7.0259490e-02,-5.7619835e-02,-6.9559202e-02,1.2513299e-02,2.1890437e-03,1.0738018e-03,1.2502607e-01,1.6711998e-01,9.6292760e-03
2.6198204e+00,-1.4563386e-02,-4.2982195e-03,3.7155001e-04,-9.9654200e-02,7.1487732e-03,-9.9768158e-02,1.2382947e-02,1.3722173e-03,1.0771847e-04,-1.3035174e-02,-8.1682713e-02,-9.6608427e-02
2.6298203e+00,-1.5345298e-02,-4.5443476e-03,2.2910559e-04,-7.8466156e-02,-2.3601442e-02,-7.8227753e-02,1.3483795e-02,5.7694555e-04,6.3785630e-04,1.1008483e-01,-7.9527254e-02,5.3013833e-02
2.6398203e+00,-1.6247634e-02,-4.6746400e-03,2.3819984e-04,-9.0394484e-02,-1.1799521e-02,-9.0241992e-02,1.3599410e-02,-1.5965236e-05,8.9466106e-05,1.1561573e-02,-5.9291135e-02,-5.4839071e-02
2.6498203e+00,-1.6930311e-02,-4.9891704e-03,3.0424175e-04,-6.8670890e-02,-3.0520528e-02,-6.8286615e-02,1.4560220e-02,9.4805105e-04,6.9598791e-04,9.6081057e-02,9.6401720e-02,6.0652239e-02
2.6598203e+00,-1.7660493e-02,-5.2397201e-03,3.2551765e-04,-7.3374532e-02,-2.3883769e-02,-7.3053609e-02,1.6078187e-02,8.1583386e-05,5.0815875e-04,1.5179686e-01,-8.6646849e-02,-1.8782934e-02
2.6698203e+00,-1.8402187e-02,-5.4184775e-03,3.2894277e-04,-7.4438917e-02,-1.6696710e-02,-7.4174416e-02,1.6265951e-02,4.0037553e-04,1.5556162e-04,1.8776391e-02,3.1879245e-02,-3.5259747e-02
2.6798203e+00,-1.8912972e-02,-5.5645018e-03,3.7909656e-04,-5.1258770e-02,-1.3736924e-02,-5.1138119e-02,1.7098546e-02,1.9449142e-04,1.2131030e-03,8.3259592e-02,-2.0588431e-02,1.0575424e-01
2.6898203e+00,-1.9734981e-02,-5.8237134e-03,3.4282310e-04,-8.2555764e-02,-2.4553812e-02,-8.2265118e-02,1.7795874e-02,1.2091848e-03,1.1357822e-03,6.9732919e-02,1.0146943e-01,-7.7320946e-03
2.6998203e+00,-2.0478990e-02,-5.6158995e-03,4.5212329e-04,-7.3952928e-02,2.2088209e-02,-7.4471116e-02,1.6956794e-02,-6.4779406e-04,1.1413201e-03,-8.3908092e-02,-1.8569806e-01,5.5379434e-04
2.7098203e+00,-2.1383975e-02,-6.0906979e-03,3.9016291e-04,-9.1281199e-02,-4.5783780e-02,-9.0586520e-02,1.7933715e-02,-7.2407304e-04,5.9966245e-04,9.7692165e-02,-7.6279051e-03,-5.4165817e-02
2.7198203e+00,-2.2279813e-02,-6.4299492e-03,4.2481360e-04,-9.0198709e-02,-3.2101890e-02,-8.9639000e-02,1.9034894e-02,-1.2498152e-03,1.6459397e-04,1.1011800e-01,-5.2574270e-02,-4.3506890e-02
2.7298203e+00,-2.2904614e-02,-6.8882178e-03,5.0247954e-04,-6.3386557e-02,-4.4635330e-02,-6.2429627e-02,1.9860360e-02,9.3289381e-04,-1.3952326e-04,8.2546713e-02,2.1827111e-01,-3.0411752e-02
2.7398202e+00,-2.3501643e-02,-7.0678009e-03,5.2459438e-04,-6.0042291e-02,-1.6837694e-02,-5.9689338e-02,2.0089947e-02,1.3791496e-03,1.5800415e-04,2.2958666e-02,4.4625624e-02,2.9752769e-02
2.7498202e+00,-2.4165878e-02,-7.2722928e-03,6.1305283e-04,-6.6731727e-02,-1.9034812e-02,-6.6534926e-02,2.1465820e-02,2.4109364e-04,1.7363773e-03,1.3758749e-01,-1.1380571e-01,1.5783747e-01
2.7598202e+00,-2.5030549e-02,-7.6497763e-03,5.7820122e-04,-8.7149575e-02,-3.5881830e-02,-8.6576736e-02,2.1985593e-02,5.0176579e-04,1.4625682e-03,5.1977306e-02,2.6067240e-02,-2.7380942e-02
2.7698202e+00,-2.6126578e-02,-8.3098311e-03,6.2840291e-04,-1.1100884e-01,-6.3740960e-02,-1.0952858e-01,2.2957765e-02,2.4526585e-03,7.3436217e-04,9.7217288e-02,1.9508946e-01,-7.2820667e-02
2.7798202e+00,-2.7157015e-02,-8.4477008e-03,6.0791379e-04,-1.0324091e-01,-1.1507141e-02,-1.0312634e-01,2.3623122e-02,1.5318982e-03,9.6831941e-04,6.6535738e-02,-9.2076118e-02,2.3395746e-02
2.7898202e+00,-2.8310472e-02,-8.5700716e-03,6.3027520e-04,-1.1552795e-01,-9.5440253e-03,-1.1541759e-01,2.4062736e-02,7.4292036e-04,6.8296369e-04,4.3961449e-02,-7.8897862e-02,-2.8535599e-02
2.7998202e+00,-2.9652527e-02,-8.9060903e-03,5.9253190e-04,-1.3493661e-01,-3.0128202e-02,-1.3429746e-01,2.5742449e-02,-6.0811182e-05,6.6653528e-04,1.6797148e-01,-8.0373231e-02,-1.6428421e-03
2.8098202e+00,-3.0810241e-02,-9.2778943e-03,5.9614744e-04,-1.1678714e-01,-3.4224534e-02,-1.1566302e-01,2.5982630e-02,5.5633889e-04,-7.6672654e-04,2.4018085e-02,6.1715066e-02,-1.4332632e-01
2.8198202e+00,-3.1760990e-02,-9.6759076e-03,5.7235751e-04,-9.6181553e-02,-3.7309038e-02,-9.4972509e-02,2.7673927e-02,1.6176042e-03,-4.3878313e-04,1.6912992e-01,1.0612664e-01,3.2794373e-02
2.8298202e+00,-3.2906833e-02,-1.0049096e-02,5.3357717e-04,-1.1582777e-01,-3.4176817e-02,-1.1431433e-01,2.9180130e-02,1.8975566e-03,-1.7756047e-03,1.5062044e-01,2.7995264e-02,-1.3368229e-01
2.8398204e+00,-3.3639300e-02,-1.0108540e-02,5.7909698e-04,-7.3391731e-02,-3.9511365e-03,-7.3232701e-02,2.8603613e-02,1.4204388e-03,-9.1707380e-05,-5.7650432e-02,-4.7710693e-02,1.6838588e-01
2.8498204e+00,-3.4374720e-02,-1.0286101e-02,6.9530005e-04,-7.3935337e-02,-1.5572142e-02,-7.3642712e-02,2.9768189e-02,1.7363971e-04,1.3957452e-03,1.1645771e-01,-1.2468002e-01,1.4874540e-01
2.8598204e+00,-3.5310006e-02,-1.0911900e-02,9.1446397e-04,-9.5255901e-02,-5.9664752e-02,-9.3690396e-02,3.2161945e-02,1.3304226e-03,2.5275655e-03,2.3937585e-01,1.1567840e-01,1.1318214e-01
2.8698204e+00,-3.6395629e-02,-1.1270588e-02,9.3614614e-04,-1.0946957e-01,-3.2637887e-02,-1.0867078e-01,3.1942384e-02,2.3410022e-03,1.6840328e-03,-2.1956121e-02,1.0105806e-01,-8.4353349e-02
2.8798203e+00,-3.7762922e-02,-1.1762251e-02,8.8508563e-04,-1.3813293e-01,-4.4958754e-02,-1.3676707e-01,3.2771010e-02,2.1838102e-03,9.8011950e-04,8.2862749e-02,-1.5719212e-02,-7.0391401e-02
2.8898203e+00,-3.9207513e-02,-1.2235030e-02,8.5126217e-04,-1.4583142e-01,-4.2709277e-02,-1.4450346e-01,3.3263791e-02,1.8116440e-03,8.3198506e-04,4.9278061e-02,-3.7216659e-02,-1.4813459e-02
2.8998203e+00,-4.0633313e-02,-1.2776473e-02,9.3267799e-04,-1.4419095e-01,-4.9305131e-02,-1.4271563e-01,3.5693458e-02,1.9851929e-03,1.6154849e-03,2.4296695e-01,1.7354905e-02,7.8350059e-02
2.9098203e+00,-4.2232264e-02,-1.3503493e-02,9.6389525e-04,-1.6244639e-01,-6.7356206e-02,-1.5966505e-01,3.6738732e-02,3.6058599e-03,7.1301194e-05,1.0452757e-01,1.6206686e-01,-1.5441852e-01
2.9198203e+00,-4.3591233e-02,-1.3880659e-02,9.0385237e-04,-1.3719898e-01,-3.2786829e-02,-1.3586757e-01,3.8000614e-02,1.9159363e-03,2.4148070e-04,1.2618826e-01,-1.6899252e-01,1.7017967e-02
2.9298193e+00,-4.5160780e-02,-1.4379759e-02,8.5813919e-04,-1.5878059e-01,-4.4257068e-02,-1.5684582e-01,3.9042073e-02,3.2318391e-03,1.1434423e-04,1.0415596e-01,1.3160296e-01,-1.2714872e-02
2.9398193e+00,-4.6913677e-02,-1.5037292e-02,9.8957708e-04,-1.7780067e-01,-5.9306633e-02,-1.7506059e-01,4.0704605e-02,4.2292803e-03,1.1243463e-04,1.6625330e-01,9.9744217e-02,-1.9096060e-04
2.9498193e+00,-4.8388065e-02,-1.5559380e-02,1.0501065e-03,-1.4930916e-01,-4.6356065e-02,-1.4751322e-01,4.2635793e-02,3.2452347e-03,1.4985433e-03,1.9311907e-01,-9.8404659e-02,1.3861100e-01
2.9598193e+00,-5.0092706e-02,-1.5956689e-02,1.0633559e-03,-1.7179360e-01,-3.2448006e-02,-1.7067149e-01,4.4343782e-02,1.8315425e-03,1.5494049e-03,1.7079902e-01,-1.4136936e-01,5.0861559e-03
2.9698193e+00,-5.1993137e-02,-1.6713258e-02,1.1561493e-03,-1.9322774e-01,-6.7357693e-02,-1.8995479e-01,4.6169616e-02,2.9067597e-03,5.5126153e-04,1.8258360e-01,1.0752183e-01,-9.9814428e-02
2.9798193e+00,-5.3611452e-02,-1.7099261e-02,1.0991007e-03,-1.6338016e-01,-3.1200542e-02,-1.6187162e-01,4.7609592e-02,2.1356475e-03,6.4983440e-04,1.4399769e-01,-7.7111292e-02,9.8572966e-03
2.9898193e+00,-5.5525978e-02,-1.7858661e-02,1.1652509e-03,-1.9499139e-01,-6.6671254e-02,-1.9133360e-01,4.9478393e-02,1.5313351e-03,-8.8933853e-05,1.8688034e-01,-6.0431297e-02,-7.3876896e-02
2.9998193e+00,-5.7339382e-02,-1.8707116e-02,1.1233968e-03,-1.8529485e-01,-7.6075084e-02,-1.8123461e-01,5.1365467e-02,3.5943188e-03,8.9715730e-04,1.8870758e-01,2.0629856e-01,9.8609209e-02
3.0098193e+00,-5.9165708e-02,-1.9051152e-02,1.1148862e-03,-1.8405268e-01,-2.5358944e-02,-1.8268709e-01,5.2245165e-02,2.9529725e-03,6.9767412e-04,8.7969822e-02,-6.4134686e-02,-1.9948337e-02
3.0198193e+00,-6.1015431e-02,-1.9720622e-02,1.0615450e-03,-1.8819038e-01,-5.7406431e-02,-1.8493366e-01,5.3638454e-02,2.5541448e-03,5.6926987e-04,1.3932903e-01,-3.9882812e-02,-1.2840437e-02
3.0298193e+00,-6.2979569e-02,-2.0546912e-02,1.2489596e-03,-2.0067633e-01,-7.2261045e-02,-1.9619319e-01,5.5637722e-02,3.4750769e-03,1.4551457e-04,1.9992704e-01,9.2093298e-02,-4.2375570e-02
3.0398192e+00,-6.4805783e-02,-2.1168701e-02,1.3974276e-03,-1.8565890e-01,-5.1816977e-02,-1.8279298e-01,5.8546855e-02,2.3538176e-03,1.5761987e-03,2.9091356e-01,-1.1212604e-01,1.4306855e-01
3.0498192e+00,-6.7041288e-02,-2.1978688e-02,1.3416670e-03,-2.2790748e-01,-6.8002612e-02,-2.2348272e-01,6.0201080e-02,2.6855465e-03,4.9906189e-04,1.6542261e-01,3.3172925e-02,-1.0771378e-01
3.0598192e+00,-6.8847380e-02,-2.2415722e-02,1.4932417e-03,-1.8248146e-01,-3.2629718e-02,-1.8106697e-01,6.1584381e-02,6.8940653e-04,2.6276352e-03,1.3833024e-01,-1.9961419e-01,2.1285753e-01
3.0698192e+00,-7.1012034e-02,-2.3587388e-02,1.5141250e-03,-2.2286867e-01,-1.0351422e-01,-2.1692671e-01,6.3909179e-02,1.8956935e-03,2.9430774e-03,2.3248000e-01,1.2062881e-01,3.1544248e-02
3.0798192e+00,-7.3364171e-02,-2.4321158e-02,1.8615026e-03,-2.3880627e-01,-5.8464345e-02,-2.3577280e-01,6.5704293e-02,2.9214260e-03,3.0469104e-03,1.7951161e-01,1.0257335e-01,1.0383309e-02
3.0898194e+00,-7.5692097e-02,-2.5554484e-02,1.8233968e-03,-2.4017802e-01,-1.0817097e-01,-2.3281680e-01,6.8389151e-02,4.4504156e-03,2.1153571e-03,2.6847968e-01,1.5289546e-01,-9.3153192e-02
3.0998194e+00,-7.7690651e-02,-2.5660724e-02,1.9405926e-03,-1.9944881e-01,3.3899303e-03,-2.0051452e-01,7.0130796e-02,8.3350964e-05,3.2968213e-03,1.7416468e-01,-4.3670688e-01,1.1814653e-01
3.1098194e+00,-8.0314337e-02,-2.6605627e-02,2.0939430e-03,-2.6770193e-01,-7.5144765e-02,-2.6323407e-01,7.3494204e-02,6.6373664e-04,3.4124682e-03,3.3634111e-01,5.8038623e-02,1.1564700e-02
3.1198194e+00,-8.2885874e-02,-2.7792715e-02,1.9109891e-03,-2.6474807e-01,-9.9183397e-02,-2.5771930e-01,7.6150271e-02,1.4812475e-03,2.6857955e-03,2.6560690e-01,8.1751160e-02,-7.2667345e-02
3.1298194e+00,-8.5364479e-02,-2.8218359e-02,2.1155040e-03,-2.4961932e-01,-2.3281330e-02,-2.4865592e-01,7.7584110e-02,2.2420251e-04,3.2014715e-03,1.4338412e-01,-1.2570461e-01,5.1567653e-02
3.1398194e+00,-8.8168060e-02,-2.9696845e-02,1.8004111e-03,-2.9083532e-01,-1.2523220e-01,-2.8070021e-01,8.0518157e-02,1.4673347e-03,1.8045536e-03,2.9340492e-01,1.2431334e-01,-1.3969192e-01
3.1498194e+00,-9.0850179e-02,-3.0394674e-02,1.8112404e-03,-2.7260323e-01,-4.8378810e-02,-2.6849974e-01,8.0954656e-02,1.9127544e-03,1.3918196e-03,4.3650003e-02,4.4542013e-02,-4.1273438e-02
3.1598194e+00,-9.3327908e-02,-3.1220025e-02,1.7786266e-03,-2.5332723e-01,-6.1451617e-02,-2.4828235e-01,8.4146228e-02,1.3344865e-04,2.0403560e-03,3.1915741e-01,-1.7793074e-01,6.4853695e-02
