time, x, y, z, vx, vy, vz, yaw, pitch, roll, yaw_rate, pitch_rate, roll_rate
0.0000000e+00,0.0000000e+00,0.0000000e+00,0.0000000e+00,0.0000000e+00,0.0000000e+00,0.0000000e+00,0.0000000e+00,0.0000000e+00,0.0000000e+00,0.0000000e+00,0.0000000e+00,0.0000000e+00
9.9999905e-03,-9.9362739e-05,2.5818849e-07,-1.7838736e-04,-9.9440883e-03,2.9459562e-05,-9.9284621e-03,2.1553877e-04,-1.5098351e-04,-7.8639689e-04,2.1553897e-02,-1.5098366e-02,-7.8639764e-02
1.9999981e-02,-1.3523609e-04,1.8209269e-04,-4.1954520e-04,-3.6059166e-03,1.8180369e-02,-3.5844169e-03,-6.9373592e-04,1.6901494e-04,-1.6638903e-03,-9.0927555e-02,3.1999876e-02,-8.7749424e-02
2.9999971e-02,1.7703299e-05,-7.4711363e-04,4.0421440e-04,1.5017373e-02,-9.2931914e-02,1.5498654e-02,2.7059364e-03,1.9372907e-03,1.6390483e-03,3.3996756e-01,1.7682775e-01,3.3029418e-01
3.9999962e-02,3.6133996e-05,-7.3818448e-04,3.9824354e-04,1.8423120e-03,8.9152628e-04,1.8445030e-03,2.7243847e-03,1.9696749e-03,1.7267451e-03,1.8448269e-03,3.2384218e-03,8.7696882e-03
4.9999952e-02,1.5209647e-04,-1.9949245e-04,1.0220766e-04,1.1648170e-02,5.3867469e-02,1.1552439e-02,1.1922405e-03,1.0430302e-03,1.0605490e-03,-1.5321456e-01,-9.2664559e-02,-6.6619680e-02
5.9999943e-02,-9.7641647e-06,2.4749972e-04,-2.2530144e-04,-1.6132114e-02,4.4760492e-02,-1.6070324e-02,1.0639633e-03,-2.7298745e-03,3.9513357e-04,-1.2827736e-02,-3.7729083e-01,-6.6541603e-02
6.9999933e-02,-1.1402451e-04,5.4826757e-05,-3.0455035e-04,-1.0450603e-02,-1.9256497e-02,-1.0421442e-02,9.6615828e-04,-7.0576572e-05,-5.7064798e-04,-9.7805115e-03,2.6593005e-01,-9.6578247e-02
7.9999924e-02,-1.0125878e-04,-1.4533375e-04,-2.1731727e-04,1.2649698e-03,-2.0015694e-02,1.2938922e-03,6.4288690e-04,9.2776075e-04,-9.9055643e-04,-3.2327168e-02,9.9833827e-02,-4.1990885e-02
8.9999914e-02,1.0832754e-04,1.1222754e-04,7.0939814e-05,2.0952238e-02,2.5736858e-02,2.0988746e-02,1.8076663e-04,-7.3913028e-04,5.2800166e-04,-4.6212071e-02,-1.6668926e-01,1.5185595e-01
9.9999905e-02,1.7112978e-04,3.8368766e-04,1.7278421e-04,6.2891015e-03,2.7122477e-02,6.3724714e-03,6.3297448e-04,-3.0929764e-03,1.3223410e-03,4.5220828e-02,-2.3538484e-01,7.9434013e-02
1.0999990e-01,9.2790674e-05,-7.3271289e-06,1.2990731e-05,-7.8315894e-03,-3.9100399e-02,-7.8418192e-03,-5.0014009e-05,-1.9252238e-04,4.7639644e-05,-6.8298914e-02,2.9004568e-01,-1.2747026e-01
1.1999989e-01,-6.2919334e-05,1.1930273e-04,-4.2296465e-04,-1.5605234e-02,1.2648794e-02,-1.5548288e-02,-8.7610448e-04,3.5825360e-05,-1.4865499e-03,-8.2609126e-02,2.2834795e-02,-1.5341910e-01
1.2999988e-01,-4.0210228e-05,4.6190707e-04,-2.8376116e-04,2.2341917e-03,3.4256431e-02,2.3662175e-03,-1.1506978e-03,-2.8594704e-03,-1.1913408e-03,-2.7459360e-02,-2.8952985e-01,2.9520938e-02
1.4000010e-01,1.5875406e-04,-2.5165488e-04,4.2786110e-04,1.9775815e-02,-7.1400615e-02,1.9850496e-02,1.1192969e-03,-1.1978379e-03,2.0224071e-03,2.2699428e-01,1.6615945e-01,3.2136743e-01
1.5000010e-01,1.0516842e-04,2.7973867e-05,3.5189491e-04,-5.3357367e-03,2.7977012e-02,-5.3074571e-03,5.1548740e-04,-2.1269512e-03,1.5695861e-03,-6.0381011e-02,-9.2911421e-02,-4.5282143e-02
1.6000009e-01,8.0514900e-05,-9.7961633e-04,3.0182436e-04,-2.7571804e-03,-1.0075909e-01,-2.1350664e-03,2.9385660e-03,3.3252740e-03,1.7220932e-03,2.4230809e-01,5.4522304e-01,1.5250722e-02
1.7000008e-01,-2.9329826e-05,-9.2300748e-05,-9.4631164e-05,-1.0973475e-02,8.8723279e-02,-1.1062759e-02,1.4806519e-04,9.0617851e-04,-1.9394468e-04,-2.7905035e-01,-2.4190978e-01,-1.9160397e-01
1.8000007e-01,-6.2587289e-05,-8.8292808e-05,-7.8353436e-05,-3.3269684e-03,3.9778550e-04,-3.3248916e-03,4.5319368e-04,1.3583809e-03,-4.2128914e-04,3.0512878e-02,4.5220282e-02,-2.2734467e-02
1.9000006e-01,-6.9596545e-05,1.0121734e-04,-9.3556595e-05,-6.8880108e-04,1.8951173e-02,-7.0909950e-04,6.4711325e-04,4.3845452e-04,-1.9753587e-04,1.9391976e-02,-9.1992726e-02,2.2375348e-02
2.0000005e-01,1.3948049e-04,4.0642086e-04,3.8050194e-05,2.0896994e-02,3.0454444e-02,2.1014327e-02,5.6691660e-04,-2.5782560e-03,1.3397042e-03,-8.0196722e-03,-3.0167134e-01,1.5372416e-01
2.1000004e-01,1.5579884e-04,4.1176686e-04,-2.3779226e-05,1.6299446e-03,5.2950396e-04,1.6353843e-03,5.7605595e-04,-2.5423115e-03,1.3467946e-03,9.1393553e-04,3.5944521e-03,7.0903358e-04
2.2000003e-01,-3.4459408e-05,-1.7256369e-04,-2.0332786e-04,-1.9068011e-02,-5.8464458e-02,-1.8886817e-02,4.8243898e-04,2.1390315e-03,-7.3507224e-04,-9.3617057e-03,4.6813475e-01,-2.0818688e-01
2.3000002e-01,-1.0693336e-04,-2.5781011e-04,-3.9637334e-04,-7.2648861e-03,-8.5333330e-03,-7.2196246e-03,6.8098883e-04,1.8845406e-03,-1.6129975e-03,1.9855004e-02,-2.5449108e-02,-8.7792606e-02
2.4000001e-01,-2.7737665e-05,3.7043064e-04,-2.6481507e-04,7.8851252e-03,6.2810850e-02,8.0581173e-03,-7.1357681e-04,-2.3698608e-03,-1.3115588e-03,-1.3945670e-01,-4.2544055e-01,3.0143891e-02
2.5000000e-01,1.5059932e-04,-9.8632508e-06,2.7286396e-04,1.7799253e-02,-3.8057240e-02,1.7808796e-02,3.2749069e-04,-1.2323384e-03,1.2333055e-03,1.0410685e-01,1.1375235e-01,2.5448668e-01
2.5999999e-01,1.5951174e-04,3.1435465e-04,1.5072469e-04,8.8144451e-04,3.2418930e-02,9.9958541e-04,-2.8110291e-04,-3.3209530e-03,7.6686765e-04,-6.0859418e-02,-2.0886166e-01,-4.6643828e-02
2.6999998e-01,1.4125718e-04,1.2065502e-05,-1.1066246e-05,-1.8238566e-03,-3.0227650e-02,-1.8483440e-03,-3.4694644e-05,-7.3885248e-04,3.0257898e-04,2.4640850e-02,2.5821030e-01,-4.6428911e-02
2.7999997e-01,2.7772622e-05,4.2761022e-04,-1.5363546e-05,-1.1379429e-02,4.1620411e-02,-1.1072613e-02,-1.2510202e-03,-7.1409401e-03,1.8499897e-03,-1.2163267e-01,-6.4020937e-01,1.5474122e-01
2.8999996e-01,-4.1175832e-05,-8.4758238e-05,-2.0270458e-04,-6.9053128e-03,-5.1235407e-02,-6.8954381e-03,1.3906246e-04,-7.6647972e-05,-4.8393482e-04,1.3900840e-01,7.0642989e-01,-2.3339267e-01
2.9999995e-01,2.1362151e-05,-4.9998559e-05,-4.9767189e-05,6.2533310e-03,3.4791243e-03,6.2525238e-03,-4.9975018e-05,4.5426946e-04,4.7887166e-05,-1.8903766e-02,5.3091794e-02,5.3182249e-02
3.0999994e-01,1.0923674e-05,-2.4292770e-05,-4.6296247e-05,-1.0439084e-03,2.5701520e-03,-1.0448458e-03,1.6545103e-05,4.2772594e-04,-9.7942053e-05,6.6520185e-03,-2.6543548e-03,-1.4582936e-02
3.1999993e-01,1.1981933e-04,1.7104297e-04,-2.2045525e-05,1.0890298e-02,1.9519702e-02,1.0913736e-02,4.1603385e-04,-8.5818802e-04,6.7965922e-04,3.9948913e-02,-1.2859152e-01,7.7760202e-02
3.2999992e-01,6.0346444e-04,9.7670863e-04,6.0887816e-04,4.8168606e-02,8.0048589e-02,4.9409045e-02,5.7596004e-04,-1.0002164e-02,4.9983503e-03,1.5992633e-02,-9.1439845e-01,4.3186952e-01
3.3999991e-01,-8.4434671e-07,-7.7585743e-04,3.6892276e-04,-6.0852214e-02,-1.7523826e-01,-6.0060741e-02,2.8612516e-03,2.5729516e-03,1.3217525e-03,2.2852937e-01,1.2575127e+00,-3.6766014e-01
3.4999990e-01,-1.8205620e-04,-3.1110597e-04,-4.0850201e-04,-1.8110648e-02,4.6454235e-02,-1.8185371e-02,8.6640840e-04,2.0198992e-03,-1.6413470e-03,-1.9948451e-01,-5.5305297e-02,-2.9631023e-01
3.5999990e-01,7.9949965e-04,1.4315059e-03,6.5582262e-04,9.7646519e-02,1.7297800e-01,1.0089530e-01,2.5796745e-04,-1.2605148e-02,5.6293982e-03,-6.0844152e-02,-1.4625061e+00,7.2707521e-01
3.6999989e-01,1.5516793e-04,3.1556989e-04,-9.7739225e-06,-6.4405388e-02,-1.1144042e-01,-6.4725711e-02,5.2881071e-04,-1.8445286e-03,1.3469891e-03,2.7084352e-02,1.0760629e+00,-4.2824132e-01
3.7999988e-01,-8.4479104e-06,-6.7958746e-05,-9.2936231e-05,-1.6373460e-02,-3.8365842e-02,-1.6319338e-02,2.3824466e-04,1.0307313e-03,-1.6646517e-04,-2.9056633e-02,2.8752627e-01,-1.5134557e-01
3.9000010e-01,-2.1608709e-05,-2.3305788e-07,-1.6702946e-04,-1.3148448e-03,6.7734136e-03,-1.3121027e-03,2.4044980e-04,-5.2027540e-04,-3.2188333e-04,2.2050858e-04,-1.5509712e-01,-1.5541460e-02
4.0000010e-01,-1.9695372e-05,-3.6181910e-05,-1.9101304e-04,1.9081304e-04,-3.5949545e-03,1.9061437e-04,1.7307427e-04,-1.7200321e-04,-5.3009258e-04,-6.7375592e-03,3.4827253e-02,-2.0820945e-02
4.1000009e-01,1.4953506e-05,-2.0287676e-05,-1.7844273e-04,3.4678949e-03,1.5872063e-03,3.4629026e-03,3.6811858e-04,-2.7233341e-04,-6.9835234e-04,1.9504449e-02,-1.0033030e-02,-1.6825993e-02
4.2000008e-01,1.0194996e-04,-1.2545171e-05,-4.5943868e-05,8.7017814e-03,7.7596142e-04,8.6973729e-03,2.7930601e-05,2.2457694e-04,-2.4212525e-04,-3.4018830e-02,4.9691082e-02,4.5622752e-02
4.3000007e-01,1.5682564e-04,3.7348278e-04,4.2107249e-04,5.4398786e-03,3.8567561e-02,5.7755096e-03,-7.9016054e-04,-7.0202865e-03,3.1277075e-03,-8.1809192e-02,-7.2448704e-01,3.3698359e-01
4.4000006e-01,-3.8118632e-05,4.4348115e-04,-1.8921563e-04,-1.9518933e-02,7.0418693e-03,-1.9454767e-02,-9.1063226e-04,-3.0711226e-03,-9.2998171e-04,-1.2047183e-02,3.9491677e-01,-4.0576931e-01
4.5000005e-01,-1.4980116e-04,-3.2557918e-05,-1.7274579e-04,-1.1186426e-02,-4.7593204e-02,-1.1195858e-02,1.4399185e-04,-8.1767132e-04,-1.0129716e-03,1.0546251e-01,2.2534534e-01,-8.2989957e-03
4.6000004e-01,9.0673411e-05,-9.3847809e-04,1.4048612e-04,2.3702716e-02,-9.0612834e-02,2.4310232e-02,3.4113820e-03,2.5118209e-03,1.4785310e-03,3.2673932e-01,3.3294954e-01,2.4915049e-01
4.7000003e-01,-1.6435637e-05,-2.2746395e-04,-1.8811676e-04,-1.0679781e-02,7.1090684e-02,-1.0813187e-02,5.2064386e-04,1.5209881e-03,-5.4966616e-04,-2.8907409e-01,-9.9083383e-02,-2.0281991e-01
4.8000002e-01,4.1495567e-06,-6.6895034e-05,-9.2221564e-05,2.0623943e-03,1.6056865e-02,2.0549690e-03,2.4500588e-04,2.2503993e-04,2.9615019e-05,-2.7563825e-02,-1.2959494e-01,5.7928173e-02
4.9000001e-01,2.4805822e-05,-2.1545134e-05,-4.8981817e-05,2.0664374e-03,4.5348762e-03,2.0650785e-03,2.2661116e-04,1.6954157e-04,1.0587450e-04,-1.8394731e-03,-5.5498417e-03,7.6259558e-03
5.0000000e-01,1.6975603e-04,3.2525219e-04,2.8630722e-05,1.4497335e-02,3.4642865e-02,1.4580717e-02,5.8470878e-04,-1.9535718e-03,1.2393017e-03,3.5809796e-02,-2.1231154e-01,1.1334283e-01
5.0999999e-01,6.2215884e-05,5.7929586e-04,-2.5443291e-04,-1.0755740e-02,2.5435645e-02,-1.0678165e-02,-1.4425813e-04,-3.0610309e-03,1.8125893e-04,-7.2896760e-02,-1.1074601e-01,-1.0580438e-01
5.1999998e-01,2.2685663e-05,2.2292661e-04,-1.2954855e-04,-3.9732494e-03,-3.5628816e-02,-4.0057961e-03,6.4283088e-04,-1.4052840e-03,6.7876162e-04,7.8708976e-02,1.6557484e-01,4.9750317e-02
5.2999997e-01,-3.4327267e-05,-1.6796045e-04,-1.6812120e-04,-5.7234286e-03,-3.9095923e-02,-5.6294413e-03,4.6980000e-04,1.7414676e-03,-6.6091467e-04,-1.7303104e-02,3.1467546e-01,-1.3396776e-01
5.3999996e-01,2.1921936e-04,3.4110699e-04,-4.5869098e-05,2.5380224e-02,5.0784965e-02,2.5572511e-02,1.0248374e-03,-3.7608958e-03,1.0493734e-03,5.5503788e-02,-5.5023686e-01,1.7102897e-01
5.4999995e-01,3.5147295e-05,3.2344469e-04,-1.0226721e-04,-1.8379465e-02,-1.6630768e-03,-1.8444533e-02,-7.3754000e-04,-6.3305915e-03,1.4359640e-03,-1.7623790e-01,-2.5696982e-01,3.8659093e-02
5.5999994e-01,1.6510861e-05,2.1187540e-04,-1.7099112e-04,-1.8602652e-03,-1.1147012e-02,-1.9254049e-03,-1.7209949e-04,-5.4072373e-03,7.8304057e-04,5.6544106e-02,9.2335514e-02,-6.5292403e-02
5.6999993e-01,5.5682303e-05,-2.6763863e-04,-1.8678860e-04,3.8965771e-03,-4.7945756e-02,4.0063326e-03,4.9690979e-04,1.9275391e-03,-8.3185585e-04,6.6900991e-02,7.3347834e-01,-1.6148980e-01
5.7999992e-01,1.1978520e-04,-7.6292216e-05,-7.1874932e-05,6.4160816e-03,1.9132083e-02,6.4121968e-03,2.8867428e-04,-1.1310716e-04,-4.0963042e-05,-2.0823571e-02,-2.0406482e-01,7.9089356e-02
5.8999991e-01,1.6754375e-04,-8.3866194e-06,-5.0960859e-06,4.7782433e-03,6.7826848e-03,4.7846675e-03,6.2566956e-04,-1.0231511e-03,3.9030926e-04,3.3699560e-02,-9.1004482e-02,4.3127271e-02
5.9999990e-01,1.2257208e-04,-5.8658606e-04,2.4036610e-04,-4.5981557e-03,-5.7818622e-02,-4.4119408e-03,1.8656694e-03,1.5958612e-03,1.5287401e-03,1.2400010e-01,2.6190148e-01,1.1384319e-01
6.0999990e-01,-1.8386463e-04,-3.4353400e-04,-2.5816605e-04,-3.0672496e-02,2.4275805e-02,-3.0638214e-02,3.8646859e-04,1.3475409e-03,-1.2470732e-03,-1.4792022e-01,-2.4832054e-02,-2.7758159e-01
6.1999989e-01,-1.5842574e-04,-3.8297133e-04,-2.6232530e-04,2.5457137e-03,-3.9406843e-03,2.5467965e-03,3.7750231e-04,1.5771653e-03,-1.3023969e-03,-8.9662895e-04,2.2962463e-02,-5.5323776e-03
6.2999988e-01,2.0064576e-04,2.5487820e-04,5.4820119e-05,3.5917619e-02,6.3645046e-02,3.6144327e-02,9.5736195e-04,-2.9281142e-03,1.4085816e-03,5.7986019e-02,-4.5052838e-01,2.7109811e-01
6.4000010e-01,1.6687737e-05,-9.2537206e-05,-6.1710114e-05,-1.8408533e-02,-3.4738464e-02,-1.8386531e-02,3.4817570e-04,2.2434050e-04,-5.7462102e-05,-6.0917230e-02,3.1523825e-01,-1.4660102e-01
6.5000010e-01,-3.5236737e-05,-1.5704222e-04,-1.1639710e-04,-5.1965030e-03,-6.4529414e-03,-5.1853716e-03,3.8223705e-04,8.5172031e-04,-3.0536204e-04,3.4061381e-03,6.2738040e-02,-2.4790018e-02
6.6000009e-01,-8.8731818e-05,-2.3289796e-04,-3.2897815e-04,-5.3632507e-03,-7.5867424e-03,-5.3340891e-03,9.5047169e-04,1.1705719e-03,-1.2214333e-03,5.6823518e-02,3.1885190e-02,-9.1607215e-02
6.7000008e-01,-3.8963207e-06,1.4431372e-04,-3.2839244e-04,8.5280306e-03,3.7696905e-02,8.5467420e-03,1.1623936e-03,-1.6926315e-03,-7.4461107e-05,2.1192212e-02,-2.8632061e-01,1.1469733e-01
6.8000007e-01,9.5477318e-05,2.3826192e-04,-9.3707270e-05,9.9394279e-03,9.3668896e-03,9.9616635e-03,1.0309712e-03,-1.7771975e-03,7.6711343e-04,-1.3142250e-02,-8.4566146e-03,8.4157534e-02
6.9000006e-01,-1.2789009e-04,-3.8417394e-04,-2.9797918e-04,-2.2444816e-02,-6.2306887e-02,-2.2050290e-02,1.0036891e-03,3.8651366e-03,-2.0431970e-03,-2.7282178e-03,5.6423395e-01,-2.8103131e-01
7.0000005e-01,-2.5403052e-05,-1.4706639e-04,-1.3831657e-04,1.0267537e-02,2.3723346e-02,1.0200676e-02,4.9193261e-04,1.7231846e-03,-6.9889451e-04,-5.1175695e-02,-2.1419540e-01,1.3443037e-01
7.1000004e-01,-1.0556524e-04,-1.1566445e-04,-2.6932959e-04,-8.0218215e-03,3.1422465e-03,-8.0098240e-03,6.9507139e-04,4.3974426e-04,-9.7095177e-04,2.0313897e-02,-1.2834416e-01,-2.7205752e-02
7.2000003e-01,4.9120701e-06,-8.5972779e-05,-9.2804359e-05,1.1050255e-02,2.9716709e-03,1.1044555e-02,3.0771745e-04,5.3426231e-04,-1.4488275e-04,-3.8735431e-02,9.4518149e-03,8.2606981e-02
7.3000002e-01,1.3424084e-04,2.6064157e-04,4.1246404e-05,1.2937045e-02,3.4620161e-02,1.3038938e-02,5.6979253e-04,-2.6114193e-03,1.2048680e-03,2.6207533e-02,-3.1456846e-01,1.3497520e-01
7.4000001e-01,1.2212676e-04,-3.5297216e-06,3.8911714e-05,-1.2179786e-03,-2.6415711e-02,-1.2360367e-03,2.6657465e-04,-9.1430317e-04,3.8999797e-04,-3.0321816e-02,1.6971178e-01,-8.1487077e-02
7.5000000e-01,9.1705391e-05,-6.3992662e-05,-1.0766802e-05,-3.0427131e-03,-6.0445553e-03,-3.0450315e-03,1.9119205e-04,-3.8200545e-04,1.9145815e-04,-7.5382678e-03,5.3229823e-02,-1.9854001e-02
7.5999999e-01,3.8576670e-05,1.3662703e-04,5.6696123e-05,-5.3144470e-03,2.0072737e-02,-5.2705416e-03,-1.8348479e-04,-2.2149624e-03,3.9729397e-04,-3.7467720e-02,-1.8329587e-01,2.0583602e-02
7.6999998e-01,4.9062995e-05,-2.3263811e-04,1.6799996e-04,1.0208964e-03,-3.6927104e-02,1.0564474e-03,7.3647704e-04,1.9732896e-04,5.1609437e-04,9.1996271e-02,2.4122937e-01,1.1880051e-02
7.7999997e-01,6.5936540e-05,-2.3479576e-04,1.9346266e-04,1.6860826e-03,-2.1648920e-04,1.6885360e-03,5.3553137e-04,1.0666828e-04,6.8587771e-04,-2.0094587e-02,-9.0660770e-03,1.6978350e-02
7.8999996e-01,3.3803730e-05,-1.8126337e-04,2.4676219e-04,-3.2073515e-03,5.3558572e-03,-3.2148568e-03,6.1702125e-04,-1.9631870e-04,8.1780551e-04,8.1489958e-03,-3.0298727e-02,1.3192792e-02
7.9999995e-01,-4.4547551e-06,-2.0031821e-04,-1.2408256e-04,-3.8294023e-03,-1.9091330e-03,-3.8204784e-03,6.0226041e-04,1.5571755e-03,-6.2836336e-04,-1.4760856e-03,1.7534959e-01,-1.4461703e-01
8.0999994e-01,-1.0534917e-05,-8.7294234e-05,-8.7673197e-05,-6.0318706e-04,1.1302166e-02,-6.1726588e-04,4.4218171e-04,8.3309081e-04,-2.7653858e-04,-1.6007885e-02,-7.2408543e-02,3.5182511e-02
8.1999993e-01,7.8572131e-05,3.2276174e-04,-9.9599769e-05,8.9410343e-03,4.0970770e-02,9.0397860e-03,9.5141907e-04,-2.9366293e-03,9.7457758e-04,5.0923785e-02,-3.7697237e-01,1.2511174e-01
8.2999992e-01,8.7049195e-05,3.1671131e-04,-9.8742413e-05,8.4622590e-04,-6.0844716e-04,8.4675021e-04,1.0852908e-03,-2.9310433e-03,9.7176541e-04,1.3387185e-02,5.5860239e-04,-2.8121721e-04
8.3999991e-01,1.4400452e-04,2.8272925e-04,-1.8992707e-05,5.6857739e-03,-3.4135065e-03,5.6961456e-03,8.0002743e-04,-1.8846188e-03,1.2358473e-03,-2.8526364e-02,1.0464255e-01,2.6408218e-02
8.4999990e-01,1.1827166e-06,1.0620885e-04,-1.4763866e-04,-1.4292917e-02,-1.7636255e-02,-1.4290984e-02,7.7920963e-04,-3.2662619e-04,2.1193386e-04,-2.0817819e-03,1.5579941e-01,-1.0239145e-01
8.5999990e-01,-4.7310723e-05,-2.6401178e-04,-2.1649169e-04,-4.8782716e-03,-3.7029543e-02,-4.7627310e-03,6.7967769e-04,2.2372982e-03,-7.7588247e-04,-9.9532039e-03,2.5639269e-01,-9.8781727e-02
8.6999989e-01,-9.5093126e-05,-2.9329831e-04,-3.7111978e-04,-4.7887984e-03,-2.9319359e-03,-4.7656513e-03,1.0733889e-03,1.7639459e-03,-1.5525601e-03,3.9371163e-02,-4.7335282e-02,-7.7667834e-02
8.7999988e-01,2.2092379e-04,3.2964474e-04,-1.3651194e-06,3.1623480e-02,6.2145636e-02,3.1871632e-02,1.1597685e-03,-3.5273804e-03,1.5956897e-03,8.6379610e-03,-5.2913313e-01,3.1482528e-01
8.9000010e-01,-4.4432419e-05,-2.0868633e-04,-2.9500112e-04,-2.6590987e-02,-5.3832314e-02,-2.6478030e-02,5.4163025e-04,5.5933421e-04,-1.0112688e-03,-6.1812407e-02,4.0866211e-01,-2.6068988e-01
9.0000010e-01,6.5672781e-05,-1.5922197e-04,-1.1583573e-04,1.1018851e-02,4.9515290e-03,1.0999915e-02,4.3477371e-04,8.9763413e-04,-5.6061734e-04,-1.0685665e-02,3.3830024e-02,4.5065185e-02
9.1000009e-01,8.2231664e-05,1.3998741e-04,-4.3316638e-05,1.6750886e-03,2.9918070e-02,1.6885809e-03,6.7253984e-04,-1.0614129e-03,5.5781605e-04,2.3776635e-02,-1.9590489e-01,1.1184345e-01
9.2000008e-01,1.3053188e-04,2.6545172e-04,5.5400630e-05,4.8306441e-03,1.2532193e-02,4.8662682e-03,5.5358731e-04,-2.3858331e-03,1.3091267e-03,-1.1895264e-02,-1.3244214e-01,7.5131139e-02
9.3000007e-01,1.8806641e-04,2.7748830e-04,7.5192494e-05,5.7461204e-03,1.1833228e-03,5.7649981e-03,7.0677211e-04,-2.8230270e-03,1.4219503e-03,1.5318495e-02,-4.3719434e-02,1.1282366e-02
9.4000006e-01,6.2873895e-05,3.9415795e-05,-4.0795455e-05,-1.2522952e-02,-2.3790791e-02,-1.2546876e-02,3.9996942e-04,-9.1521188e-04,4.6575525e-04,-3.0680299e-02,1.9078169e-01,-9.5619595e-02
9.5000005e-01,-2.1836748e-05,-1.7714877e-04,-1.8218318e-04,-8.4816667e-03,-2.1660381e-02,-8.4504651e-03,3.6312734e-04,8.2527900e-04,-3.2242416e-04,-3.6842117e-03,1.7404925e-01,-7.8818015e-02
9.6000004e-01,2.3961797e-05,-7.4817228e-04,4.0967091e-04,4.4072241e-03,-5.7108607e-02,4.6710124e-03,2.8734852e-03,1.4522591e-03,1.8615344e-03,2.5103602e-01,6.2698067e-02,2.1839607e-01
9.7000003e-01,1.7066430e-04,-5.5177579e-04,5.3777480e-04,1.4688266e-02,1.9592785e-02,1.4714873e-02,3.0823529e-03,-1.0673959e-04,2.8904487e-03,2.0886790e-02,-1.5590001e-01,1.0289153e-01
9.8000002e-01,1.1646124e-04,2.8157155e-05,-8.4362193e-05,-5.3743857e-03,5.7997632e-02,-5.4202221e-03,7.5035689e-04,-4.2704760e-05,4.4419004e-04,-2.3319982e-01,6.4034886e-03,-2.4462610e-01
9.9000001e-01,1.7907230e-04,3.5375930e-04,-4.3591787e-05,6.2787460e-03,3.2536922e-02,6.3638577e-03,8.0447110e-04,-2.8932376e-03,1.3658982e-03,5.4114256e-03,-2.8505355e-01,9.2170905e-02
1.0000000e+00,1.5479811e-04,3.7664910e-04,-2.9001412e-05,-2.4219794e-03,2.2981414e-03,-2.4242009e-03,8.0379853e-04,-2.9694011e-03,1.4824191e-03,-6.7257331e-05,-7.6163612e-03,1.1652103e-02
1.0100000e+00,-1.8342688e-05,5.6301640e-05,-1.5927625e-04,-1.7340589e-02,-3.2024516e-02,-1.7306563e-02,8.1189057e-04,2.1994304e-04,-2.8299271e-05,8.0920530e-04,3.1893472e-01,-1.5107198e-01
1.0200000e+00,-1.1332597e-05,-1.8850813e-04,-1.0187316e-04,6.8477953e-04,-2.4480390e-02,7.3740871e-04,6.7998156e-04,1.5034531e-03,-5.9445579e-04,-1.3190914e-02,1.2835113e-01,-5.6615706e-02
1.0300000e+00,3.9695533e-05,-8.8039269e-05,-5.5912084e-05,5.1056388e-03,1.0048449e-02,5.0969349e-03,2.1587114e-04,5.2059786e-04,-1.2781641e-04,-4.6411086e-02,-9.8285615e-02,4.6663983e-02
1.0400000e+00,7.1980533e-05,-1.2464249e-04,-1.2421645e-04,3.2286067e-03,-3.6590220e-03,3.2298770e-03,3.8883688e-04,7.9257905e-04,-4.7313064e-04,1.7296591e-02,2.7198144e-02,-3.4531455e-02
1.0500000e+00,7.0909607e-05,-1.0937184e-04,-1.6866746e-04,-1.0619936e-04,1.5270391e-03,-1.0836289e-04,6.0868439e-04,8.5528079e-04,-3.3800644e-04,2.1984772e-02,6.2701803e-03,1.3512433e-02
1.0599999e+00,1.4975942e-04,-9.2734871e-05,-6.4904974e-05,7.8834417e-03,1.6598196e-03,7.8873525e-03,1.6029481e-04,-3.3158087e-04,2.2996006e-04,-4.4839001e-02,-1.1868628e-01,5.6796704e-02
1.0699999e+00,1.7653493e-04,2.0653596e-05,3.1591610e-04,2.6768547e-03,1.1331872e-02,2.7076583e-03,3.4388362e-04,-2.2502768e-03,1.7159944e-03,1.8358899e-02,-1.9186978e-01,1.4860357e-01
1.0799999e+00,1.6196578e-04,7.3439962e-06,3.4302424e-04,-1.4548730e-03,-1.3268582e-03,-1.4626894e-03,4.1411540e-04,-2.3951773e-03,1.7791697e-03,7.0231847e-03,-1.4490061e-02,6.3175383e-03
1.0899999e+00,1.1213702e-04,3.3045641e-05,2.9101536e-04,-4.9726575e-03,2.5836913e-03,-4.9860987e-03,6.6895241e-04,-2.0429261e-03,1.7049925e-03,2.5483725e-02,3.5225154e-02,-7.4177308e-03
1.0999999e+00,3.0107120e-05,-1.2063335e-04,-1.7170394e-04,-8.2162701e-03,-1.5368715e-02,-8.1882013e-03,7.0040854e-04,7.9936781e-04,-3.0604675e-04,3.1456162e-03,2.8422966e-01,-2.0110411e-01
1.1099999e+00,-5.9480463e-05,-1.7293939e-04,-1.2638594e-04,-8.9647658e-03,-5.2369558e-03,-8.9490524e-03,4.4550287e-04,1.1549285e-03,-4.0969307e-04,-2.5490591e-02,3.5556106e-02,-1.0364642e-02
1.1199999e+00,-9.3674805e-05,-1.8579218e-04,-1.6188747e-04,-3.4232506e-03,-1.2885523e-03,-3.4143872e-03,6.7281150e-04,1.6315198e-03,-8.6285277e-04,2.2730884e-02,4.7659171e-02,-4.5316013e-02
1.1299999e+00,-1.2830312e-04,-2.4115435e-06,-3.1524082e-04,-3.4432755e-03,1.8342856e-02,-3.4570463e-03,1.2112268e-03,-1.7164379e-04,-7.6699938e-04,5.3841577e-02,-1.8031653e-01,9.5853477e-03
1.1400001e+00,1.6199055e-04,3.3499481e-04,-3.1876362e-05,2.9014722e-02,3.3642827e-02,2.9155028e-02,7.7289967e-04,-2.5621930e-03,1.3787152e-03,-4.3831705e-02,-2.3904945e-01,2.1456655e-01
1.1499343e+00,1.8892095e-04,3.7146794e-04,-4.2571972e-06,2.7089987e-03,3.6616174e-03,2.7260540e-03,7.0371169e-04,-2.9218888e-03,1.6458802e-03,-6.9646337e-03,-3.6207876e-02,2.6893492e-02
1.1599343e+00,8.6623200e-06,-1.6737355e-04,-1.3014799e-04,-1.8066053e-02,-5.3899358e-02,-1.7940143e-02,5.6285900e-04,1.4079551e-03,-5.4634708e-04,-1.4085283e-02,4.3298481e-01,-2.1922294e-01
1.1699343e+00,3.0903356e-05,-2.1413761e-04,-1.9772359e-04,2.2232215e-03,-4.6737787e-03,2.2305127e-03,5.5658441e-04,1.7377698e-03,-7.7318840e-04,-6.2745938e-04,3.2981496e-02,-2.2684153e-02
1.1799343e+00,4.4146852e-05,-1.4171191e-04,-1.7676204e-04,1.3270170e-03,7.2431638e-03,1.3184603e-03,3.1074592e-04,7.5581992e-04,-3.1385486e-04,-2.4583872e-02,-9.8195077e-02,4.5933398e-02
1.1899343e+00,3.9571294e-05,-1.7483840e-04,-1.8806297e-04,-4.5955599e-04,-3.3128961e-03,-4.5377190e-04,5.3624053e-04,1.0746663e-03,-4.8836869e-04,2.2549482e-02,3.1884669e-02,-1.7451400e-02
1.1999342e+00,8.9322153e-06,-2.5897080e-04,-1.8508675e-04,-3.0697280e-03,-8.4168718e-03,-3.0480941e-03,4.6048944e-04,1.6483368e-03,-6.3446527e-04,-7.5751156e-03,5.7367103e-02,-1.4609672e-02
1.2099342e+00,3.1954528e-05,-1.7997955e-04,-1.0297364e-04,2.3054975e-03,7.9010828e-03,2.2922528e-03,2.5822613e-04,1.1081948e-03,-5.3195453e-04,-2.0226350e-02,-5.4014254e-02,1.0251084e-02
1.2199342e+00,9.7600719e-05,-1.0045266e-04,-3.5311324e-05,6.5664338e-03,7.9529139e-03,6.5625529e-03,2.2942405e-04,2.6262193e-04,2.4262821e-06,-2.8802111e-03,-8.4557364e-02,5.3438132e-02
1.2299342e+00,9.4423163e-05,-4.3436915e-05,9.3368353e-06,-3.1597717e-04,5.7017812e-03,-3.1592246e-04,3.0070188e-04,-3.3275484e-04,2.0207417e-04,7.1277897e-03,-5.9537734e-02,1.9964808e-02
1.2399342e+00,5.2152745e-05,-7.1192130e-05,-3.1192308e-05,-4.2275261e-03,-2.7736591e-03,-4.2277897e-03,1.9113909e-04,-2.5003692e-04,1.1863438e-05,-1.0956289e-02,8.2718003e-03,-1.9021092e-02
1.2499342e+00,-7.2514724e-05,-1.1270045e-04,-3.0727606e-04,-1.2482563e-02,-4.1384875e-03,-1.2455044e-02,9.1539562e-04,-7.5040979e-05,-9.6382943e-04,7.2425722e-02,1.7499611e-02,-9.7569380e-02
1.2599342e+00,3.6389840e-05,-4.0079854e-04,-4.5908402e-05,1.0844960e-02,-2.8802043e-02,1.0956293e-02,1.4751102e-03,2.1809407e-03,2.7514329e-04,5.5971507e-02,2.2559839e-01,1.2389739e-01
1.2699342e+00,6.1824810e-05,-7.8917034e-04,4.5106459e-04,2.4302376e-03,-3.8840955e-02,2.5966107e-03,2.7921318e-03,1.2489384e-03,1.8907121e-03,1.3170229e-01,-9.3200328e-02,1.6155703e-01
1.2799342e+00,6.7587363e-05,-7.3064900e-04,4.7558324e-04,5.9078473e-04,5.8509742e-03,5.7337157e-04,2.6920480e-03,7.0732002e-04,2.1205078e-03,-1.0008389e-02,-5.4161886e-02,2.2979599e-02
1.2899342e+00,1.3714732e-04,3.4417073e-04,-1.7902709e-04,6.9293529e-03,1.0747319e-01,7.1179874e-03,-2.3018972e-04,-1.4894496e-03,2.7430125e-04,-2.9222405e-01,-2.1967717e-01,-1.8462083e-01
1.2999341e+00,1.3929739e-04,2.3617158e-04,-3.5170669e-05,2.0616732e-04,-1.0800480e-02,1.9490460e-04,7.8972886e-04,-1.8888284e-03,1.4427601e-03,1.0199196e-01,-3.9937920e-02,1.1684599e-01
1.3099341e+00,1.0582829e-04,2.4907923e-04,-2.8265939e-05,-3.3417081e-03,1.2990173e-03,-3.3489207e-03,7.8661486e-04,-1.6771182e-03,1.2506227e-03,-3.1140026e-04,2.1171041e-02,-1.9213755e-02
1.3199341e+00,-2.0187538e-05,7.6126599e-05,-1.3172941e-04,-1.2615489e-02,-1.7284210e-02,-1.2602880e-02,8.3815462e-04,-3.9755665e-05,4.7406404e-05,5.1539805e-03,1.6373641e-01,-1.2032174e-01
1.3299341e+00,-8.5599573e-06,-1.6995094e-04,-8.5333425e-05,1.1516750e-03,-2.4606849e-02,1.1930585e-03,4.6605299e-04,1.2467743e-03,-3.3069928e-04,-3.7210198e-02,1.2865311e-01,-3.7810604e-02
1.3399341e+00,7.2266910e-05,-1.3642063e-04,-8.3184486e-05,8.0884854e-03,3.3549353e-03,8.0761102e-03,6.5260367e-04,8.8835100e-04,-4.4604535e-04,1.8655086e-02,-3.5842359e-02,-1.1534618e-02
1.3499341e+00,5.8824013e-05,-1.7988398e-04,-1.3255006e-04,-1.3473740e-03,-4.3473050e-03,-1.3380673e-03,5.1679459e-04,1.2388868e-03,-6.2283200e-04,-1.3580921e-02,3.5053614e-02,-1.7678683e-02
1.3599341e+00,-4.5353507e-05,3.0049616e-05,-4.7902569e-04,-1.0443757e-02,2.0985154e-02,-1.0408303e-02,-2.5010089e-04,5.4019913e-04,-1.9932652e-03,-7.6689621e-02,-6.9868834e-02,-1.3704345e-01
1.3699341e+00,5.0198691e-05,-1.7561822e-04,1.6249058e-04,9.5375035e-03,-2.0573527e-02,9.5584639e-03,5.1267224e-04,-1.9112815e-04,7.5115961e-04,7.6277386e-02,-7.3132798e-02,2.7444274e-01
1.3799341e+00,6.7598467e-05,-9.1248989e-05,2.2015847e-04,1.7422334e-03,8.4348139e-03,1.7479718e-03,4.9243513e-04,-7.2194805e-04,1.0914929e-03,-2.0237128e-03,-5.3082041e-02,3.4033365e-02
1.3899343e+00,8.5138505e-05,-4.0400104e-05,3.0974075e-04,1.7535798e-03,5.0819595e-03,1.7624785e-03,4.0803954e-04,-1.1915641e-03,1.4007424e-03,-8.4393665e-03,-4.6960533e-02,3.0924242e-02
1.3999343e+00,1.5831732e-04,2.5883418e-04,-3.2214182e-07,7.3306990e-03,2.9899539e-02,7.4023431e-03,6.7822528e-04,-2.5731297e-03,1.0219231e-03,2.7018600e-02,-1.3815669e-01,-3.7881968e-02
1.4099343e+00,8.3289403e-05,-8.0069956e-05,-3.2341891e-05,-7.5058423e-03,-3.3887550e-02,-7.5128253e-03,1.4784793e-04,-2.3782180e-04,2.6209201e-04,-5.3037786e-02,2.3353101e-01,-7.5983182e-02
1.4199343e+00,8.2036831e-05,-7.6180505e-05,-4.0073633e-05,-1.2514957e-04,3.8902093e-04,-1.2513067e-04,2.4223673e-04,-3.6064255e-04,1.0849122e-04,9.4388897e-03,-1.2282087e-02,-1.5360093e-02
1.4299343e+00,8.5909923e-06,-9.8729469e-05,-2.3179797e-05,-7.3449851e-03,-2.2524196e-03,-7.3449572e-03,3.6840087e-04,3.0899058e-05,5.9354410e-05,1.2616426e-02,3.9154198e-02,-4.9136858e-03
1.4399343e+00,-3.4847548e-05,-1.4318419e-04,-1.0561830e-04,-4.3478649e-03,-4.4479492e-03,-4.3373134e-03,4.9185572e-04,1.0622457e-03,-4.1922902e-04,1.2345497e-02,1.0313476e-01,-4.7858389e-02
1.4499342e+00,-1.8864803e-06,-1.7793686e-04,-1.9728369e-04,3.2960656e-03,-3.4706527e-03,3.3010161e-03,5.2226594e-04,1.9221664e-03,-5.3748219e-04,3.0410243e-03,8.5992152e-02,-1.1825328e-02
1.4599342e+00,1.3533945e-03,2.3740102e-03,9.6785210e-04,1.3378658e-01,2.5247658e-01,1.4218647e-01,-2.0054169e-03,-2.1435833e-02,9.0321707e-03,-2.5276852e-01,-2.3358022e+00,9.5696620e-01
1.4699342e+00,3.0610804e-04,7.6159073e-04,-6.2034177e-05,-1.0460538e-01,-1.6073139e-01,-1.0563319e-01,8.4618328e-05,-4.7682120e-03,1.3073580e-03,2.0900372e-01,1.6667637e+00,-7.7248201e-01
1.4799342e+00,8.2293983e-05,1.7606958e-04,-1.2713412e-04,-2.2429946e-02,-5.8493266e-02,-2.2486632e-02,1.0195423e-03,-1.6067920e-03,4.9875009e-04,9.3492488e-02,3.1614229e-01,-8.0860870e-02
1.4899342e+00,3.2774541e-05,-1.7070360e-04,-1.1590341e-04,-4.9773399e-03,-3.4679871e-02,-4.9086601e-03,6.6781765e-04,1.1835912e-03,-4.5123255e-04,-3.5172500e-02,2.7903860e-01,-9.4998355e-02
1.4999342e+00,-1.9377145e-05,-1.0679670e-04,-2.0157909e-04,-5.2141709e-03,6.3951041e-03,-5.2107707e-03,7.7011444e-04,-7.5548879e-05,-7.5201982e-04,1.0229688e-02,-1.2591413e-01,-3.0078756e-02
1.5099342e+00,-5.3691358e-05,9.4531095e-05,-2.4483657e-04,-3.4118821e-03,2.0140313e-02,-3.4067260e-03,1.0158947e-03,-1.1814144e-03,-2.6585238e-04,2.4578053e-02,-1.1058665e-01,4.8616790e-02
1.5199342e+00,-8.9178131e-05,-1.2724948e-04,-2.4214948e-04,-3.5627232e-03,-2.2176454e-02,-3.5447611e-03,5.2809554e-04,7.1228238e-05,-6.5702762e-04,-4.8779966e-02,1.2526438e-01,-3.9117561e-02
1.5299342e+00,1.2162517e-04,2.1336897e-04,-2.4643245e-05,2.1082532e-02,3.4003204e-02,2.1172690e-02,7.6430633e-04,-2.0129727e-03,1.1305604e-03,2.3621102e-02,-2.0842029e-01,1.7875897e-01
1.5399342e+00,1.2829470e-04,-4.0046153e-04,3.3412356e-04,5.6815129e-04,-6.1384040e-02,6.7269013e-04,1.5952343e-03,8.1226131e-05,1.3201469e-03,8.3092878e-02,2.0942009e-01,1.8958671e-02
1.5499341e+00,-1.7579597e-05,5.4014424e-04,-1.5193343e-04,-1.4693054e-02,9.4107042e-02,-1.4176558e-02,-1.0421358e-03,-4.2862673e-03,-5.2071988e-04,-2.6373726e-01,-4.3674976e-01,-1.8408686e-01
1.5599341e+00,8.1695117e-05,-8.3035635e-05,2.4910889e-04,9.8846508e-03,-6.2334499e-02,9.8667404e-03,5.1215884e-04,-1.1488340e-03,1.0985753e-03,1.5542961e-01,3.1374363e-01,1.6192967e-01
1.5699341e+00,-7.9332862e-05,3.0835565e-05,-1.3570756e-04,-1.6109934e-02,1.1416713e-02,-1.6074720e-02,2.5164915e-04,-1.5873575e-03,-6.2037141e-04,-2.6050994e-02,-4.3852397e-02,-1.7189484e-01
1.5799341e+00,1.1333441e-05,-1.4841777e-04,-8.8954431e-05,9.0594587e-03,-1.7922408e-02,9.0796229e-03,5.9773209e-04,9.2138359e-04,-3.9008109e-04,3.4608327e-02,2.5087435e-01,2.3029054e-02
1.5899341e+00,9.4207569e-06,9.7342218e-05,-9.2853050e-05,-1.7197753e-04,2.4576312e-02,-1.7122860e-04,7.8281739e-04,-8.1733708e-04,2.7401905e-04,1.8508547e-02,-1.7387223e-01,6.6410077e-02
1.5999341e+00,-1.7249492e-05,3.1523734e-05,-1.4822597e-04,-2.6727423e-03,-6.5787614e-03,-2.6689379e-03,8.8822421e-04,-2.7055392e-04,4.8806194e-05,1.0540693e-02,5.4678369e-02,-2.2521308e-02
1.6099341e+00,-1.2863543e-05,-1.0652586e-06,-1.6309264e-04,4.3520436e-04,-3.2592785e-03,4.3917744e-04,1.0413141e-03,1.7947572e-04,-6.4862155e-06,1.5309002e-02,4.5003006e-02,-5.5292462e-03
1.6199341e+00,-1.5873710e-05,-1.6342449e-04,-1.1711000e-04,-3.1085982e-04,-1.6236175e-02,-2.7732693e-04,5.9917075e-04,1.4518035e-03,-3.8155101e-04,-4.4214375e-02,1.2723290e-01,-3.7506515e-02
1.6299341e+00,-4.9513468e-05,-2.1482700e-04,-1.9248571e-04,-3.3690041e-03,-5.1448084e-03,-3.3519699e-03,5.6746410e-04,1.9249799e-03,-6.2702479e-04,-3.1706681e-03,4.7317688e-02,-2.4547402e-02
1.6399343e+00,5.6935753e-04,1.4590589e-03,4.2913973e-04,6.1311885e-02,1.6666799e-01,6.4342597e-02,-1.9603135e-03,-1.3248165e-02,3.9600692e-03,-2.5277197e-01,-1.5172798e+00,4.5869890e-01
1.6499343e+00,-4.4419944e-06,-1.3842986e-04,1.4073982e-04,-5.7488239e-02,-1.5970229e-01,-5.7401801e-02,9.0665969e-04,9.3043169e-05,6.3735700e-04,2.8669759e-01,1.3341221e+00,-3.3227154e-01
1.6599343e+00,-1.4862344e-05,-2.0658953e-04,-2.2102043e-04,-1.0474086e-03,-6.8168820e-03,-1.0306412e-03,6.9314232e-04,1.5761298e-03,-6.2244928e-04,-2.1351757e-02,1.4830880e-01,-1.2598075e-01
1.6699343e+00,1.7104761e-05,-2.2434404e-04,-2.0159767e-04,3.1974202e-03,-1.7732789e-03,3.1972136e-03,7.1691977e-04,1.3971886e-03,-6.1966759e-04,2.3777465e-03,-1.7894132e-02,2.7816960e-04
1.6799343e+00,-5.7603268e-05,-1.4305328e-04,-2.1281037e-04,-7.4703756e-03,8.1341641e-03,-7.4657126e-03,5.8870366e-04,-9.1616182e-05,-5.8276537e-04,-1.2821623e-02,-1.4888063e-01,3.6902255e-03
1.6899343e+00,-7.1007220e-05,-2.2160686e-04,-2.2765021e-04,-1.3486446e-03,-7.8551823e-03,-1.3331785e-03,8.9323529e-04,7.6113673e-04,-9.1950899e-04,3.0453192e-02,8.5275373e-02,-3.3674395e-02
1.6999342e+00,9.9383606e-06,-1.5066241e-04,-7.5006181e-05,8.1008030e-03,7.1001026e-03,8.0833642e-03,4.1660774e-04,1.1157377e-03,-4.0557303e-04,-4.7662800e-02,3.5460132e-02,5.1393645e-02
1.7099342e+00,1.1112493e-05,-1.2425049e-04,-4.0021851e-05,1.1806773e-04,2.6412357e-03,1.1582987e-04,2.3895781e-04,5.9068909e-04,-1.9792108e-04,-1.7765010e-02,-5.2504913e-02,2.0765215e-02
1.7199342e+00,-1.9475591e-05,1.2931081e-04,5.8349823e-05,-3.0603151e-03,2.5361431e-02,-3.0132201e-03,-7.1311282e-05,-1.8098628e-03,9.9512205e-05,-3.1026939e-02,-2.4005542e-01,2.9743357e-02
1.7299342e+00,-1.7298926e-05,-1.8218687e-04,1.5675812e-04,1.9940145e-04,-3.1149968e-02,2.1080249e-04,5.8182032e-04,-2.2452444e-04,6.5038421e-04,6.5313222e-02,1.5853398e-01,5.5087253e-02
1.7399342e+00,1.8764554e-05,-2.0041785e-04,1.5636432e-04,3.6022507e-03,-1.8261816e-03,3.6088894e-03,7.6530717e-04,-8.9530825e-05,7.4963991e-04,1.8348703e-02,1.3499374e-02,9.9255797e-03
1.7499342e+00,1.0594509e-04,-4.3917092e-04,3.1218102e-04,8.6665837e-03,-2.3887587e-02,8.7357956e-03,1.6517009e-03,2.4165423e-04,1.3791315e-03,8.8639456e-02,3.3118537e-02,6.2949217e-02
1.7599342e+00,8.8181086e-05,-3.2980023e-04,1.2051519e-04,-1.7660629e-03,1.0936075e-02,-1.7928211e-03,8.0033931e-04,1.3570655e-03,8.9211981e-04,-8.5136239e-02,1.1154123e-01,-4.8701213e-02
1.7699342e+00,-6.2893073e-05,-1.2714475e-04,-2.4253873e-04,-1.5107209e-02,2.0270365e-02,-1.5101213e-02,4.7904992e-04,1.6136473e-04,-6.2827302e-04,-3.2128970e-02,-1.1957019e-01,-1.5203943e-01
1.7799342e+00,3.4592796e-05,8.4179392e-05,-1.6168115e-04,9.7630500e-03,2.1119434e-02,9.7622948e-03,8.6400279e-04,-4.6833087e-04,3.8982873e-04,3.8495324e-02,-6.2969620e-02,1.0181027e-01
1.7899342e+00,-1.8662063e-06,1.0228581e-04,-1.4533735e-04,-3.6428471e-03,1.8163997e-03,-3.6460956e-03,9.0662987e-04,-6.7226509e-04,3.8760654e-04,4.2627117e-03,-2.0393441e-02,-2.2221919e-04
1.7999341e+00,-6.9090064e-05,-1.3600596e-04,-1.4134298e-04,-6.7434960e-03,-2.3830463e-02,-6.6967297e-03,7.6460449e-04,9.5552757e-04,-4.2938545e-04,-1.4202552e-02,1.6277942e-01,-8.1699277e-02
1.8099341e+00,1.6819502e-04,3.9850144e-04,9.6369019e-06,2.3750167e-02,5.3345304e-02,2.3943299e-02,1.0661169e-03,-3.3604810e-03,1.4880534e-03,3.0151267e-02,-4.3160127e-01,1.9174407e-01
1.8199341e+00,-2.5237286e-05,4.9927224e-04,-3.8209217e-04,-1.9349900e-02,1.0140028e-02,-1.9303665e-02,3.6222154e-04,-2.8952890e-03,-5.3277400e-04,-7.0389599e-02,4.6519248e-02,-2.0208293e-01
1.8299313e+00,-1.5300158e-04,-2.9954076e-05,-5.2191735e-04,-1.2807660e-02,-5.2960273e-02,-1.2658940e-02,-1.8198746e-05,1.7483061e-03,-2.2345210e-03,-3.8052952e-02,4.6449285e-01,-1.7022356e-01
1.8399312e+00,2.7009447e-05,-1.8792073e-04,-1.7680502e-04,1.8002746e-02,-1.5779239e-02,1.8014787e-02,5.8408315e-04,1.5527578e-03,-6.0320970e-04,6.0228247e-02,-1.9554852e-02,1.6313128e-01
1.8499312e+00,5.8059618e-05,-1.2535841e-04,-1.0729648e-04,3.1072494e-03,6.2565447e-03,3.1021714e-03,3.3812889e-04,4.3708040e-04,-3.6786363e-05,-2.4595449e-02,-1.1156785e-01,5.6642387e-02
1.8599312e+00,6.3587233e-05,-1.2396269e-04,-1.0964961e-04,5.5301020e-04,1.3943653e-04,5.5254816e-04,4.9356533e-04,2.4810961e-04,-3.2439288e-04,1.5543659e-02,-1.8897096e-02,-2.8760679e-02
1.8699312e+00,8.4545099e-05,8.5741637e-05,-1.3481562e-04,2.1113446e-03,2.0966691e-02,2.1176981e-03,7.8277536e-04,-1.0036675e-03,4.0954715e-04,2.8921031e-02,-1.2517784e-01,7.3394073e-02
1.8799312e+00,2.7729603e-05,-8.8237674e-05,-2.2410570e-04,-5.6960683e-03,-1.7389351e-02,-5.6933299e-03,6.3461901e-04,-8.7726581e-04,-6.1153877e-04,-1.4815650e-02,1.2640186e-02,-1.0210869e-01
1.8899314e+00,1.0611572e-04,-1.1034996e-04,-8.9775411e-05,7.8374045e-03,-2.2123255e-03,7.8391368e-03,1.4573565e-04,-7.2060064e-07,9.0043747e-05,-4.8887216e-02,8.7652515e-02,7.0156646e-02
1.8999314e+00,6.6738861e-05,-1.4525325e-04,-7.5199251e-05,-3.9386566e-03,-3.4916507e-03,-3.9355547e-03,1.5081874e-04,4.8560403e-04,-1.1179577e-04,5.0830901e-04,4.8632509e-02,-2.0183971e-02
1.9099314e+00,1.3957686e-05,-1.3059837e-04,-1.7310242e-04,-5.2791256e-03,1.4637501e-03,-5.2776022e-03,6.4769524e-04,9.7750615e-04,-3.7014585e-04,4.9687697e-02,4.9190260e-02,-2.5835033e-02
1.9199314e+00,5.6509805e-06,-2.0057907e-04,-1.7795138e-04,-8.3561709e-04,-6.9987987e-03,-8.1955290e-04,6.5380875e-04,1.5355080e-03,-4.4613452e-04,6.1135187e-04,5.5800239e-02,-7.5988742e-03
1.9299314e+00,-1.5207650e-04,-2.1098899e-04,-3.6740573e-04,-1.5794375e-02,-1.0410838e-03,-1.5751116e-02,1.0622000e-03,1.0693962e-03,-1.3014930e-03,4.0839167e-02,-4.6611227e-02,-8.5535930e-02
1.9399314e+00,4.3090999e-05,2.4095363e-04,-2.3138453e-04,1.9564609e-02,4.5126492e-02,1.9625481e-02,1.1896360e-03,-2.2766342e-03,3.0281413e-04,1.2743609e-02,-3.3460336e-01,1.6043087e-01
1.9499314e+00,1.8007228e-04,3.4855096e-04,-6.4242650e-05,1.3687726e-02,1.0710043e-02,1.3747414e-02,7.7285709e-04,-2.8481046e-03,1.3662028e-03,-4.1677931e-02,-5.7147099e-02,1.0633897e-01
1.9598906e+00,1.7452061e-04,2.7782620e-04,-3.9237243e-05,-5.6324420e-04,-7.0998551e-03,-5.7155828e-04,9.1053936e-04,-1.8941707e-03,1.1866371e-03,1.3824602e-02,9.5783989e-02,-1.8030091e-02
1.9698906e+00,-4.0659411e-05,-1.4780294e-04,-1.4683402e-04,-2.1562742e-02,-4.2574501e-02,-2.1450310e-02,7.7605331e-04,1.3156393e-03,-5.4362737e-04,-1.3448618e-02,3.2098131e-01,-1.7302661e-01
1.9798906e+00,-1.3499200e-04,-1.9363847e-04,-3.0715204e-04,-9.4499681e-03,-4.5841008e-03,-9.4162738e-03,8.6550315e-04,9.2477912e-04,-1.3510809e-03,8.9449930e-03,-3.9086056e-02,-8.0745434e-02
1.9898906e+00,-1.1771875e-04,-2.4217308e-04,-3.5611072e-04,1.7253722e-03,-4.8527714e-03,1.7312265e-03,8.7838943e-04,1.2786204e-03,-1.3377774e-03,1.2886293e-03,3.5384160e-02,1.3303532e-03
1.9998906e+00,-3.0741908e-06,-2.1033771e-04,-3.3243405e-04,1.1476385e-02,3.1820320e-03,1.1452956e-02,8.1890897e-04,6.8807761e-04,-8.1279695e-04,-5.9480521e-03,-5.9054333e-02,5.2498098e-02
2.0098906e+00,1.4981084e-04,-1.1242997e-04,-1.2122048e-04,1.5292242e-02,9.7910281e-03,1.5284636e-02,3.5808849e-04,3.7416536e-04,-1.4325265e-05,-4.6082092e-02,-3.1391255e-02,7.9847244e-02
2.0198905e+00,1.8463203e-04,1.1186043e-05,1.6070669e-05,3.4815960e-03,1.2357174e-02,3.4983660e-03,8.8133683e-05,-1.1835409e-03,4.6397147e-04,-2.6995506e-02,-1.5577077e-01,4.7829719e-02
2.0298905e+00,1.5287667e-04,-1.2228541e-04,-4.1013291e-05,-3.1784540e-03,-1.3345571e-02,-3.1792950e-03,2.6522505e-04,-2.3444106e-04,1.9703273e-04,1.7709153e-02,9.4910071e-02,-2.6693899e-02
2.0398905e+00,2.9863670e-05,-2.1304737e-04,-2.4303604e-04,-1.2319703e-02,-9.0627460e-03,-1.2292826e-02,1.0122710e-03,-8.1486484e-05,-7.4902717e-04,7.4704670e-02,1.5295472e-02,-9.4606081e-02
2.0498905e+00,6.1205885e-05,-2.9974579e-04,-1.5922236e-04,3.1274373e-03,-8.6690192e-03,3.1432894e-03,9.8343043e-04,1.2457222e-03,-5.5546829e-04,-2.8840637e-03,1.3272099e-01,1.9355907e-02
2.0598905e+00,4.0907523e-04,6.9292172e-04,3.1672838e-04,3.4781933e-02,9.8928317e-02,3.5743224e-02,9.3203768e-04,-8.6668672e-03,2.7999981e-03,-5.1392803e-03,-9.9125988e-01,3.3554696e-01
2.0698905e+00,5.3146877e-04,5.8622660e-04,2.7157610e-04,1.2178308e-02,-1.0789971e-02,1.2194597e-02,1.6940017e-03,-8.1489270e-03,3.5043295e-03,7.6196480e-02,5.1794064e-02,7.0433202e-02
2.0798905e+00,1.7987459e-04,-8.1156150e-05,-5.8721155e-05,-3.5220549e-02,-6.6666304e-02,-3.5234878e-02,1.4075518e-03,-6.3837376e-04,9.3258440e-04,-2.8645020e-02,7.5105604e-01,-2.5717475e-01
2.0898905e+00,9.7474393e-05,-5.1280736e-04,-3.3420327e-04,-8.3022880e-03,-4.3178199e-02,-8.1081701e-03,1.4785802e-03,3.0909573e-03,1.8854071e-04,7.1028420e-03,3.7293346e-01,-7.4404440e-02
2.0998905e+00,9.0395710e-05,1.9294771e-05,-2.1072140e-04,-6.3156375e-04,5.3212515e-02,-6.0309401e-04,1.4271853e-03,-1.9751117e-03,5.1357815e-04,-5.1394965e-03,-5.0660738e-01,3.2503775e-02
2.1098905e+00,1.6972487e-04,1.2253818e-04,-5.4961517e-05,7.9356142e-03,1.0300134e-02,7.9616616e-03,1.1130307e-03,-1.9343814e-03,1.1081560e-03,-3.1415481e-02,4.0730340e-03,5.9457838e-02
2.1198905e+00,3.8815630e-04,5.3350211e-04,1.2290533e-04,2.1822347e-02,4.0924901e-02,2.2183371e-02,1.0507251e-03,-6.7386942e-03,2.9250688e-03,-6.2305697e-03,-4.8043173e-01,1.8169146e-01
2.1298904e+00,3.5150356e-06,-2.3589667e-04,-1.1255129e-04,-3.8556708e-02,-7.6938400e-02,-3.8374505e-02,1.0501765e-03,1.0122935e-03,-3.0592799e-04,-5.4863171e-05,7.7509951e-01,-3.2309999e-01
2.1398907e+00,1.8972714e-05,-2.4593424e-04,-9.8759406e-05,1.5455061e-03,-1.0034001e-03,1.5461752e-03,8.8308651e-04,1.0984833e-03,-4.2742889e-04,-1.6708614e-02,8.6187892e-03,-1.2149813e-02
2.1498907e+00,-2.6398334e-05,-2.7519618e-04,-2.8897578e-04,-4.5461425e-03,-2.9232361e-03,-4.5299700e-03,1.2849157e-03,6.3368794e-04,-1.1637877e-03,4.0182962e-02,-4.6479584e-02,-7.3635951e-02
2.1598907e+00,3.6003835e-05,1.0127167e-04,-2.2808545e-04,6.2441834e-03,3.7612393e-02,6.4406480e-03,2.2664509e-04,-5.2047803e-03,7.3235292e-04,-1.0582717e-01,-5.8384738e-01,1.8961424e-01
2.1698906e+00,1.2462389e-04,5.6231012e-05,-1.0137363e-04,8.8516539e-03,-4.5433066e-03,8.8523349e-03,-9.3223524e-06,-4.4366614e-03,1.1731482e-03,-2.3596766e-02,7.6811961e-02,4.4079570e-02
2.1798906e+00,1.7014605e-04,-1.6584477e-04,2.5459253e-04,4.5271070e-03,-2.2218898e-02,4.5220325e-03,8.6778482e-04,-1.6202929e-03,1.2820501e-03,8.7710801e-02,2.8163713e-01,1.0890199e-02
2.1898906e+00,1.2291663e-04,6.8236191e-06,6.9894887e-05,-4.7169576e-03,1.7278238e-02,-4.6871700e-03,2.3792400e-04,-2.1800000e-03,3.9817732e-04,-6.2986143e-02,-5.5970767e-02,-8.8387361e-02
2.1998906e+00,-2.3495625e-05,-3.4693489e-04,-3.1114811e-04,-1.4700715e-02,-3.5365484e-02,-1.4606729e-02,1.2462268e-03,5.3860569e-04,-1.0524682e-03,1.0083038e-01,2.7186083e-01,-1.4506469e-01
2.2098906e+00,6.5192277e-05,-1.3035496e-04,-1.6167332e-04,8.8957674e-03,2.1645574e-02,8.8721579e-03,1.2659630e-03,-1.3469028e-04,4.9879575e-05,1.9736211e-03,-6.7329661e-02,1.1023488e-01
2.2198906e+00,8.0036524e-05,-6.3915243e-05,-8.0305117e-05,1.4926933e-03,6.6408815e-03,1.4899837e-03,1.3116881e-03,-7.6920774e-04,3.0065409e-04,4.5725180e-03,-6.3451806e-02,2.5077475e-02
2.2298906e+00,2.2524661e-04,1.4612844e-04,2.7810250e-05,1.4528279e-02,2.0952675e-02,1.4588317e-02,1.2311470e-03,-2.3221570e-03,1.2794569e-03,-8.0541191e-03,-1.5529507e-01,9.7880374e-02
2.2398906e+00,1.7375013e-04,1.4733661e-04,-7.1214666e-07,-5.1424583e-03,1.3927375e-04,-5.1563713e-03,1.3117284e-03,-2.2693150e-03,1.3644665e-03,8.0581442e-03,5.2841979e-03,8.5009697e-03
2.2498906e+00,6.6556911e-06,-1.1379617e-04,-1.9293250e-04,-1.6744398e-02,-2.6088687e-02,-1.6712936e-02,1.4885603e-03,1.7102179e-05,2.3423577e-04,1.7683212e-02,2.2864194e-01,-1.1302318e-01
2.2598906e+00,8.5425545e-05,-1.9246579e-04,-5.2701837e-04,7.8628509e-03,-7.8881392e-03,7.8699481e-03,1.5707423e-03,-1.1183658e-03,2.2534715e-04,8.2182010e-03,-1.1354691e-01,-8.8886264e-04
2.2698905e+00,2.9000137e-04,2.2892285e-04,-5.7571458e-05,2.0492744e-02,4.2043136e-02,2.0618836e-02,1.5443984e-03,-3.1198913e-03,1.4610966e-03,-2.6343843e-03,-2.0015275e-01,1.2357506e-01
2.2798905e+00,3.9113723e-05,-3.3048744e-04,-2.2342707e-04,-2.5176012e-02,-5.5957441e-02,-2.4964625e-02,1.1763099e-03,1.8352097e-03,-8.5481582e-04,-3.6808884e-02,4.9551058e-01,-2.3159146e-01
2.2898905e+00,6.8895935e-05,-2.3631615e-04,-1.8398641e-04,2.9883601e-03,9.4176966e-03,2.9662813e-03,9.1032623e-04,1.1015986e-03,-5.2550459e-04,-2.6598397e-02,-7.3361178e-02,3.2931154e-02
2.2998905e+00,6.5547691e-06,-2.1720237e-04,-3.0587554e-04,-6.2382392e-03,1.9166705e-03,-6.2283775e-03,1.0290633e-03,1.8041864e-04,-9.7685616e-04,1.1873720e-02,-9.2118085e-02,-4.5135200e-02
2.3098905e+00,5.9026033e-06,-3.0214795e-04,-2.9741128e-04,-7.5390330e-05,-8.4945140e-03,-6.0926458e-05,1.1896108e-03,4.9573018e-04,-1.0510939e-03,1.6054761e-02,3.1531184e-02,-7.4237852e-03
2.3198905e+00,1.0181385e-04,3.3545915e-05,-3.9991781e-05,9.6234832e-03,3.3543063e-02,9.6507519e-03,1.1872518e-03,-1.5527131e-03,7.8154369e-04,-2.3589626e-04,-2.0484453e-01,1.8326394e-01
2.3298905e+00,5.2699128e-05,-3.0751845e-05,-9.4205704e-05,-4.9181192e-03,-6.4196793e-03,-4.9180405e-03,1.2572089e-03,-7.9807658e-04,2.9254774e-04,6.9957206e-03,7.5463727e-02,-4.8899641e-02
2.3398905e+00,9.7226785e-05,-1.4147597e-05,-9.2930931e-05,4.4530040e-03,1.6513949e-03,4.4558935e-03,1.2010496e-03,-8.2650419e-04,3.9450478e-04,-5.6159401e-03,-2.8427630e-03,1.0195713e-02
2.3498905e+00,8.6249551e-05,-3.0662567e-04,-1.3461632e-04,-1.1263582e-03,-2.9248101e-02,-1.0610311e-03,9.6122264e-04,1.2363216e-03,-4.7430503e-04,-2.3982719e-02,2.0628278e-01,-8.6881064e-02
2.3598905e+00,2.1718974e-04,-4.7976989e-04,3.4848251e-04,1.3039833e-02,-1.7345332e-02,1.3107222e-02,1.9779867e-03,-3.8350566e-04,1.5205193e-03,1.0167650e-01,-1.6198288e-01,1.9948263e-01
2.3698905e+00,2.9044947e-04,-4.6793400e-04,4.3340905e-04,7.3137264e-03,1.1632376e-03,7.3414666e-03,2.0289673e-03,-7.4720093e-04,1.9963589e-03,5.0980640e-03,-3.6369561e-02,4.7584007e-02
2.3798904e+00,2.0408855e-04,-4.3099763e-04,1.8517427e-04,-8.6220230e-03,3.7034251e-03,-8.6459693e-03,1.6165732e-03,4.8254782e-04,9.3685579e-04,-4.1239449e-02,1.2297499e-01,-1.0595042e-01
2.3898907e+00,1.2438855e-04,-3.2620579e-04,2.3737464e-04,-7.9429318e-03,1.0492180e-02,-7.9792395e-03,1.5061169e-03,-1.5584831e-04,1.3910796e-03,-1.1045375e-02,-6.3838152e-02,4.5421343e-02
2.3998907e+00,-9.2618798e-05,-1.1545452e-03,2.6391353e-04,-2.1977195e-02,-8.2829066e-02,-2.1439894e-02,3.7410596e-03,3.5581188e-03,1.5330846e-03,2.2349449e-01,3.7139706e-01,1.4200509e-02
2.4098907e+00,-6.3183502e-04,-4.3861695e-04,-2.4106057e-04,-5.3857363e-02,7.1628737e-02,-5.3938339e-02,1.5147798e-03,8.4871569e-04,-8.2001818e-04,-2.2262820e-01,-2.7094056e-01,-2.3531050e-01
2.4198906e+00,-8.2319895e-04,-4.0752112e-04,7.8243323e-06,-1.9117901e-02,3.1698958e-03,-1.9145017e-02,2.2628643e-03,-8.8862638e-04,5.9686804e-04,7.4808518e-02,-1.7373437e-01,1.4168876e-01
2.4298906e+00,-1.0002201e-03,-8.4270327e-05,1.1233246e-04,-1.7571967e-02,3.2445969e-02,-1.7610466e-02,2.6432144e-03,-4.1961795e-03,2.5195995e-03,3.8035048e-02,-3.3075563e-01,1.9227333e-01
2.4398906e+00,-1.0350453e-03,8.2688324e-04,6.3278559e-04,-3.2764580e-03,9.1160202e-02,-2.3156619e-03,2.0496918e-03,-1.3001821e-02,5.5265794e-03,-5.9352309e-02,-8.8056500e-01,3.0069828e-01
2.4498906e+00,-2.1060652e-03,-5.2457173e-04,-2.1962063e-04,-1.0737170e-01,-1.3448005e-01,-1.0766843e-01,2.9858909e-03,-3.2123931e-03,1.2451466e-03,9.3619991e-02,9.7894374e-01,-4.2814369e-01
2.4598088e+00,-2.4702929e-03,-1.1943687e-03,3.1789528e-05,-3.6980128e-02,-6.7296647e-02,-3.6896879e-02,4.9567908e-03,-1.4251118e-03,2.1021405e-03,1.9871522e-01,1.8020195e-01,8.6406084e-02
2.4698088e+00,-2.7967886e-03,-1.4921183e-03,9.3757960e-05,-3.2726848e-02,-2.9581237e-02,-3.2748247e-02,5.4674551e-03,-4.5206939e-04,2.6019383e-03,5.1066483e-02,9.7304335e-02,4.9979827e-02
2.4798088e+00,-2.8806874e-03,-1.1627408e-03,5.2405393e-04,-8.1306603e-03,3.3043770e-02,-8.2267471e-03,6.4331975e-03,-6.3253590e-03,5.6055447e-03,9.6574336e-02,-5.8732953e-01,3.0036093e-01
2.4898088e+00,-3.4822687e-03,-1.5123838e-03,4.3433571e-04,-6.0128681e-02,-3.4320908e-02,-6.0556889e-02,6.9150552e-03,-3.7458869e-03,4.4755744e-03,4.8185815e-02,2.5794746e-01,-1.1299714e-01
2.4998088e+00,-4.1019313e-03,-1.2450254e-03,3.0178140e-04,-6.1620836e-02,2.7366081e-02,-6.2035690e-02,5.4686769e-03,-4.6979036e-03,3.1958316e-03,-1.4463797e-01,-9.5201755e-02,-1.2797441e-01
2.5098088e+00,-4.4493626e-03,-7.8896914e-04,5.0936661e-04,-3.4397975e-02,4.6038527e-02,-3.4515001e-02,4.7064990e-03,-7.7779270e-03,3.7394604e-03,-7.6217864e-02,-3.0800263e-01,5.4362940e-02
2.5198088e+00,-4.9927989e-03,-1.6492385e-03,5.1369867e-04,-5.4620712e-02,-8.5509799e-02,-5.4879616e-02,5.4383544e-03,-4.0289278e-03,3.4903296e-03,7.3185610e-02,3.7490028e-01,-2.4913112e-02
2.5298088e+00,-5.3895956e-03,-1.7025560e-03,7.6021441e-04,-3.9555006e-02,-4.8569222e-03,-3.9864736e-02,6.7781264e-03,-5.1629234e-03,4.0223253e-03,1.3397733e-01,-1.1339968e-01,5.3199622e-02
2.5398088e+00,-5.9162571e-03,-1.8018165e-03,7.9910931e-04,-5.2515066e-02,-9.3281891e-03,-5.2925769e-02,6.9561041e-03,-4.3716848e-03,4.1479101e-03,1.7797788e-02,7.9123938e-02,1.2558499e-02
2.5498087e+00,-6.5073827e-03,-1.6168902e-03,9.4945130e-04,-5.8700625e-02,1.9333698e-02,-5.9253899e-02,7.2246713e-03,-6.9868612e-03,4.6724201e-03,2.6856747e-02,-2.6151789e-01,5.2451042e-02
2.5598087e+00,-7.4949184e-03,-2.7211582e-03,8.3433509e-04,-9.9476575e-02,-1.0943525e-01,-9.9131272e-02,9.4398391e-03,-5.5017861e-04,3.1854984e-03,2.2151699e-01,6.4366887e-01,-1.4869231e-01
2.5698087e+00,-8.3393070e-03,-2.7139780e-03,1.0234571e-03,-8.4145687e-02,1.7333008e-03,-8.4716508e-02,9.4958658e-03,-2.5202132e-03,3.3416538e-03,5.6026773e-03,-1.9700365e-01,1.5615556e-02
2.5798087e+00,-9.1885998e-03,-2.3473284e-03,8.0080310e-04,-8.4245167e-02,3.8120184e-02,-8.4970083e-02,1.0117205e-02,-7.0247606e-03,3.6305561e-03,6.2134021e-02,-4.5045517e-01,2.8890260e-02
2.5898087e+00,-9.4010776e-03,-1.8509379e-03,1.1513104e-03,-2.0578922e-02,5.0108487e-02,-2.0799668e-02,1.0597903e-02,-1.1710282e-02,6.6443100e-03,4.8069754e-02,-4.6855262e-01,3.0137568e-01
2.5998087e+00,-1.0671303e-02,-2.8405175e-03,7.2671298e-04,-1.2761325e-01,-9.7006364e-02,-1.2793283e-01,1.0311298e-02,-4.9861765e-03,3.3243663e-03,-2.8660457e-02,6.7241123e-01,-3.3199469e-01
2.6098087e+00,-1.1505070e-02,-3.2344562e-03,6.0029801e-04,-8.3729686e-02,-3.8325224e-02,-8.3521257e-02,1.0650339e-02,-2.1378814e-03,7.4336794e-04,3.3904101e-02,2.8482978e-01,-2.5810008e-01
2.6198087e+00,-1.1978729e-02,-3.0494255e-03,7.4362004e-04,-4.7051035e-02,1.9316982e-02,-4.7354700e-02,1.0876098e-02,-6.3238169e-03,2.3362017e-03,2.2575923e-02,-4.1859395e-01,1.5928353e-01
2.6298087e+00,-1.2263299e-02,-3.0559554e-03,8.7727623e-04,-2.8357483e-02,-1.0628031e-04,-2.8563493e-02,1.1440615e-02,-7.7411979e-03,3.6883613e-03,5.6451794e-02,-1.4173823e-01,1.3521609e-01
2.6398089e+00,-1.2504395e-02,-3.1462029e-03,9.9116245e-04,-2.4106015e-02,-8.5413921e-03,-2.4287604e-02,1.1773424e-02,-8.1921025e-03,4.4570720e-03,3.3280118e-02,-4.5089429e-02,7.6869310e-02
2.6498089e+00,-1.3123246e-02,-4.1696261e-03,9.1680971e-04,-6.3008580e-02,-1.0148154e-01,-6.2168519e-02,1.2687323e-02,-1.0867660e-03,2.7429717e-03,9.1389935e-02,7.1053433e-01,-1.7141019e-01
2.6598089e+00,-1.3651628e-02,-4.3700244e-03,1.2737607e-03,-5.2909098e-02,-1.9186208e-02,-5.3083523e-02,1.4206228e-02,-1.9036204e-03,3.9370641e-03,1.5189069e-01,-8.1685519e-02,1.1940936e-01
2.6698089e+00,-1.4599036e-02,-4.0528849e-03,1.3814076e-03,-9.3849460e-02,3.3821011e-02,-9.4899366e-02,1.3683302e-02,-8.5610611e-03,4.7247844e-03,-5.2292624e-02,-6.6574470e-01,7.8772108e-02
2.6798089e+00,-1.5546847e-02,-5.2493771e-03,8.8608880e-04,-9.6464690e-02,-1.1831303e-01,-9.4760155e-02,1.5527216e-02,1.5787337e-03,1.7159679e-03,1.8439156e-01,1.0139804e+00,-3.0088194e-01
2.6898088e+00,-1.6165123e-02,-4.2550841e-03,1.8405401e-03,-6.0026951e-02,1.0102884e-01,-6.1003796e-02,1.4901072e-02,-1.1194469e-02,5.0387686e-03,-6.2614515e-02,-1.2773215e+00,3.3228039e-01
2.6998088e+00,-1.6996883e-02,-4.8712626e-03,1.6840575e-03,-8.3802487e-02,-5.9699334e-02,-8.3942980e-02,1.6048037e-02,-6.8772462e-03,4.2193874e-03,1.1469662e-01,4.3172273e-01,-8.1938195e-02
2.7098088e+00,-1.7653220e-02,-5.3201126e-03,1.4553820e-03,-6.6125786e-02,-4.3505087e-02,-6.6067704e-02,1.7034529e-02,-3.8715533e-03,3.9994875e-03,9.8649282e-02,3.0056958e-01,-2.1990011e-02
2.7198088e+00,-1.8338397e-02,-5.4824818e-03,1.4099437e-03,-6.8502707e-02,-1.4781601e-02,-6.8861289e-02,1.7508023e-02,-3.6799418e-03,4.2056914e-03,4.7349509e-02,1.9161161e-02,2.0620403e-02
2.7298088e+00,-1.8846696e-02,-4.9322488e-03,1.6796644e-03,-4.9589137e-02,5.6350387e-02,-5.0601418e-02,1.7252050e-02,-9.0127137e-03,5.5740405e-03,-2.5597359e-02,-5.3327770e-01,1.3683504e-01
2.7398088e+00,-1.9549285e-02,-4.4268693e-03,1.9213278e-03,-6.8815030e-02,5.2854821e-02,-6.9982656e-02,1.7643584e-02,-1.5416702e-02,7.6753916e-03,3.9153408e-02,-6.4039947e-01,2.1013531e-01
2.7498088e+00,-2.1076950e-02,-5.3363690e-03,1.5460456e-03,-1.5382173e-01,-8.6526245e-02,-1.5427021e-01,1.8750961e-02,-1.0033323e-02,4.0721874e-03,1.1073784e-01,5.3833849e-01,-3.6032076e-01
2.7598088e+00,-2.2319300e-02,-6.9159636e-03,1.3099823e-03,-1.2732546e-01,-1.5532284e-01,-1.2443077e-01,2.0653737e-02,-3.0020587e-04,1.1696294e-03,1.9027781e-01,9.7331260e-01,-2.9025608e-01
2.7698088e+00,-2.3021726e-02,-7.1279040e-03,1.3712985e-03,-7.0581808e-02,-1.9589225e-02,-7.0368447e-02,2.1819263e-02,-9.5608128e-04,1.5153462e-03,1.1655269e-01,-6.5587604e-02,3.4571720e-02
2.7798088e+00,-2.3532389e-02,-7.0157902e-03,1.7315049e-03,-5.0626994e-02,1.2559140e-02,-5.1189983e-02,2.2120828e-02,-4.3141244e-03,3.4967100e-03,3.0156519e-02,-3.3580463e-01,1.9813656e-01
2.7898088e+00,-2.4163939e-02,-7.7816538e-03,1.4889881e-03,-6.4697090e-02,-7.5063622e-02,-6.3422071e-02,2.3241356e-02,-5.4340385e-04,3.4896344e-03,1.1205287e-01,3.7707241e-01,-7.0755475e-04
2.7998087e+00,-2.4688613e-02,-7.2955083e-03,1.7572284e-03,-5.0990050e-02,5.0186475e-02,-5.2444028e-02,2.3359114e-02,-6.8355728e-03,6.2246490e-03,1.1775881e-02,-6.2921750e-01,2.7350172e-01
2.8098087e+00,-2.5905481e-02,-7.9043271e-03,1.5376017e-03,-1.2265553e-01,-5.7735558e-02,-1.2224656e-01,2.2970405e-02,-2.7451415e-03,3.2619167e-03,-3.8870948e-02,4.0904352e-01,-2.9627351e-01
2.8198087e+00,-2.7259334e-02,-8.3264314e-03,1.4963318e-03,-1.3597908e-01,-3.8690445e-02,-1.3584150e-01,2.3698574e-02,-2.2094010e-03,2.7189233e-03,7.2816965e-02,5.3574103e-02,-5.4299391e-02
2.8298087e+00,-2.8339699e-02,-8.1850714e-03,1.7267746e-03,-1.0729866e-01,1.7495572e-02,-1.0828002e-01,2.4484659e-02,-6.6350398e-03,3.3222858e-03,7.8608509e-02,-4.4256430e-01,6.0336309e-02
2.8398087e+00,-2.8991870e-02,-8.2030757e-03,2.4273622e-03,-6.4875208e-02,4.7700265e-04,-6.5580181e-02,2.3667200e-02,-1.1185642e-02,5.5998808e-03,-8.1745978e-02,-4.5506060e-01,2.2775971e-01
2.8498087e+00,-2.9782895e-02,-8.6771219e-03,2.3667582e-03,-7.9817464e-02,-4.4586592e-02,-8.0017806e-02,2.5400583e-02,-9.9473156e-03,5.8432520e-03,1.7333850e-01,1.2383271e-01,2.4337144e-02
2.8598087e+00,-3.0417926e-02,-8.9743394e-03,2.5286442e-03,-6.3808497e-02,-2.7361491e-02,-6.4253487e-02,2.6955478e-02,-9.9496254e-03,7.4153269e-03,1.5548967e-01,-2.3097965e-04,1.5720763e-01
2.8698087e+00,-3.1346491e-02,-9.5176269e-03,2.3500406e-03,-9.3698389e-02,-5.1002609e-02,-9.3891699e-02,2.8138304e-02,-7.3873621e-03,6.9747738e-03,1.1828275e-01,2.5622657e-01,-4.4055355e-02
2.8798087e+00,-3.2561922e-02,-9.3479630e-03,2.5601183e-03,-1.1996380e-01,2.2033356e-02,-1.2229719e-01,2.8197672e-02,-1.3450542e-02,8.6249143e-03,5.9367521e-03,-6.0631859e-01,1.6501421e-01
2.8898089e+00,-3.4054797e-02,-1.0308944e-02,2.0808503e-03,-1.5114306e-01,-9.0381452e-02,-1.5097308e-01,3.0954392e-02,-6.9570415e-03,6.9662721e-03,2.7566567e-01,6.4933522e-01,-1.6586042e-01
2.8998089e+00,-3.5761206e-02,-1.0641781e-02,1.9661452e-03,-1.7073062e-01,-2.6464863e-02,-1.7174168e-01,3.1444241e-02,-8.3764304e-03,5.0998807e-03,4.8985017e-02,-1.4193902e-01,-1.8663932e-01
2.9098089e+00,-3.7161888e-02,-1.1905465e-02,1.5834506e-03,-1.4396344e-01,-1.2171469e-01,-1.4024032e-01,3.2844819e-02,1.0004518e-04,1.2783157e-03,1.4005791e-01,8.4764836e-01,-3.8215687e-01
2.9198089e+00,-3.8012023e-02,-1.1825597e-02,1.7247451e-03,-8.4415771e-02,1.1091779e-02,-8.5260541e-02,3.3578452e-02,-2.9950329e-03,3.3088850e-03,7.3363319e-02,-3.0950810e-01,2.0305712e-01
2.9298089e+00,-3.8724902e-02,-1.2319626e-02,1.7119362e-03,-7.2563087e-02,-4.6676403e-02,-7.1836643e-02,3.4587086e-02,-3.2305635e-03,5.4637238e-03,1.0086356e-01,-2.3553082e-02,2.1548409e-01
2.9398088e+00,-3.9444903e-02,-1.2199535e-02,2.0157949e-03,-7.0976073e-02,1.5001301e-02,-7.2454348e-02,3.5195228e-02,-6.4288360e-03,7.7060813e-03,6.0814210e-02,-3.1982756e-01,2.2423596e-01
2.9498088e+00,-4.0688210e-02,-1.2705486e-02,2.3042464e-03,-1.2510507e-01,-4.5445294e-02,-1.2553738e-01,3.4835771e-02,-6.2910167e-03,7.3123529e-03,-3.5945689e-02,1.3781949e-02,-3.9372870e-02
2.9598088e+00,-4.2459329e-02,-1.4499300e-02,1.7878404e-03,-1.8301405e-01,-1.7297630e-01,-1.7748283e-01,3.8535120e-02,3.1010826e-03,4.9405592e-03,3.6993523e-01,9.3921083e-01,-2.3717960e-01
2.9698088e+00,-4.3817951e-02,-1.3628988e-02,2.6748210e-03,-1.3125857e-01,9.3598906e-02,-1.3602207e-01,3.8487764e-02,-1.0288292e-02,8.4613689e-03,-4.7356161e-03,-1.3389387e+00,3.5208131e-01
2.9798088e+00,-4.5612573e-02,-1.4335773e-02,2.2618108e-03,-1.8098822e-01,-6.1598103e-02,-1.8126741e-01,4.0482147e-02,-9.7227195e-03,6.5952456e-03,1.9943853e-01,5.6557297e-02,-1.8661251e-01
2.9898088e+00,-4.6969760e-02,-1.4805535e-02,2.6058489e-03,-1.3654424e-01,-3.9799862e-02,-1.3717737e-01,4.1072387e-02,-1.1420511e-02,7.2608822e-03,5.9024019e-02,-1.6977930e-01,6.6563724e-02
2.9998088e+00,-4.8535321e-02,-1.5776418e-02,2.5708924e-03,-1.5933289e-01,-8.9112013e-02,-1.5848635e-01,4.2238373e-02,-8.0894560e-03,7.5292943e-03,1.1659877e-01,3.3310581e-01,2.6841232e-02
3.0098088e+00,-4.9894355e-02,-1.6814039e-02,2.1792090e-03,-1.3940882e-01,-9.7281803e-02,-1.3714068e-01,4.4134699e-02,-2.7970751e-03,6.8951750e-03,1.8963271e-01,5.2923859e-01,-6.3411984e-02
3.0198088e+00,-5.1423208e-02,-1.8477761e-02,1.7664217e-03,-1.5972051e-01,-1.6046454e-01,-1.5221093e-01,4.6746133e-02,9.2716866e-03,5.0385007e-03,2.6114368e-01,1.2068773e+00,-1.8566761e-01
3.0298088e+00,-5.2918310e-02,-1.8119810e-02,2.0285583e-03,-1.4658563e-01,4.2577503e-02,-1.5062467e-01,4.7946120e-02,2.2723229e-03,6.9146328e-03,1.1999885e-01,-6.9993704e-01,1.8761339e-01
3.0398088e+00,-5.4897640e-02,-1.8121084e-02,2.5975075e-03,-1.9625272e-01,1.0510305e-02,-1.9932269e-01,4.7988485e-02,-5.7318185e-03,7.3429911e-03,4.2364272e-03,-8.0041490e-01,4.2835872e-02
3.0498087e+00,-5.6869636e-02,-1.9515846e-02,1.5803711e-03,-2.0289471e-01,-1.2974929e-01,-1.9806070e-01,5.1110368e-02,2.6720823e-03,5.9310785e-03,3.1218859e-01,8.4039088e-01,-1.4119140e-01
3.0598087e+00,-5.8599505e-02,-1.8289927e-02,2.9046045e-03,-1.6483526e-01,1.3396753e-01,-1.7251033e-01,5.1088806e-02,-1.5567405e-02,9.5847466e-03,-2.1561353e-03,-1.8239505e+00,3.6536717e-01
3.0698087e+00,-6.0851600e-02,-2.1590750e-02,1.8994644e-03,-2.4223682e-01,-3.1859164e-01,-2.2408494e-01,5.6061596e-02,7.3103051e-03,4.9350050e-03,4.9727947e-01,2.2877732e+00,-4.6497461e-01
3.0798087e+00,-6.2324990e-02,-2.0787782e-02,2.3607289e-03,-1.4132870e-01,8.8951307e-02,-1.4825345e-01,5.6218946e-02,-3.3852924e-03,8.5558246e-03,1.5735011e-02,-1.0695608e+00,3.6208231e-01
3.0898087e+00,-6.4105477e-02,-2.0726078e-02,3.1295963e-03,-1.7537633e-01,1.8523027e-02,-1.7983579e-01,5.7694246e-02,-1.1649461e-02,1.1284754e-02,1.4753015e-01,-8.2641761e-01,2.7289316e-01
3.0998087e+00,-6.6717839e-02,-2.3001739e-02,2.0570684e-03,-2.7263134e-01,-2.1130138e-01,-2.6324776e-01,6.0640881e-02,-5.6176995e-05,7.3078291e-03,2.9466372e-01,1.1593295e+00,-3.9769283e-01
3.1098087e+00,-6.8784376e-02,-2.4346914e-02,1.6291449e-03,-2.1339336e-01,-1.2259167e-01,-2.0722256e-01,6.3630617e-02,7.1606919e-03,6.7316414e-03,2.9897392e-01,7.2168758e-01,-5.7618818e-02
3.1198087e+00,-7.1190241e-02,-2.5003260e-02,2.1027843e-03,-2.4284083e-01,-5.1024400e-02,-2.4186093e-01,6.5356011e-02,5.1341668e-03,6.2929796e-03,1.7253958e-01,-2.0265270e-01,-4.3866224e-02
3.1298087e+00,-7.3673172e-02,-2.5000908e-02,2.5938940e-03,-2.4570149e-01,1.8128300e-02,-2.5020246e-01,6.6208841e-02,-5.8598889e-03,8.1515580e-03,8.5283115e-02,-1.0994066e+00,1.8585802e-01
3.1398089e+00,-7.5602676e-02,-2.5352016e-02,2.9009422e-03,-1.9311928e-01,-2.0388437e-02,-1.9488013e-01,6.8029974e-02,-7.8250744e-03,9.1165331e-03,1.8210906e-01,-1.9651405e-01,9.6495298e-02
3.1498089e+00,-7.7590512e-02,-2.6300789e-02,3.2368338e-03,-2.0317692e-01,-7.9374958e-02,-2.0112302e-01,7.0257564e-02,-6.5407625e-03,8.8978385e-03,2.2275925e-01,1.2843132e-01,-2.1869477e-02
3.1598089e+00,-7.9766903e-02,-2.8096195e-02,2.6533509e-03,-2.2832800e-01,-1.6289223e-01,-2.1977520e-01,7.4510874e-02,2.3242246e-04,9.4769079e-03,4.2533144e-01,6.7731914e-01,5.7906993e-02
3.1698089e+00,-8.1803429e-02,-2.8780436e-02,3.1091233e-03,-2.0622713e-01,-5.2665229e-02,-2.0573654e-01,7.5956368e-02,-5.2369212e-04,9.9213357e-03,1.4454946e-01,-7.5611530e-02,4.4442818e-02
