time,Steering_input,x,y,vx,vy,ax,ay,yaw,roll,pitch,yaw_rate,roll_rate,pitch_rate,slip_angle,long_slip,toe_in_r,toe_in_avg,toe_in_l,wlf,wlr,wrf,wrr,tiredef_rf,tiredef_rr,tiredef_lf,tiredef_lr,sp_tor,current_gear,engine_omega,engine_torque,tc_inp_tor,tc_out_tor,tc_out_omg,tc_sr,
+0.00000000e+00,+0.00000000e+00,+0.00000000e+00,+0.00000000e+00,+0.00000000e+00,+0.00000000e+00,+0.00000000e+00,+0.00000000e+00,+0.00000000e+00,+0.00000000e+00,-0.00000000e+00,+0.00000000e+00,+0.00000000e+00,+0.00000000e+00,+0.00000000e+00,+0.00000000e+00,+0.00000000e+00,+0.00000000e+00,+0.00000000e+00,+0.00000000e+00,+0.00000000e+00,+0.00000000e+00,+0.00000000e+00,+0.00000000e+00,+0.00000000e+00,+8.61318092e-311,+0.00000000e+00,+0.00000000e+00,+1,+0.00000000e+00,+0.00000000e+00,-0.00000000e+00,+0.00000000e+00,+0.00000000e+00,-0.00000000e+00,
+1.00000000e-02,+0.00000000e+00,-3.72049468e-05,-5.68704752e-08,-5.47357872e-03,+9.22736296e-07,-4.25221356e-01,+8.26796024e-05,+2.04554874e-08,-2.74687305e-07,+3.53470895e-05,-1.66884159e-07,-4.75384196e-05,+6.35697571e-03,+1.30648703e+00,-9.21328879e-01,-3.27022469e-04,+4.61227178e-06,+3.36247013e-04,+5.55347493e-03,+5.55215961e-03,+5.55135765e-03,+5.55217117e-03,+0.00000000e+00,+0.00000000e+00,+8.61318092e-311,+0.00000000e+00,+2.88789899e+00,+1,-1.39163490e-06,+0.00000000e+00,+8.60732309e-15,+1.72146462e-14,-1.85510317e-02,-4.00970368e+02,
+2.00000000e-02,+0.00000000e+00,-1.23431503e-04,+2.31096019e-07,-7.59437647e-03,-6.99346970e-06,-6.64800170e-02,-1.20750847e-03,+2.70037832e-08,+1.17162115e-06,+1.19234826e-04,+1.84201517e-06,+4.28427335e-04,+1.02514902e-02,+1.33857216e+00,-7.59878308e-01,-1.05829334e-03,+4.77176276e-06,+1.06783686e-03,+1.70166518e-02,+1.82087675e-02,+1.69810334e-02,+1.81780451e-02,+5.92642752e-03,+5.85278835e-03,+5.92638030e-03,+5.85280054e-03,-5.23929560e+01,+1,+6.01687763e-06,+0.00000000e+00,-0.00000000e+00,+0.00000000e+00,+1.61756563e-01,-3.81922684e+02,
+3.00000000e-02,+0.00000000e+00,-2.25009113e-04,+1.57354449e-06,-7.31015041e-03,-2.03859514e-05,+1.06282572e-01,-1.31060055e-03,+5.65282412e-08,+8.10819277e-06,+2.39045770e-04,+3.74982588e-06,+9.17197724e-04,+1.36738733e-02,+1.38614700e+00,-3.38010223e-01,-1.71075541e-03,+5.43112286e-06,+1.72161766e-03,+2.77541401e-02,+3.08760209e-02,+2.76224309e-02,+3.07501988e-02,+1.21667322e-02,+1.19808171e-02,+1.21645667e-02,+1.19786507e-02,-3.67094201e+01,+1,+4.09062109e-05,+0.00000000e+00,-0.00000000e+00,+0.00000000e+00,+3.69206204e-01,-4.20281379e+02,
+4.00000000e-02,+0.00000000e+00,-3.23889400e-04,+3.51981999e-06,-5.70957286e-03,-3.21856995e-05,+2.01743925e-01,-8.41024635e-04,+9.94083069e-08,+1.84550348e-05,+3.92810233e-04,+4.11843481e-06,+1.08874549e-03,+1.70572077e-02,+1.50437813e+00,+1.95172244e+00,-2.10094042e-03,+6.35196609e-06,+2.11364435e-03,+3.38852515e-02,+3.90546743e-02,+3.36801381e-02,+3.88538435e-02,+1.63988592e-02,+1.60655147e-02,+1.63918828e-02,+1.60584698e-02,-6.75338980e+00,+1,+9.13451377e-05,+0.00000000e+00,-0.00000000e+00,+0.00000000e+00,+4.71229952e-01,-4.71366596e+02,
+5.00000000e-02,+0.00000000e+00,-4.10164421e-04,+5.34954063e-06,-3.41258388e-03,-3.73765630e-05,+2.47390567e-01,+2.57082994e-05,+1.39592617e-07,+2.86130423e-05,+5.79956056e-04,+2.69924972e-06,+8.84022404e-04,+2.03155560e-02,+3.49422778e-02,+4.67513328e+00,-2.21499940e-03,+7.19358785e-06,+2.22938658e-03,+3.41863222e-02,+4.13747690e-02,+3.39752249e-02,+4.11654977e-02,+1.85879101e-02,+1.80886798e-02,+1.85752891e-02,+1.80759406e-02,+2.42481848e+01,+1,+1.38277305e-04,+0.00000000e+00,-0.00000000e+00,+0.00000000e+00,+4.34501200e-01,-5.81454949e+02,
+6.00000000e-02,+0.00000000e+00,-4.78513395e-04,+6.39608395e-06,-8.14641813e-04,-3.30993869e-05,+2.62917969e-01,+9.93275587e-04,+1.61699136e-07,+3.50787072e-05,+7.98213393e-04,+1.96767360e-07,+3.69222542e-04,+2.32474685e-02,-1.08069644e+00,+2.66107087e+00,-2.13261910e-03,+7.68806644e-06,+2.14799524e-03,+2.92008563e-02,+3.82830059e-02,+2.90507121e-02,+3.81317072e-02,+1.92762817e-02,+1.86047162e-02,+1.92599565e-02,+1.85882634e-02,+4.85311417e+01,+1,+1.64094954e-04,+0.00000000e+00,-0.00000000e+00,+0.00000000e+00,+2.73719670e-01,-1.33258744e+03,
+7.00000000e-02,+0.00000000e+00,-5.26224051e-04,+6.21249551e-06,+1.84648839e-03,-1.95015344e-05,+2.60168854e-01,+1.78256071e-03,+1.56907460e-07,+3.53377729e-05,+1.04321424e-03,-2.94215967e-06,-3.34163998e-04,+2.56420536e-02,-1.18123726e+00,+2.29381663e+00,-1.95215112e-03,+7.69693359e-06,+1.96754498e-03,+2.03816964e-02,+3.10707312e-02,+2.03407456e-02,+3.10260247e-02,+1.91102814e-02,+1.82684478e-02,+1.90943791e-02,+1.82524494e-02,+6.31178266e+01,+1,+1.57103594e-04,+0.00000000e+00,-1.09695730e-10,-1.09695730e-10,+2.62181415e-02,+5.40485591e+01,
+8.00000000e-02,+0.00000000e+00,-5.52138245e-04,+4.61395749e-06,+4.41883950e-03,+9.84937197e-07,+2.44926262e-01,+2.26733906e-03,+1.19766765e-07,+2.81694176e-05,+1.30907858e-03,-6.15574146e-06,-1.09491804e-03,+2.74161353e-02,-1.22795894e+00,+2.18532408e+00,-1.74911992e-03,+7.17116896e-06,+1.76346225e-03,+9.45148485e-03,+2.14241904e-02,+9.54844032e-03,+2.15151856e-02,+1.86086615e-02,+1.76038017e-02,+1.85981349e-02,+1.75932474e-02,+6.81204917e+01,+1,+1.12767491e-04,+0.00000000e+00,+5.65178089e-11,+1.13035618e-10,-2.64883362e-01,-2.18424778e+02,
+9.00000000e-02,+0.00000000e+00,-5.56339666e-04,+1.65634507e-06,+6.78334020e-03,+2.52940179e-05,+2.18647553e-01,+2.46590213e-03,+4.97772820e-08,+1.35999961e-05,+1.58954862e-03,-8.91482137e-06,-1.79741755e-03,+2.85739198e-02,-1.27475613e+00,+2.20384375e+00,-1.56612829e-03,+6.11499425e-06,+1.57835828e-03,-1.94069640e-03,+1.09318462e-02,-1.69536375e-03,+1.11691959e-02,+1.80923488e-02,+1.69352757e-02,+1.80915632e-02,+1.69345597e-02,+6.49555383e+01,+1,+3.31123274e-05,+0.00000000e+00,+4.87300543e-12,+9.74601087e-12,-5.60147892e-01,-3.05021229e+02,
+1.00000000e-01,+0.00000000e+00,-5.40162042e-04,-2.41093849e-06,+8.82776989e-03,+5.07971098e-05,+1.81342381e-01,+2.45616093e-03,-4.84383774e-08,-7.31751899e-06,+1.87878633e-03,-1.08029271e-05,-2.35294187e-03,+2.91889201e-02,-1.34218954e+00,+0.00000000e+00,-1.41925927e-03,+4.56939257e-06,+1.42839805e-03,-1.24088971e-02,+9.30599970e-04,-1.20208251e-02,+1.31062632e-03,+1.77058290e-02,+1.64091013e-02,+1.77175603e-02,+1.64210163e-02,+5.55540244e+01,+1,-7.47270794e-05,+0.00000000e+00,+2.48183840e-11,+4.96367679e-11,-8.27759477e-01,-3.62304089e+02,
+1.10000000e-01,+0.00000000e+00,-5.06301193e-04,-7.20209768e-06,+1.04405332e-02,+7.49977751e-05,+1.33530900e-01,+2.17001949e-03,-1.73616165e-07,-3.27896885e-05,+2.17199763e-03,-1.24081570e-05,-2.70246471e-03,+2.93994343e-02,-1.44411712e+00,-1.90340142e+00,-1.30867073e-03,+2.61399756e-06,+1.31389873e-03,-2.09720569e-02,-7.39349506e-03,-2.04670588e-02,-6.89935592e-03,+1.74750360e-02,+1.60521286e-02,+1.75000415e-02,+1.60774819e-02,+4.19519653e+01,+1,-2.00218374e-04,+0.00000000e+00,+1.78166210e-10,+3.56332421e-10,-1.04423546e+00,-4.16239193e+02,
+1.20000000e-01,+0.00000000e+00,-4.58777602e-04,-1.22701970e-05,+1.15403083e-02,+9.56403431e-05,+8.04299825e-02,+1.76690275e-03,-3.02899096e-07,-6.06138088e-05,+2.46582885e-03,-1.06162694e-05,-2.82321959e-03,+2.93264703e-02,-1.55773590e+00,-1.95490822e+00,-1.22751361e-03,+3.68900178e-07,+1.22825141e-03,-2.70695093e-02,-1.33426714e-02,-2.64807839e-02,-1.27582765e-02,+1.73662892e-02,+1.58322664e-02,+1.74034148e-02,+1.58698794e-02,+2.65989462e+01,+1,-3.31285609e-04,+0.00000000e+00,+4.87778465e-10,+9.75556930e-10,-1.19617121e+00,-4.78884272e+02,
+1.30000000e-01,+0.00000000e+00,-4.02346733e-04,-1.71671230e-05,+1.21000383e-02,+1.11678983e-04,+2.68864471e-02,+1.27117923e-03,-4.19162770e-07,-8.85131913e-05,+2.75783269e-03,-8.10035834e-06,-2.72210919e-03,+2.90462874e-02,-1.39751874e+00,-1.95015765e+00,-1.16763524e-03,-2.01624085e-06,+1.16360276e-03,-3.04885715e-02,-1.67609124e-02,-2.98558356e-02,-1.61283243e-02,+1.73290381e-02,+1.56980823e-02,+1.73756510e-02,+1.57453000e-02,+1.13725873e+01,+1,-4.56089194e-04,+0.00000000e+00,+9.24521568e-10,+1.84904314e-09,-1.28029313e+00,-5.63795123e+02,
+1.40000000e-01,+0.00000000e+00,-3.41947895e-04,-2.14952538e-05,+1.21363090e-02,+1.22425192e-04,-2.31588151e-02,+7.31947450e-04,-5.11387839e-07,-1.14404612e-04,+3.04620594e-03,-4.26925803e-06,-2.42876969e-03,+2.86059474e-02,-1.24892474e+00,-1.91340140e+00,-1.12237246e-03,-4.37862185e-06,+1.11361522e-03,-3.13488605e-02,-1.77632311e-02,-3.07160652e-02,-1.71266070e-02,+1.73196255e-02,+1.56038756e-02,+1.73722046e-02,+1.56571713e-02,-2.48859852e+00,+1,-5.64371823e-04,+0.00000000e+00,+1.41562469e-09,+2.83124937e-09,-1.30003975e+00,-6.95994670e+02,
+1.50000000e-01,+0.00000000e+00,-2.82236595e-04,-2.49400432e-05,+1.17009846e-02,+1.27661003e-04,-6.65797873e-02,+1.82952201e-04,-5.65137097e-07,-1.36568420e-04,+3.32944763e-03,+7.88510115e-07,-1.98496183e-03,+2.80214117e-02,-1.13228280e+00,-1.84223199e+00,-1.08738025e-03,-6.55948131e-06,+1.07426129e-03,-2.99806851e-02,-1.66660805e-02,-2.93900985e-02,-1.60678660e-02,+1.73099114e-02,+1.55188473e-02,+1.73646406e-02,+1.55743808e-02,-1.42162761e+01,+1,-6.48242046e-04,+0.00000000e+00,+1.86763445e-09,+3.73526890e-09,-1.26322046e+00,-9.43530209e+02,
+1.60000000e-01,+0.00000000e+00,-2.27222843e-04,-2.72847874e-05,+1.08722902e-02,+1.27448160e-04,-1.01205003e-01,-3.57371574e-04,-5.69178088e-07,-1.53735576e-04,+3.60610660e-03,+6.48547155e-06,-1.43807557e-03,+2.72880595e-02,-1.04349033e+00,-1.72946808e+00,-1.06037727e-03,-8.41976165e-06,+1.04353774e-03,-2.68378953e-02,-1.39077377e-02,-2.63267221e-02,-1.33863545e-02,+1.72867002e-02,+1.54273396e-02,+1.73399573e-02,+1.54814509e-02,-2.33917973e+01,+1,-7.02496112e-04,+0.00000000e+00,+2.19333683e-09,+4.38667367e-09,-1.18023555e+00,-1.60254266e+03,
+1.70000000e-01,+0.00000000e+00,-1.80024139e-04,-2.84152404e-05,+9.74478036e-03,+1.21975965e-04,-1.25895168e-01,-8.77247865e-04,-5.17569194e-07,-1.65118341e-04,+3.87461582e-03,+1.23945201e-05,-8.36255550e-04,+2.63889365e-02,-9.58547526e-01,-1.56578784e+00,-1.04048460e-03,-9.85185544e-06,+1.02078089e-03,-2.24334956e-02,-9.98715350e-03,-2.20310522e-02,-9.57276470e-03,+1.72472298e-02,+1.53249418e-02,+1.72959277e-02,+1.53744947e-02,-2.98670301e+01,+1,-7.24637410e-04,+0.00000000e+00,+2.33377500e-09,+4.66755000e-09,-1.06272134e+00,-9.51355289e+03,
+1.80000000e-01,+0.00000000e+00,-1.42738514e-04,-2.83155854e-05,+8.41928685e-03,+1.11567970e-04,-1.40485684e-01,-1.36014322e-03,-4.08298994e-07,-1.70396572e-04,+4.13321406e-03,+1.80451864e-05,-2.24285336e-04,+2.53034278e-02,-8.14078318e-01,-1.33993661e+00,-1.02756163e-03,-1.07859568e-05,+1.00598971e-03,-1.72882914e-02,-5.41045304e-03,-1.70136872e-02,-5.12305958e-03,+1.71941610e-02,+1.52137476e-02,+1.72359384e-02,+1.52563163e-02,-3.37055985e+01,+1,-7.14669630e-04,+0.00000000e+00,-0.00000000e+00,+0.00000000e+00,-9.22489583e-01,+1.88069909e+03,
+1.90000000e-01,+0.00000000e+00,-1.16429177e-04,-2.70562023e-05,+6.99397212e-03,+9.67105000e-05,-1.45633484e-01,-1.78747065e-03,-2.44659192e-07,-1.69668781e-04,+4.37994530e-03,+2.28918540e-05,+3.59226727e-04,+2.40143234e-02,-2.26238251e-01,-1.03894652e+00,-1.02172161e-03,-1.11910574e-05,+9.99339494e-04,-1.18878245e-02,-6.51545047e-04,-1.17498511e-02,-5.00847396e-04,+1.71317704e-02,+1.50984793e-02,+1.71650566e-02,+1.51324169e-02,-3.51350982e+01,+1,-6.74721488e-04,+0.00000000e+00,-0.00000000e+00,+0.00000000e+00,-7.70706266e-01,+7.45748657e+02,
+2.00000000e-01,+0.00000000e+00,-1.01203533e-04,-2.47762763e-05,+5.55720188e-03,+7.80589454e-05,-1.42609808e-01,-2.14348114e-03,-3.64260351e-08,-1.63380484e-04,+4.61272609e-03,+2.61736097e-05,+8.83696071e-04,+2.25143052e-02,+1.32785829e+00,-6.49580545e-01,-1.02305737e-03,-1.10716362e-05,+1.00091410e-03,-6.64901798e-03,+3.87918417e-03,-6.64820806e-03,+3.89278993e-03,+1.70637777e-02,+1.49840811e-02,+1.70877682e-02,+1.50084972e-02,-3.45032243e+01,+1,-6.08575129e-04,+0.00000000e+00,-0.00000000e+00,+0.00000000e+00,-6.17267292e-01,+4.14235019e+02,
+2.10000000e-01,+0.00000000e+00,-9.63644360e-05,-2.16640185e-05,+4.18247340e-03,+5.63374324e-05,-1.33098300e-01,-2.42589152e-03,+1.99318544e-07,-1.52239765e-04,+4.82947019e-03,+2.75055314e-05,+1.32713443e-03,+2.08103951e-02,+1.48998263e+00,-1.63184060e-01,-1.03153025e-03,-1.04620988e-05,+1.01060605e-03,-1.90002639e-03,+7.85910033e-03,-2.03041480e-03,+7.74291366e-03,+1.69925305e-02,+1.48746584e-02,+1.70071019e-02,+1.48893416e-02,-3.22387138e+01,+1,-5.21153584e-04,+0.00000000e+00,-0.00000000e+00,+0.00000000e+00,-4.70349085e-01,+2.55196277e+02,
+2.20000000e-01,+0.00000000e+00,-1.00605291e-04,-1.79379565e-05,+2.92535594e-03,+3.22620688e-05,-1.18998703e-01,-2.63644899e-03,+4.44482925e-07,-1.37130909e-04,+5.02823102e-03,+2.70222102e-05,+1.67628527e-03,+1.89228010e-02,+1.42294410e+00,+4.13843434e-01,-1.04696749e-03,-9.42090420e-06,+1.02812568e-03,+2.11845326e-03,+1.10725063e-02,+1.87059273e-03,+1.08407291e-02,+1.69191222e-02,+1.47732152e-02,+1.69246945e-02,+1.47785260e-02,-2.88134067e+01,+1,-4.18024570e-04,+0.00000000e+00,-0.00000000e+00,+0.00000000e+00,-3.36120908e-01,+1.61292845e+02,
+2.30000000e-01,+0.00000000e+00,-1.12222140e-04,-1.38283668e-05,+1.82165207e-03,+6.54763764e-06,-1.02334089e-01,-2.76497258e-03,+6.83121399e-07,-1.19027479e-04,+5.20731544e-03,+2.50982506e-05,+1.92646210e-03,+1.68817750e-02,+1.41825100e+00,+1.04239867e+00,-1.06910945e-03,-8.02257889e-06,+1.05306429e-03,+5.26991794e-03,+1.34053611e-02,+4.92609512e-03,+1.30767283e-02,+1.68439310e-02,+1.46816126e-02,+1.68413236e-02,+1.46783603e-02,-2.47547437e+01,+1,-3.04926670e-04,+0.00000000e+00,-0.00000000e+00,+0.00000000e+00,-2.18535468e-01,+9.88003226e+01,
+2.40000000e-01,+0.00000000e+00,-1.29331266e-04,-9.55839560e-06,+8.87901133e-04,-1.99246541e-05,-8.48920542e-02,-2.80081606e-03,+9.01840695e-07,-9.89090418e-05,+5.36538056e-03,+2.19238165e-05,+2.08086152e-03,+1.47265955e-02,+1.43930039e+00,+1.63735158e+00,-1.09763567e-03,-6.34926466e-06,+1.08493715e-03,+7.53249233e-03,+1.48304069e-02,+7.11508524e-03,+1.44253187e-02,+1.67670199e-02,+1.46005898e-02,+1.67573179e-02,+1.45898920e-02,-2.05237965e+01,+1,-1.87337911e-04,+0.00000000e+00,-0.00000000e+00,+0.00000000e+00,-1.19364471e-01,+5.35426167e+01,
+2.50000000e-01,+0.00000000e+00,-1.50061013e-04,-5.32848323e-06,+1.24609240e-04,-4.63608475e-05,-6.80881343e-02,-2.76062822e-03,+1.08855335e-06,-7.76924045e-05,+5.50150680e-03,+1.76961325e-05,+2.14842577e-03,+1.25021823e-02,+1.47337408e+00,+2.08124426e+00,-1.13217650e-03,-4.48347866e-06,+1.12320954e-03,+8.96494402e-03,+1.53985977e-02,+8.49508427e-03,+1.49375586e-02,+1.66884007e-02,+1.45299397e-02,+1.66728352e-02,+1.45130826e-02,-1.64786012e+01,+1,-7.01398862e-05,+0.00000000e+00,-0.00000000e+00,+0.00000000e+00,-3.85748610e-02,+1.83556825e+01,
+2.60000000e-01,+0.00000000e+00,-1.72700867e-04,-1.30752395e-06,-4.79917976e-04,-7.20563636e-05,-5.29458953e-02,-2.64958482e-03,+1.23312580e-06,-5.61844054e-05,+5.61524096e-03,+1.26615441e-05,+2.14189244e-03,+1.02562895e-02,+1.51397552e+00,+2.27581788e+00,-1.17232464e-03,-2.50307845e-06,+1.16731849e-03,+9.68141385e-03,+1.52215814e-02,+9.17814659e-03,+1.47236477e-02,+1.66082465e-02,+1.44688611e-02,+1.65880868e-02,+1.44471814e-02,-1.28759529e+01,+1,+4.25916366e-05,+0.00000000e+00,-0.00000000e+00,+0.00000000e+00,+2.52327786e-02,-1.09993223e+01,
+2.70000000e-01,+0.00000000e+00,-1.95804783e-04,+2.37262746e-06,-9.45665354e-04,-9.63733520e-05,-4.01014139e-02,-2.47643886e-03,+1.32788361e-06,-3.50527282e-05,+5.70660679e-03,+7.09163267e-06,+2.07606486e-03,+8.03602846e-03,+1.55689693e+00,+2.20074332e+00,-1.21763894e-03,-4.77726624e-07,+1.21668349e-03,+9.82832329e-03,+1.44509942e-02,+9.30805289e-03,+1.39328651e-02,+1.65269841e-02,+1.44162983e-02,+1.65034456e-02,+1.43910837e-02,-9.87354693e+00,+1,+1.47693996e-04,+0.00000000e+00,-0.00000000e+00,+0.00000000e+00,+7.43847172e-02,-3.74972750e+01,
+2.80000000e-01,+0.00000000e+00,-2.18249422e-04,+5.61901851e-06,-1.29718500e-03,-1.18750534e-04,-2.98367921e-02,-2.24870292e-03,+1.36783640e-06,-1.48132432e-05,+5.77608382e-03,+1.25893721e-06,+1.96625813e-03,+5.88505178e-03,+1.54246089e+00,+1.92077586e+00,-1.26764314e-03,+1.53348132e-06,+1.27071010e-03,+9.56435637e-03,+1.32579212e-02,+9.04055763e-03,+1.27335401e-02,+1.64452876e-02,+1.43711799e-02,+1.64194609e-02,+1.43435941e-02,-7.53868136e+00,+1,+2.42935575e-04,+0.00000000e+00,-0.00000000e+00,+0.00000000e+00,+1.11713510e-01,-6.36835230e+01,
+2.90000000e-01,+0.00000000e+00,-2.39252156e-04,+8.37635313e-06,-1.56031904e-03,-1.38705167e-04,-2.21352790e-02,-1.97574824e-03,+1.35072680e-06,+4.16842965e-06,+5.82456177e-03,-4.57350306e-06,+1.82702064e-03,+3.84148481e-03,+1.50304621e+00,+1.53740203e+00,-1.32182367e-03,+3.48324591e-06,+1.32879016e-03,+9.04405502e-03,+1.18145348e-02,+8.52727287e-03,+1.12950069e-02,+1.63640156e-02,+1.43325582e-02,+1.63368202e-02,+1.43035920e-02,-5.86219825e+00,+1,+3.26960641e-04,+0.00000000e+00,-0.00000000e+00,+0.00000000e+00,+1.40185601e-01,-9.22353641e+01,
+3.00000000e-01,+0.00000000e+00,-2.58355789e-04,+1.06233599e-05,-1.75953373e-03,-1.55830898e-04,-1.67480601e-02,-1.66599843e-03,+1.27696723e-06,+2.16641888e-05,+5.85327790e-03,-1.01588682e-05,+1.67118231e-03,+1.93659076e-03,+1.46784792e+00,+1.13809088e+00,-1.37962948e-03,+5.33622859e-06,+1.39030194e-03,+8.40541541e-03,+1.02790270e-02,+7.90350983e-03,+9.77278088e-03,+1.62841258e-02,+1.42996679e-02,+1.62562878e-02,+1.42701145e-02,-4.77564412e+00,+1,+3.99180285e-04,+0.00000000e+00,-0.00000000e+00,+0.00000000e+00,+1.62596863e-01,-1.26513698e+02,
+3.10000000e-01,+0.00000000e+00,-2.75388126e-04,+1.23675430e-05,-1.91595382e-03,-1.69792446e-04,-1.32664371e-02,-1.32637662e-03,+1.14949190e-06,+3.75629133e-05,+5.86374459e-03,-1.52717931e-05,+1.50924376e-03,+1.94093774e-04,+1.43763719e+00,+7.76802265e-01,-1.44047521e-03,+7.06833304e-06,+1.45461188e-03,+7.76154962e-03,+8.78449024e-03,+7.28011664e-03,+8.29762667e-03,+1.62065911e-02,+1.42719247e-02,+1.61786416e-02,+1.42423770e-02,-4.16994937e+00,+1,+4.59629274e-04,+0.00000000e+00,-0.00000000e+00,+0.00000000e+00,+1.81347397e-01,-1.71337338e+02,
+3.20000000e-01,+0.00000000e+00,-2.90404897e-04,+1.36390657e-05,-2.04612480e-03,-1.80322272e-04,-1.11943840e-02,-9.64519868e-04,+9.73490095e-07,+5.18454925e-05,+5.85767289e-03,-1.97254104e-05,+1.34909493e-03,-1.36991040e-03,+1.41268123e+00,+4.78535138e-01,-1.50374784e-03,+8.66534088e-06,+1.52107853e-03,+7.19629996e-03,+7.43202614e-03,+6.73912637e-03,+6.96877220e-03,+1.61323283e-02,+1.42488892e-02,+1.61046193e-02,+1.42197531e-02,-3.91405874e+00,+1,+5.08807661e-04,+0.00000000e+00,-0.00000000e+00,+0.00000000e+00,+1.98299520e-01,-2.34384635e+02,
+3.30000000e-01,+0.00000000e+00,-3.03624538e-04,+1.44843386e-05,-2.16146939e-03,-1.87229846e-04,-1.00131992e-02,-5.87752784e-04,+7.55909173e-07,+6.45584833e-05,+5.83689863e-03,-2.33848038e-05,+1.19600726e-03,-2.74641269e-03,+1.39286946e+00,+2.50678669e-01,-1.56881619e-03,+1.01211302e-05,+1.58905845e-03,+6.76343262e-03,+6.28815135e-03,+6.33289627e-03,+5.85129900e-03,+1.60621471e-02,+1.42302249e-02,+1.60348804e-02,+1.42017466e-02,-3.87159672e+00,+1,+5.47523467e-04,+0.00000000e+00,-0.00000000e+00,+0.00000000e+00,+2.14715298e-01,-3.29259256e+02,
+3.40000000e-01,+0.00000000e+00,-3.15362125e-04,+1.49597942e-05,-2.26833876e-03,-1.90406319e-04,-9.23689358e-03,-2.06477900e-04,+5.04978775e-07,+7.57887979e-05,+5.80331478e-03,-2.61607938e-05,+1.05284085e-03,-3.93285079e-03,+1.37781971e+00,+9.23795224e-02,-1.63504170e-03,+1.14356969e-05,+1.65791309e-03,+6.48799589e-03,+5.38581849e-03,+6.08555212e-03,+4.97715791e-03,+1.59967149e-02,+1.42156577e-02,+1.59699779e-02,+1.41879592e-02,-3.91494736e+00,+1,+5.76748583e-04,+0.00000000e+00,-0.00000000e+00,+0.00000000e+00,+2.31263785e-01,-4.83542706e+02,
+3.50000000e-01,+0.00000000e+00,-3.25968104e-04,+1.51262222e-05,-2.36856472e-03,-1.89831832e-04,-8.45383828e-03,+1.72721698e-04,+2.29667841e-07,+8.56413717e-05,+5.75881093e-03,-2.80152154e-05,+9.20427035e-04,-4.93225975e-03,+1.36696370e+00,+7.52449454e-05,-1.70179043e-03,+1.26131117e-05,+1.72701666e-03,+6.36997879e-03,+4.72820712e-03,+5.99655166e-03,+4.34891596e-03,+1.59365401e-02,+1.42049324e-02,+1.59103454e-02,+1.41780492e-02,-3.93609495e+00,+1,+5.97497092e-04,+0.00000000e+00,-0.00000000e+00,+0.00000000e+00,+2.48084712e-01,-7.65380512e+02,
+3.60000000e-01,+0.00000000e+00,-3.35776743e-04,+1.50441551e-05,-2.46034552e-03,-1.85562893e-04,-7.35325532e-03,+5.41172863e-04,-6.07539553e-08,+9.42213343e-05,+5.70522320e-03,-2.89448430e-05,+7.98065864e-04,-5.75206364e-03,+1.35961697e+00,-2.97510487e-02,-1.76844492e-03,+1.36596034e-05,+1.79576413e-03,+6.38965323e-03,+4.29463850e-03,+6.04596446e-03,+3.94562580e-03,+1.58819720e-02,+1.41977880e-02,+1.58562936e-02,+1.41717058e-02,-3.85326750e+00,+1,+6.10732637e-04,+0.00000000e+00,-0.00000000e+00,+0.00000000e+00,+2.64891434e-01,-1.40975188e+03,
+3.70000000e-01,+0.00000000e+00,-3.45067230e-04,+1.47703889e-05,-2.53932109e-03,-1.77734056e-04,-5.73608770e-03,+8.91567390e-04,-3.57108537e-07,+1.01621299e-04,+5.64429651e-03,-2.89972127e-05,+6.84052481e-04,-6.40288089e-03,+1.35502959e+00,+5.12804858e-04,-1.83441464e-03,+1.45820101e-05,+1.86357866e-03,+6.51352102e-03,+4.04758276e-03,+6.20034802e-03,+3.72961376e-03,+1.58332085e-02,+1.41939544e-02,+1.58080137e-02,+1.41686422e-02,-3.61379661e+00,+1,+6.17306454e-04,+0.00000000e+00,-0.00000000e+00,+0.00000000e+00,+2.81095460e-01,-4.20117004e+03,
+3.80000000e-01,+0.00000000e+00,-3.54038091e-04,+1.43556774e-05,-2.59970252e-03,-1.66562749e-04,-3.51573455e-03,+1.21588000e-03,-6.51329465e-07,+1.07914053e-04,+5.57765670e-03,-2.83337036e-05,+5.76192133e-04,-6.89782134e-03,+1.35241581e+00,+8.93402175e-02,-1.89914542e-03,+1.53865630e-05,+1.92991855e-03,+6.70077125e-03,+3.93855041e-03,+6.41888051e-03,+3.65178180e-03,+1.57903152e-02,+1.41931470e-02,+1.57655882e-02,+1.41685886e-02,-3.19358225e+00,+1,+6.17926006e-04,+0.00000000e+00,-1.69703355e-09,-1.69703355e-09,+2.95933232e-01,+7.07715392e+03,
+3.90000000e-01,+0.00000000e+00,-3.62794614e-04,+1.38432164e-05,-2.63535402e-03,-1.52332525e-04,-7.06457667e-04,+1.50924216e-03,-9.36108782e-07,+1.13149162e-04,+5.50679104e-03,-2.69331495e-05,+4.72107089e-04,-7.25111473e-03,+1.35097604e+00,+2.35666467e-01,-1.96212740e-03,+1.60780487e-05,+1.99428350e-03,+6.90809516e-03,+3.91525761e-03,+6.65844417e-03,+3.66103313e-03,+1.57532484e-02,+1.41950646e-02,+1.57290074e-02,+1.41712737e-02,-2.59561182e+00,+1,+6.13144987e-04,+0.00000000e+00,-1.67087456e-09,-1.67087456e-09,+3.08594341e-01,+2.18467687e+03,
+4.00000000e-01,+0.00000000e+00,-3.71349906e-04,+1.32681594e-05,-2.64067601e-03,-1.35373727e-04,+2.60206755e-03,+1.76849615e-03,-1.20378522e-06,+1.17353643e-04,+5.43304614e-03,-2.47919096e-05,+3.69737574e-04,-7.47652959e-03,+1.34993950e+00,+4.37924468e-01,-2.02289950e-03,+1.66596391e-05,+2.05621877e-03,+7.09355428e-03,+3.93106226e-03,+6.87757503e-03,+3.71201707e-03,+1.57218770e-02,+1.41994559e-02,+1.56981853e-02,+1.41764751e-02,-1.84423218e+00,+1,+6.03374531e-04,+0.00000000e+00,-1.61804811e-09,-1.61804811e-09,+3.18336489e-01,+1.36094373e+03,
+4.10000000e-01,+0.00000000e+00,-3.79635627e-04,+1.26583249e-05,-2.61124145e-03,-1.16040926e-04,+6.26788594e-03,+1.98987585e-03,-1.44691437e-06,+1.20536671e-04,+5.35763569e-03,-2.19320948e-05,+2.67585089e-04,-7.58683822e-03,+1.34857358e+00,+6.91091495e-01,-2.08105121e-03,+1.71328914e-05,+2.11531699e-03,+7.22077514e-03,+3.94859773e-03,+7.04049318e-03,+3.76791478e-03,+1.56960000e-02,+1.42061614e-02,+1.56729700e-02,+1.41840604e-02,-9.78769222e-01,+1,+5.88914320e-04,+0.00000000e+00,-1.54142256e-09,-1.54142256e-09,+3.24564005e-01,+1.00923411e+03,
+4.20000000e-01,+0.00000000e+00,-3.87518561e-04,+1.20351628e-05,-2.54420981e-03,-9.47259184e-05,+1.01194570e-02,+2.17098842e-03,-1.65814371e-06,+1.22695600e-04,+5.28165102e-03,-1.83685067e-05,+1.64800503e-04,-7.59375842e-03,+1.34617691e+00,+9.82001772e-01,-2.13622400e-03,+1.74977422e-05,+2.17121948e-03,+7.26221070e-03,+3.94039413e-03,+7.12035418e-03,+3.80123758e-03,+1.56753711e-02,+1.42150998e-02,+1.56531566e-02,+1.41939753e-02,-4.74241618e-02,+1,+5.69988825e-04,+0.00000000e+00,-1.44394338e-09,-1.44394338e-09,+3.26877361e-01,+8.06322745e+02,
+4.30000000e-01,+0.00000000e+00,-3.94820208e-04,+1.14148331e-05,-2.43851709e-03,-7.18553942e-05,+1.39766751e-02,+2.30782058e-03,-1.83041606e-06,+1.23822725e-04,+5.20607167e-03,-1.41360217e-05,+6.12102553e-05,-7.50788918e-03,+1.34207172e+00,+1.28418478e+00,-2.18811196e-03,+1.77530549e-05,+2.22361807e-03,+7.20119097e-03,+3.88864799e-03,+7.10081979e-03,+3.79402592e-03,+1.56597217e-02,+1.42262188e-02,+1.56385066e-02,+1.42061930e-02,+8.98964238e-01,+1,+5.46785437e-04,+0.00000000e+00,-1.32877473e-09,-1.32877473e-09,+3.25095716e-01,+6.69380392e+02,
+4.40000000e-01,+0.00000000e+00,-4.01337464e-04,+1.08094824e-05,-2.29486251e-03,-4.78658183e-05,+1.76699561e-02,+2.40022491e-03,-1.95777091e-06,+1.23912174e-04,+5.13177721e-03,-9.47965822e-06,-4.26331206e-05,-7.33875783e-03,+1.33559667e+00,+1.55566595e+00,-2.23646103e-03,+1.78973168e-05,+2.27225567e-03,+7.03247857e-03,+3.78492199e-03,+6.97636543e-03,+3.73621593e-03,+1.56487771e-02,+1.42394501e-02,+1.56287626e-02,+1.42206673e-02,+1.81307170e+00,+1,+5.19491348e-04,+0.00000000e+00,-1.19942783e-09,-1.19942783e-09,+3.19253496e-01,+5.68016778e+02,
+4.50000000e-01,+0.00000000e+00,-4.06861183e-04,+1.02286318e-05,-2.11556313e-03,-2.32247581e-05,+2.10479584e-02,+2.44452816e-03,-2.03777572e-06,+1.22966504e-04,+5.05955318e-03,-4.78091026e-06,-1.45662410e-04,-7.09571135e-03,+1.32604825e+00,+1.74423812e+00,-2.28106744e-03,+1.79293684e-05,+2.31692618e-03,+6.76235134e-03,+3.62542149e-03,+6.75183542e-03,+3.62166892e-03,+1.56422655e-02,+1.42546350e-02,+1.56236567e-02,+1.42372654e-02,+2.65485553e+00,+1,+4.88327131e-04,+0.00000000e+00,-1.05983728e-09,-1.05983728e-09,+3.09568867e-01,+4.88516780e+02,
+4.60000000e-01,+0.00000000e+00,-4.11192015e-04,+9.67965470e-06,-1.90433348e-03,+1.57661225e-06,+2.39853257e-02,+2.43870870e-03,-2.07144784e-06,+1.21000493e-04,+4.99009293e-03,-3.45007285e-07,-2.46512530e-04,-6.78780216e-03,+1.31261861e+00,+1.80414440e+00,-2.32177572e-03,+1.78489624e-05,+2.35747365e-03,+6.40541379e-03,+3.41071547e-03,+6.43991780e-03,+3.44955468e-03,+1.56399206e-02,+1.42714879e-02,+1.56229133e-02,+1.42557178e-02,+3.39279734e+00,+1,+4.53564253e-04,+0.00000000e+00,-9.14313473e-10,-9.14313473e-10,+2.96413904e-01,+4.23754114e+02,
+4.70000000e-01,+0.00000000e+00,-4.14153966e-04,+9.16814218e-06,-1.66598560e-03,+2.60420255e-05,+2.63898972e-02,+2.38325409e-03,-2.06249762e-06,+1.18043635e-04,+4.92400118e-03,+3.59985693e-06,-3.43623994e-04,-6.42371607e-03,+1.29431056e+00,+1.71665818e+00,-2.35847619e-03,+1.76572570e-05,+2.39379071e-03,+5.98089320e-03,+3.14663300e-03,+6.05801152e-03,+3.22495757e-03,+1.56414806e-02,+1.42896334e-02,+1.56262525e-02,+1.42756470e-02,+4.00469476e+00,+1,+4.15535171e-04,+0.00000000e+00,-7.67419904e-10,-7.67419904e-10,+2.80280922e-01,+3.69651792e+02,
+4.80000000e-01,+0.00000000e+00,-4.15604521e-04,+8.69815444e-06,-1.40608283e-03,+4.96824153e-05,+2.82052163e-02,+2.27957511e-03,-2.01653200e-06,+1.14141438e-04,+4.86179701e-03,+6.90870411e-06,-4.35374702e-04,-6.01192817e-03,+1.26978532e+00,+1.49954768e+00,-2.39110259e-03,+1.73571436e-05,+2.42581688e-03,+5.50967025e-03,+2.84377075e-03,+5.62552908e-03,+2.95814217e-03,+1.56466889e-02,+1.43086697e-02,+1.56333920e-02,+1.42966288e-02,+4.47753387e+00,+1,+3.74636798e-04,+0.00000000e+00,-6.23789912e-10,-6.23789912e-10,+2.61744639e-01,+3.23674434e+02,
+4.90000000e-01,+0.00000000e+00,-4.15440819e-04,+8.27229712e-06,-1.13059172e-03,+7.20236124e-05,+2.94075762e-02,+2.12866908e-03,-1.94021265e-06,+1.09355395e-04,+4.80391495e-03,+9.51885001e-06,-5.20208905e-04,-5.56091631e-03,+1.23710565e+00,+1.19749896e+00,-2.41963004e-03,+1.69534756e-05,+2.45353699e-03,+5.01228798e-03,+2.51600937e-03,+5.16198353e-03,+2.66292858e-03,+1.56552944e-02,+1.43282218e-02,+1.56440507e-02,+1.43182501e-02,+4.80621871e+00,+1,+3.31327049e-04,+0.00000000e+00,-4.87900505e-10,-4.87900505e-10,+2.41424589e-01,+2.84127519e+02,
+5.00000000e-01,+0.00000000e+00,-4.13602035e-04,+7.89155776e-06,-8.45552892e-04,+9.26042473e-05,+3.00078709e-02,+1.93058724e-03,-1.84040503e-06,+1.03761690e-04,+4.75070421e-03,+1.14751869e-05,-5.96771773e-04,-5.07922561e-03,+1.19329227e+00,+8.61939774e-01,-2.44407409e-03,+1.64530255e-05,+2.47698015e-03,+4.50755959e-03,+2.17881305e-03,+4.68573380e-03,+2.35494634e-03,+1.56670569e-02,+1.43479757e-02,+1.56579565e-02,+1.43401485e-02,+4.99405123e+00,+1,+2.86115175e-04,+0.00000000e+00,-3.63830637e-10,-3.63830637e-10,+2.19949955e-01,+2.49801775e+02,
+5.10000000e-01,+0.00000000e+00,-4.10067665e-04,+7.54518313e-06,-5.56812581e-04,+1.11106133e-04,+3.00279017e-02,+1.72783733e-03,-1.71898628e-06,+9.74029543e-05,+4.70242362e-03,+1.37641642e-05,-6.77379602e-04,-4.57686894e-03,+1.13313277e+00,+5.27421974e-01,-2.46449186e-03,+1.58593121e-05,+2.49621048e-03,+4.00853655e-03,+1.83381143e-03,+4.21248679e-03,+2.04259672e-03,+1.56817269e-02,+1.43676546e-02,+1.56748353e-02,+1.43619751e-02,+5.04714297e+00,+1,+1.37107569e-02,+3.06032393e+00,-8.35488245e-07,-8.35488245e-07,+1.97927138e-01,+1.38033523e+01,
+5.20000000e-01,+0.00000000e+00,-4.04854029e-04,+7.18763543e-06,-2.70013208e-04,+1.27534547e-04,+2.95015734e-02,+1.51635404e-03,-1.57421445e-06,+9.01650181e-05,+4.65923358e-03,+1.59785879e-05,-7.71810243e-04,-4.06211918e-03,+1.04802896e+00,+2.20473200e-01,-2.48098807e-03,+1.51611758e-05,+2.51131042e-03,+3.52344204e-03,+1.49361014e-03,+3.75572430e-03,+1.73598333e-03,+1.56989968e-02,+1.43869178e-02,+1.56944132e-02,+1.43833945e-02,+4.97962695e+00,+1,+5.38364112e-02,+6.15225659e+00,-1.28815963e-05,-1.28815963e-05,+1.75931543e-01,+3.23583792e+00,
+5.30000000e-01,+0.00000000e+00,-3.98017257e-04,+6.77232011e-06,+9.82868889e-06,+1.41777640e-04,+2.85122114e-02,+1.29228264e-03,-1.40689249e-06,+8.19309793e-05,+4.62122857e-03,+1.81179036e-05,-8.75938184e-04,-3.54094257e-03,+9.23127989e-01,-3.70713569e-02,-2.49369088e-03,+1.43504296e-05,+2.52239174e-03,+3.05974419e-03,+1.18226842e-03,+3.32390453e-03,+1.45913471e-03,+1.57185038e-02,+1.44056147e-02,+1.57164086e-02,+1.44043618e-02,+4.80825135e+00,+1,+1.19318497e-01,+9.24554901e+00,-5.68152840e-05,-5.68152840e-05,+1.54481647e-01,+1.29255223e+00,
+5.40000000e-01,+0.00000000e+00,-3.89646371e-04,+6.25939605e-06,+2.78585663e-04,+1.53679563e-04,+2.71546705e-02,+1.05190412e-03,-1.21777475e-06,+7.26221058e-05,+4.58844135e-03,+2.01940047e-05,-9.86208309e-04,-3.01956755e-03,+7.32053490e-01,-2.36579977e-01,-2.50274906e-03,+1.34224587e-05,+2.52959398e-03,+2.62381433e-03,+9.18605676e-04,+2.92268050e-03,+1.22994253e-03,+1.57398707e-02,+1.44237556e-02,+1.57405091e-02,+1.44249849e-02,+4.55306188e+00,+1,+2.08883310e-01,+1.23408189e+01,+1.79912509e-04,+2.33785554e-04,+1.34013822e-01,+6.43256968e-01,
+5.50000000e-01,+0.00000000e+00,-3.79854339e-04,+5.61463558e-06,+5.33103194e-04,+1.63111932e-04,+2.55286700e-02,+8.00350170e-04,-1.00746438e-06,+6.21932139e-05,+4.56084475e-03,+2.22239849e-05,-1.09944483e-03,-2.50368433e-03,+4.36048582e-01,-3.78537666e-01,-2.50833216e-03,+1.23739376e-05,+2.53308004e-03,+2.22177276e-03,+7.14592172e-04,+2.55722066e-03,+1.05988019e-03,+1.57627296e-02,+1.44414102e-02,+1.57663665e-02,+1.44453879e-02,+4.23579625e+00,+1,+3.21326819e-01,+1.54386427e+01,+4.58893000e-04,+7.65615650e-04,+1.14867372e-01,+3.59669264e-01,
+5.60000000e-01,+0.00000000e+00,-3.68769627e-04,+4.80888321e-06,+7.71203812e-04,+1.69934730e-04,+2.37325404e-02,+5.28086505e-04,-7.76334152e-07,+5.06287773e-05,+4.53835793e-03,+2.43821969e-05,-1.21300663e-03,-1.99831605e-03,+2.28198451e-02,-4.68748928e-01,-2.51062903e-03,+1.12022700e-05,+2.53303357e-03,+1.85838802e-03,+5.75045189e-04,+2.23255032e-03,+9.53853732e-04,+1.57867337e-02,+1.44586516e-02,+1.57936122e-02,+1.44656475e-02,+3.87990649e+00,+1,+4.55511708e-01,+1.85395581e+01,+9.22181851e-04,+1.68527651e-03,+9.72749579e-02,+2.15639665e-01,
+5.70000000e-01,+0.00000000e+00,-3.56528496e-04,+3.81561906e-06,+9.91718453e-04,+1.74076005e-04,+2.18636043e-02,+2.72311829e-04,-5.17514073e-07,+3.79345015e-05,+4.52085668e-03,+2.74800127e-05,-1.32494831e-03,-1.50700437e-03,-4.08633161e-01,-5.13858048e-01,-2.50984151e-03,+9.90433875e-06,+2.52965019e-03,+1.53375357e-03,+4.99792933e-04,+1.95228936e-03,+9.14229593e-04,+1.58115460e-02,+1.44755236e-02,+1.58218323e-02,+1.44857673e-02,+3.51211304e+00,+1,+6.10362012e-01,+2.16440672e+01,+1.65574127e-03,+3.13244284e-03,+8.13542219e-02,+1.35165821e-01,
+5.80000000e-01,+0.00000000e+00,-3.43267815e-04,+2.61504758e-06,+1.19420112e-03,+1.75742894e-04,+1.99770551e-02,+3.19960469e-05,-2.29072184e-07,+2.41414941e-05,+4.50818197e-03,+3.01900893e-05,-1.43249643e-03,-1.03365355e-03,-7.35461101e-01,-5.22579185e-01,-2.50617721e-03,+8.48263481e-06,+2.52314248e-03,+1.25547817e-03,+4.82901593e-04,+1.71504797e-03,+9.34413914e-04,+1.58368061e-02,+1.44920209e-02,+1.58506296e-02,+1.45056876e-02,+3.14032105e+00,+1,+7.84860112e-01,+2.47526383e+01,+2.73780176e-03,+5.28458569e-03,+6.71425489e-02,+8.72131374e-02,
+5.90000000e-01,+0.00000000e+00,-3.29117484e-04,+1.19413071e-06,+1.37879224e-03,+1.75097173e-04,+1.81332432e-02,-1.90681838e-04,+8.38245308e-08,+9.30218381e-06,+4.50013342e-03,+3.22865884e-05,-1.53401815e-03,-5.82271486e-04,-9.47471039e-01,-5.05627022e-01,-2.49986744e-03,+6.94338158e-06,+2.51375420e-03,+1.02768333e-03,+5.14202188e-04,+1.52350881e-03,+1.00145623e-03,+1.58622700e-02,+1.45080990e-02,+1.58797399e-02,+1.45253034e-02,+2.77774101e+00,+1,+9.78043448e-01,+2.78657087e+01,+4.25141771e-03,+8.30783816e-03,+5.46281103e-02,+5.73330139e-02,
+6.00000000e-01,+0.00000000e+00,-3.14195710e-04,-4.55114145e-07,+1.54614993e-03,+1.72338883e-04,+1.63762622e-02,-3.91369450e-04,+4.13904981e-07,-6.51645670e-06,+4.49647396e-03,+3.35767993e-05,-1.62822709e-03,-1.56228192e-04,-1.08369899e+00,-4.71867770e-01,-2.49116250e-03,+5.29374288e-06,+2.50174999e-03,+8.51829147e-04,+5.83073706e-04,+1.37826085e-03,+1.10249138e-03,+1.58877889e-02,+1.45236904e-02,+1.59089812e-02,+1.45444884e-02,+2.43513342e+00,+1,+1.18900138e+00,+3.09836868e+01,+6.28321906e-03,+1.23748486e-02,+4.37530019e-02,+3.81153204e-02,
+6.10000000e-01,+0.00000000e+00,-2.98605806e-04,-2.33594236e-06,+1.69728542e-03,+1.67704416e-04,+1.47339559e-02,-5.67799751e-04,+7.52236270e-07,-2.32362191e-05,+4.49693528e-03,+3.39248928e-05,-1.71415465e-03,+2.41575857e-04,-1.17448262e+00,-4.28312471e-01,-2.48032106e-03,+3.54174766e-06,+2.48740455e-03,+7.26353930e-04,+6.79898345e-04,+1.27722224e-03,+1.22624618e-03,+1.59132507e-02,+1.45387194e-02,+1.59382016e-02,+1.45631165e-02,+2.11998064e+00,+1,+1.41687228e+00,+3.41069537e+01,+8.92234248e-03,+1.76628202e-02,+3.44297755e-02,+2.54788353e-02,
+6.20000000e-01,+0.00000000e+00,-2.82434353e-04,-4.44723360e-06,+1.83341099e-03,+1.61456552e-04,+1.32202519e-02,-7.16837565e-04,+1.08888889e-06,-4.07706694e-05,+4.50122213e-03,+3.32681400e-05,-1.79111532e-03,+6.08651103e-04,-1.23725254e+00,-3.80310300e-01,-2.46760251e-03,+1.69627478e-06,+2.47099505e-03,+6.47095346e-04,+7.96798508e-04,+1.21599899e-03,+1.36379104e-03,+1.59385417e-02,+1.45531130e-02,+1.59672462e-02,+1.45810762e-02,+1.83639085e+00,+1,+1.66084075e+00,+3.72358657e+01,+1.22595199e-02,+2.43518191e-02,+2.65569037e-02,+1.70500877e-02,
+6.30000000e-01,+0.00000000e+00,-2.65750730e-04,-6.78387278e-06,+1.95581127e-03,+1.53873882e-04,+1.18373479e-02,-8.37974911e-04,+1.41370457e-06,-5.90277644e-05,+4.50901650e-03,+3.16215120e-05,-1.85866379e-03,+9.42934957e-04,-1.28169943e+00,-3.31793365e-01,-2.45326235e-03,-2.33110119e-07,+2.45279613e-03,+6.08233992e-04,+9.27816933e-04,+1.18882176e-03,+1.50870321e-03,+1.59635283e-02,+1.45668083e-02,+1.59959420e-02,+1.45982766e-02,+1.58540179e+00,+1,+1.92013505e+00,+4.03707553e+01,+1.63863049e-02,+3.26233028e-02,+2.00320995e-02,+1.13896123e-02,
+6.40000000e-01,+0.00000000e+00,-2.48607867e-04,-9.33713735e-06,+2.06574503e-03,+1.45241729e-04,+1.05793647e-02,-9.30326738e-04,+1.71705450e-06,-7.79120248e-05,+4.51998208e-03,+2.90715423e-05,-1.91655043e-03,+1.24284385e-03,-1.31336484e+00,-2.85502830e-01,-2.43754969e-03,-2.23630152e-06,+2.43307709e-03,+6.03428638e-04,+1.06876349e-03,+1.18966671e-03,+1.65685566e-03,+1.59880550e-02,+1.45797558e-02,+1.60240981e-02,+1.46146489e-02,+1.36561470e+00,+1,+2.19402468e+00,+4.35119335e+01,+2.13944190e-02,+4.26588372e-02,+1.47626959e-02,+7.59548850e-03,
+6.50000000e-01,+0.00000000e+00,-2.31043931e-04,-1.20950754e-05,+2.16438040e-03,+1.35844289e-04,+9.43542835e-03,-9.94932656e-04,+1.99049173e-06,-9.73262842e-05,+4.53376938e-03,+2.57619590e-05,-1.96468168e-03,+1.50732697e-03,-1.33554466e+00,-2.43176445e-01,-2.42070590e-03,-4.30281882e-06,+2.41210026e-03,+6.26846350e-04,+1.21692734e-03,+1.21324662e-03,+1.80603007e-03,+1.60119512e-02,+1.45919192e-02,+1.60515140e-02,+1.46301431e-02,+1.17402995e+00,+1,+2.48181807e+00,+4.66596906e+01,+2.73752042e-02,+5.46389818e-02,+1.06726399e-02,+5.08793354e-03,
+6.60000000e-01,+0.00000000e+00,-2.13084599e-04,-1.50428735e-05,+2.25276255e-03,+1.25958092e-04,+8.39308728e-03,-1.03268311e-03,+2.22723420e-06,-1.17173085e-04,+4.55002123e-03,+2.18749887e-05,-2.00308934e-03,+1.73589810e-03,-1.35027063e+00,-2.05707118e-01,-2.40296393e-03,-6.42194576e-06,+2.39012004e-03,+6.73896791e-04,+1.37078442e-03,+1.25568326e-03,+1.95549853e-03,+1.60350426e-02,+1.46032740e-02,+1.60779907e-02,+1.46447248e-02,+1.00692640e+00,+1,+2.78286045e+00,+4.98142983e+01,+3.44191658e-02,+6.87423326e-02,+7.70603793e-03,+3.48639246e-03,
+6.70000000e-01,+0.00000000e+00,-1.94745536e-04,-1.81632230e-05,+2.33180990e-03,+1.15846223e-04,+7.44054748e-03,-1.04466391e-03,+2.42245281e-06,-1.37355819e-04,+4.56837842e-03,+1.76118461e-05,-2.03191002e-03,+1.92863400e-03,-1.35882747e+00,-1.73292791e-01,-2.38454763e-03,-8.58289530e-06,+2.36738184e-03,+7.41596197e-04,+1.52975789e-03,+1.31480307e-03,+2.10565273e-03,+1.60571620e-02,+1.46138052e-02,+1.61033425e-02,+1.46583707e-02,+8.60658514e-01,+1,+3.09653181e+00,+5.29760105e+01,+4.26155966e-02,+8.51447182e-02,+5.82755065e-03,+2.53648509e-03,
+6.80000000e-01,+0.00000000e+00,-1.76034768e-04,-2.14366975e-05,+2.40233263e-03,+1.05753356e-04,+6.56864503e-03,-1.03355584e-03,+2.57337260e-06,-1.57779711e-04,+4.58848522e-03,+1.31754364e-05,-2.05137356e-03,+2.08613862e-03,-1.36203186e+00,-1.45593471e-01,-2.36567102e-03,-1.07749464e-05,+2.34412113e-03,+8.28588131e-04,+1.69403634e-03,+1.39009305e-03,+2.25770545e-03,+1.60781585e-02,+1.46235044e-02,+1.61274051e-02,+1.46710658e-02,+7.32272681e-01,+1,+3.42224497e+00,+5.61450648e+01,+5.20522696e-02,+1.04018544e-01,+5.02021423e-03,+2.06512143e-03,
+6.90000000e-01,+0.00000000e+00,-1.56954673e-04,-2.48421529e-05,+2.46506647e-03,+9.59016947e-05,+5.77231928e-03,-1.00119120e-03,+2.67921794e-06,-1.78352720e-04,+4.60999433e-03,+8.75673272e-06,-2.06179823e-03,+2.20947947e-03,-1.36038633e+00,-1.21898202e-01,-2.34653738e-03,-1.29875892e-05,+2.32056220e-03,+9.34906419e-04,+1.86442806e-03,+1.48241232e-03,+2.41345543e-03,+1.60979028e-02,+1.46323684e-02,+1.61500411e-02,+1.46828007e-02,+6.19904172e-01,+1,+3.75944384e+00,+5.93216832e+01,+6.28151911e-02,+1.25532280e-01,+5.28143575e-03,+1.95220603e-03,
+7.00000000e-01,+0.00000000e+00,-1.37503435e-04,-2.83571543e-05,+2.52071451e-03,+8.64875220e-05,+5.05051488e-03,-9.50516431e-04,+2.74104370e-06,-1.98986422e-04,+4.63257111e-03,+4.52577285e-06,-2.06358982e-03,+2.30010640e-03,-1.35416323e+00,-1.01293521e-01,-2.32733831e-03,-1.52106646e-05,+2.29691698e-03,+1.06158917e-03,+2.04222498e-03,+1.59357142e-03,+2.57509366e-03,+1.61162901e-02,+1.46403978e-02,+1.61711418e-02,+1.46935708e-02,+5.22949811e-01,+1,+4.10760167e+00,+6.25060740e+01,+7.49884067e-02,+1.49850085e-01,+6.61796466e-03,+2.11247241e-03,
+7.10000000e-01,+0.00000000e+00,-1.17675896e-04,-3.19584284e-05,+2.56999053e-03,+7.76789165e-05,+4.40643647e-03,-8.84365938e-04,+2.76149592e-06,-2.19596880e-04,+4.65589697e-03,+6.26552763e-07,-2.05724169e-03,+2.35976344e-03,-1.34344984e+00,-8.28182843e-02,-2.30825278e-03,-1.74345026e-05,+2.27338377e-03,+1.21024672e-03,+2.22905958e-03,+1.72587998e-03,+2.74503175e-03,+1.61332402e-02,+1.46475963e-02,+1.61906271e-02,+1.47033758e-02,+4.42048088e-01,+1,+4.46621949e+00,+6.56984317e+01,+8.86538511e-02,+1.77131551e-01,+9.04059682e-03,+2.48369543e-03,
+7.20000000e-01,+0.00000000e+00,-9.74637902e-05,-3.56223343e-05,+2.61365848e-03,+6.96142253e-05,+3.84691200e-03,-8.05895175e-04,+2.74453932e-06,-2.40105525e-04,+4.67967189e-03,-2.82456152e-06,-2.04333384e-03,+2.39040309e-03,-1.32817045e+00,-6.55904418e-02,-2.28944643e-03,-1.96500726e-05,+2.25014629e-03,+1.38266080e-03,+2.42675147e-03,+1.88173907e-03,+2.92574267e-03,+1.61486962e-02,+1.46539707e-02,+1.62084431e-02,+1.47122196e-02,+3.78910791e-01,+1,+4.83482455e+00,+6.88989391e+01,+1.03891238e-01,+2.07531556e-01,+1.25592495e-02,+3.01901637e-03,
+7.30000000e-01,+0.00000000e+00,-7.68554558e-05,-3.93253399e-05,+2.65256416e-03,+6.24015218e-05,+3.38144203e-03,-7.17955455e-04,+2.69518003e-06,-2.60440002e-04,+4.70361609e-03,-5.73840761e-06,-2.02252910e-03,+2.39410992e-03,-1.30809487e+00,-4.88967233e-02,-2.27107092e-03,-2.18490535e-05,+2.22737281e-03,+1.58046752e-03,+2.63715253e-03,+2.06331975e-03,+3.11961435e-03,+1.61626222e-02,+1.46595308e-02,+1.62245592e-02,+1.47201109e-02,+3.36060956e-01,+1,+5.21296898e+00,+7.21077669e+01,+1.20777981e-01,+2.41200201e-01,+1.71788831e-02,+3.68196423e-03,
+7.40000000e-01,+0.00000000e+00,-5.58351827e-05,-4.30497511e-05,+2.68764007e-03,+5.62314683e-05,+3.01550453e-03,-5.96065644e-04,+2.61911311e-06,-2.80561239e-04,+4.72747111e-03,-8.07909199e-06,-2.00380586e-03,+2.37306441e-03,-1.28277128e+00,-3.29948451e-02,-2.25326643e-03,-2.40268117e-05,+2.20521281e-03,+1.80268400e-03,+2.85976726e-03,+2.27061427e-03,+3.32707387e-03,+1.61749985e-02,+1.46642881e-02,+1.62389671e-02,+1.47270655e-02,+3.12047115e-01,+1,+5.60884874e+00,+7.53268767e+01,+1.39818596e-01,+2.79140361e-01,+2.29181985e-02,+4.44175001e-03,
+7.50000000e-01,+0.00000000e+00,-3.43828348e-05,-4.68020586e-05,+2.71985345e-03,+5.14247229e-05,+2.75535500e-03,-4.51296139e-04,+2.52209099e-06,-3.00557248e-04,+4.75100063e-03,-9.85440646e-06,-1.99734761e-03,+2.32949106e-03,-1.25169025e+00,-1.75743934e-02,-2.23616996e-03,-2.61909386e-05,+2.18378808e-03,+2.04832551e-03,+3.09436932e-03,+2.50516120e-03,+3.55034925e-03,+1.61858008e-02,+1.46682360e-02,+1.62516955e-02,+1.47331249e-02,+3.13324944e-01,+1,+6.03308474e+00,+7.85590429e+01,+1.61769384e-01,+3.22856215e-01,+2.98324426e-02,+5.27412714e-03,
+7.60000000e-01,+0.00000000e+00,-1.24730632e-05,-5.05933440e-05,+2.75030630e-03,+4.81453028e-05,+2.61906328e-03,-2.95162300e-04,+2.40985715e-06,-3.20548865e-04,+4.77399029e-03,-1.10648250e-05,-2.00280237e-03,+2.26554958e-03,-1.21428655e+00,-1.45723758e-03,-2.21990394e-03,-2.83498037e-05,+2.16320433e-03,+2.32039790e-03,+3.34491667e-03,+2.77101572e-03,+3.79440446e-03,+1.61949946e-02,+1.46713488e-02,+1.62628105e-02,+1.47383587e-02,+3.45518851e-01,+1,+6.48575086e+00,+8.18050225e+01,+1.86955397e-01,+3.72989369e-01,+3.79664771e-02,+6.16072705e-03,
+7.70000000e-01,+0.00000000e+00,+9.92657914e-06,-5.44328425e-05,+2.78029634e-03,+4.64684958e-05,+2.62709145e-03,-1.34814364e-04,+2.28810937e-06,-3.40653675e-04,+4.79624693e-03,-1.17175750e-05,-2.01986417e-03,+2.18331470e-03,-1.16979465e+00,+1.59132838e-02,-2.20457545e-03,-3.05114395e-05,+2.14355258e-03,+2.62195560e-03,+3.61551211e-03,+3.07130025e-03,+4.06341780e-03,+1.62025575e-02,+1.46736057e-02,+1.62723899e-02,+1.47428416e-02,+4.14660833e-01,+1,+6.96689311e+00,+8.50655687e+01,+2.15722665e-01,+4.30222529e-01,+4.73583007e-02,+7.08549025e-03,
+7.80000000e-01,+0.00000000e+00,+3.28578884e-05,-5.83286406e-05,+2.81133247e-03,+4.64139290e-05,+2.80084645e-03,+2.59927911e-05,+2.16247768e-06,-3.60985939e-04,+4.81759757e-03,-1.18188543e-05,-2.04816385e-03,+2.08475057e-03,-1.11731348e+00,+3.46967262e-02,-2.19027830e-03,-3.26851156e-05,+2.12490807e-03,+2.95567873e-03,+3.90990012e-03,+3.40864996e-03,+4.36114458e-03,+1.62084895e-02,+1.46750039e-02,+1.62805084e-02,+1.47466408e-02,+5.27076036e-01,+1,+7.47656100e+00,+8.83414370e+01,+2.48439841e-01,+4.95282831e-01,+5.80379730e-02,+8.03439992e-03,
+7.90000000e-01,+0.00000000e+00,+5.63743936e-05,-6.22879464e-05,+2.84513734e-03,+4.79670772e-05,+3.16105798e-03,+1.83879114e-04,+2.03853953e-06,-3.81655795e-04,+4.83788828e-03,-1.13738569e-05,-2.08724884e-03,+1.97169795e-03,-1.05591231e+00,+5.47629827e-02,-2.17709374e-03,-3.48815157e-05,+2.10733071e-03,+3.32383134e-03,+4.23138076e-03,+3.78536730e-03,+4.69098327e-03,+1.62128135e-02,+1.46755608e-02,+1.62872339e-02,+1.47498141e-02,+6.89042838e-01,+1,+8.01480738e+00,+9.16333854e+01,+2.85498388e-01,+5.68942230e-01,+7.00282075e-02,+8.99543522e-03,
+8.00000000e-01,+0.00000000e+00,+8.05437273e-05,-6.63172234e-05,+2.88363885e-03,+5.10903911e-05,+3.72758370e-03,+3.37691947e-04,+1.92180757e-06,-4.02768578e-04,+4.85698290e-03,-1.03915797e-05,-2.13661978e-03,+1.84587187e-03,-9.84803807e-01,+7.57612875e-02,-2.16509071e-03,-3.71122368e-05,+2.09086624e-03,+3.72839070e-03,+4.58290904e-03,+4.20347579e-03,+5.05596923e-03,+1.62155706e-02,+1.46753109e-02,+1.62926289e-02,+1.47524119e-02,+9.06528841e-01,+1,+8.58168826e+00,+9.49421748e+01,+3.27312771e-01,+6.52017876e-01,+8.33463894e-02,+9.95861523e-03,
+8.10000000e-01,+0.00000000e+00,+1.05449865e-04,-7.04223493e-05,+2.92895328e-03,+5.57268374e-05,+4.51783718e-03,+4.84837948e-04,+1.81766154e-06,-4.24424602e-04,+4.87476181e-03,-8.89070691e-06,-2.19577973e-03,+1.70886873e-03,-9.03604482e-01,+9.71889194e-02,-2.15432588e-03,-3.93891553e-05,+2.07554757e-03,+4.17122623e-03,+4.96725416e-03,+4.66479072e-03,+5.45881986e-03,+1.62168143e-02,+1.46743002e-02,+1.62967543e-02,+1.47544827e-02,+1.18501822e+00,+1,+9.17726258e+00,+9.82685684e+01,+3.74320660e-01,+7.45372439e-01,+9.80076150e-02,+1.09160465e-02,
+8.20000000e-01,+0.00000000e+00,+1.31195148e-04,-7.46088533e-05,+2.98336361e-03,+6.17995354e-05,+5.54713057e-03,+6.23279171e-04,+1.73122840e-06,-4.46719397e-04,+4.89112084e-03,-6.90380559e-06,-2.26427284e-03,+1.56218215e-03,-8.12674579e-01,+1.18466324e-01,-2.14484401e-03,-4.17239565e-05,+2.06139609e-03,+4.65427242e-03,+5.38716756e-03,+5.17104388e-03,+5.90206223e-03,+1.62166055e-02,+1.46725822e-02,+1.62996723e-02,+1.47560764e-02,+1.52943198e+00,+1,+9.80159206e+00,+1.01613333e+02,+4.26983142e-01,+8.49914410e-01,+1.14028322e-01,+1.18619236e-02,
+8.30000000e-01,+0.00000000e+00,+1.57902045e-04,-7.88822251e-05,+3.04929623e-03,+6.92107232e-05,+6.82849070e-03,+7.51593821e-04,+1.66723122e-06,-4.69744230e-04,+4.90597028e-03,-4.47953096e-06,-2.34170410e-03,+1.40722239e-03,-7.13457990e-01,+1.39011904e-01,-2.13667841e-03,-4.41278094e-05,+2.04842279e-03,+5.17968161e-03,+5.84554350e-03,+5.72404486e-03,+6.38821867e-03,+1.62150094e-02,+1.46702149e-02,+1.63014491e-02,+1.47572476e-02,+1.94412795e+00,+1,+1.04547410e+01,+1.04977236e+02,+4.85784927e-01,+9.66598346e-01,+1.31430107e-01,+1.27924600e-02,
+8.40000000e-01,+0.00000000e+00,+1.85714648e-04,-8.32482472e-05,+3.12929913e-03,+7.78425379e-05,+8.37281506e-03,+8.67398438e-04,+1.62982328e-06,-4.93586743e-04,+4.91923421e-03,-1.68334356e-06,-2.42774124e-03,+1.24532841e-03,-6.08657476e-01,+1.58305775e-01,-2.12985175e-03,-4.66113222e-05,+2.03662910e-03,+5.74995040e-03,+6.34556058e-03,+6.32585052e-03,+6.92000101e-03,+1.62120933e-02,+1.46672599e-02,+1.63021549e-02,+1.47580572e-02,+2.43295929e+00,+1,+1.11367759e+01,+1.08361052e+02,+5.51234569e-01,+1.09642507e+00,+1.50243414e-01,+1.37057513e-02,
+8.50000000e-01,+0.00000000e+00,+2.14799968e-04,-8.77132976e-05,+3.22602366e-03,+8.75600582e-05,+1.01893975e-02,+9.69193624e-04,+1.62242447e-06,-5.18331537e-04,+4.93084971e-03,+1.40373440e-06,-2.52210512e-03,+1.07776738e-03,-5.02056663e-01,+1.75933551e-01,-2.12437685e-03,-4.91845465e-05,+2.02600776e-03,+6.36802924e-03,+6.89079418e-03,+6.97891602e-03,+7.50047292e-03,+1.62079267e-02,+1.46637811e-02,+1.63018650e-02,+1.47585721e-02,+2.99937630e+00,+1,+1.18477658e+01,+1.11765554e+02,+6.23864685e-01,+1.24044184e+00,+1.70510838e-01,+1.46015814e-02,
+8.60000000e-01,+0.00000000e+00,+2.45349073e-04,-9.22845913e-05,+3.34221104e-03,+9.82155848e-05,+1.22865103e-02,+1.05620955e-03,+1.64758329e-06,-5.44060632e-04,+4.94076616e-03,+4.68906696e-06,-2.62455586e-03,+9.05728351e-04,-3.97930603e-01,+1.91607180e-01,-2.12025773e-03,-5.18571081e-05,+2.01654352e-03,+7.03741527e-03,+7.48530124e-03,+7.68622513e-03,+8.13316926e-03,+1.62025811e-02,+1.46598433e-02,+1.63006586e-02,+1.47588627e-02,+3.64656420e+00,+1,+1.25877814e+01,+1.15191522e+02,+7.04232175e-01,+1.39974247e+00,+1.92289881e-01,+1.54811877e-02,
+8.70000000e-01,+0.00000000e+00,+2.77578139e-04,-9.69703482e-05,+3.48068436e-03,+1.09653489e-04,+1.46717959e-02,+1.12766677e-03,+1.70688972e-06,-5.70853799e-04,+4.94894441e-03,+8.07439369e-06,-2.73487992e-03,+7.30317222e-04,-3.00238824e-01,+2.05166319e-01,-2.11749047e-03,-5.46383095e-05,+2.00821385e-03,+7.76222595e-03,+8.13368400e-03,+8.45139153e-03,+8.82218194e-03,+1.61961300e-02,+1.46555107e-02,+1.62986180e-02,+1.47590004e-02,+4.37760082e+00,+1,+1.33568952e+01,+1.18639735e+02,+7.92918441e-01,+1.57546741e+00,+2.15655046e-01,+1.63470040e-02,
+8.80000000e-01,+0.00000000e+00,+3.11729459e-04,-1.01779893e-04,+3.64434639e-03,+1.21714874e-04,+1.73531894e-02,+1.18385560e-03,+1.80094881e-06,-5.98788768e-04,+4.95535594e-03,+1.14615736e-05,-2.85288102e-03,+5.52553383e-04,-2.11949350e-01,+2.16566268e-01,-2.11606411e-03,-5.75372387e-05,+2.00098963e-03,+8.54724317e-03,+8.84113572e-03,+9.27872439e-03,+9.57222051e-03,+1.61886493e-02,+1.46508456e-02,+1.62958273e-02,+1.47590554e-02,+5.19561488e+00,+1,+1.41551815e+01,+1.22110978e+02,+8.90529614e-01,+1.76880383e+00,+2.40699241e-01,+1.72023966e-02,
+8.90000000e-01,+0.00000000e+00,+3.48072466e-04,-1.06723704e-04,+3.83618270e-03,+1.34241423e-04,+2.03388333e-02,+1.22434446e-03,+1.92940910e-06,-6.27941383e-04,+4.95998196e-03,+1.47577113e-05,-2.97837609e-03,+3.73365094e-04,-1.34747364e-01,+2.25857987e-01,-2.11596140e-03,-6.05628119e-05,+1.99483578e-03,+9.39792748e-03,+9.61346683e-03,+1.01732543e-02,+1.03886494e-02,+1.61802155e-02,+1.46459080e-02,+1.62923707e-02,+1.47590958e-02,+6.10392299e+00,+1,+1.49827158e+01,+1.25606039e+02,+9.97696768e-01,+1.98098567e+00,+2.67534555e-01,+1.80514114e-02,
+9.00000000e-01,+0.00000000e+00,+3.86904827e-04,-1.11813416e-04,+4.05926953e-03,+1.47078772e-04,+2.36381429e-02,+1.25023058e-03,+2.09103329e-06,-6.58385721e-04,+4.96281248e-03,+1.78786195e-05,-3.11119502e-03,+1.93582560e-04,-6.91290104e-02,+2.33164376e-01,-2.11715956e-03,-6.37238414e-05,+1.98971188e-03,+1.03204070e-02,+1.04571101e-02,+1.11407297e-02,+1.12775018e-02,+1.61709056e-02,+1.46407552e-02,+1.62883313e-02,+1.47591869e-02,+7.10613899e+00,+1,+1.58395749e+01,+1.29125708e+02,+1.11507614e+00,+2.21329363e+00,+2.96292492e-01,+1.88985432e-02,
+9.10000000e-01,+0.00000000e+00,+4.28553739e-04,-1.17061980e-04,+4.31678329e-03,+1.60071618e-04,+2.72611822e-02,+1.26169876e-03,+2.28455638e-06,-6.90194663e-04,+4.96384485e-03,+2.09295176e-05,-3.25128082e-03,+1.37844359e-05,-1.46507859e-02,+2.38623026e-01,-2.11963104e-03,-6.70290362e-05,+1.98557297e-03,+1.13214559e-02,+1.13778119e-02,+1.21878602e-02,+1.22455031e-02,+1.61607951e-02,+1.46354413e-02,+1.62837904e-02,+1.47593856e-02,+8.20651772e+00,+1,+1.67258364e+01,+1.32670777e+02,+1.24334934e+00,+2.46705530e+00,+3.27122341e-01,+1.97484542e-02,
+9.20000000e-01,+0.00000000e+00,+4.73377520e-04,-1.22483471e-04,+4.61201047e-03,+1.73099285e-04,+3.12208130e-02,+1.26182670e-03,+2.50847860e-06,-7.23439779e-04,+4.96308117e-03,+2.36629576e-05,-3.39838485e-03,-1.65483447e-04,+2.94894651e-02,+2.42406571e-01,-2.12334399e-03,-7.04869942e-05,+1.98237000e-03,+1.24083702e-02,+1.23836290e-02,+1.33218774e-02,+1.32989588e-02,+1.61499554e-02,+1.46300045e-02,+1.62788248e-02,+1.47597347e-02,+9.41021400e+00,+1,+1.76415788e+01,+1.36242044e+02,+1.38322357e+00,+2.74364518e+00,+3.60190671e-01,+2.06058105e-02,
+9.30000000e-01,+0.00000000e+00,+5.21766366e-04,-1.28092611e-04,+4.94837671e-03,+1.86036363e-04,+3.55290528e-02,+1.25022059e-03,+2.75898895e-06,-7.58190533e-04,+4.96053098e-03,+2.59762173e-05,-3.55238747e-03,-3.43450862e-04,+6.43960802e-02,+2.44796960e-01,-2.12826118e-03,-7.41061604e-05,+1.98004886e-03,+1.35886571e-02,+1.34840524e-02,+1.45497063e-02,+1.44466700e-02,+1.61384437e-02,+1.46244890e-02,+1.62734956e-02,+1.47602937e-02,+1.07212319e+01,+1,+1.85868812e+01,+1.39840306e+02,+1.53543180e+00,+3.04448445e+00,+3.95683602e-01,+2.14753457e-02,
+9.40000000e-01,+0.00000000e+00,+5.74144107e-04,-1.33905162e-04,+5.32943496e-03,+1.98767942e-04,+4.02009440e-02,+1.22793958e-03,+3.03190110e-06,-7.94515537e-04,+4.95620921e-03,+2.78498697e-05,-3.71321079e-03,-5.19764985e-04,+9.14041977e-02,+2.45994282e-01,-2.13434373e-03,-7.78949819e-05,+1.97855376e-03,+1.48709191e-02,+1.46879095e-02,+1.58794651e-02,+1.56974095e-02,+1.61263224e-02,+1.46189531e-02,+1.62678675e-02,+1.47611319e-02,+1.21441801e+01,+1,+1.95618230e+01,+1.43466368e+02,+1.70073298e+00,+3.37104074e+00,+4.33808292e-01,+2.23618457e-02,
+9.50000000e-01,+0.00000000e+00,+6.30970267e-04,-1.39937807e-04,+5.75891044e-03,+2.11197346e-04,+4.52545538e-02,+1.19745975e-03,+3.32289432e-06,-8.32482692e-04,+4.95013371e-03,+2.92774149e-05,-3.88079339e-03,-6.94177574e-04,+1.11726923e-01,+2.46183789e-01,-2.14155267e-03,-8.18619152e-05,+1.97782884e-03,+1.62643821e-02,+1.60042993e-02,+1.73201919e-02,+1.70603600e-02,+1.61136631e-02,+1.46134581e-02,+1.62620136e-02,+1.47623180e-02,+1.36847855e+01,+1,+2.05664838e+01,+1.47121032e+02,+1.87991224e+00,+3.72482823e+00,+4.74788904e-01,+2.32698694e-02,
+9.60000000e-01,+0.00000000e+00,+6.92742097e-04,-1.46208020e-04,+6.24071655e-03,+2.23247461e-04,+5.07091314e-02,+1.16038569e-03,+3.62766584e-06,-8.72159423e-04,+4.94232434e-03,+3.02676157e-05,-4.05510296e-03,-8.66536397e-04,+1.26438582e-01,+2.45527692e-01,-2.14984836e-03,-8.60153730e-05,+1.97781761e-03,+1.77787853e-02,+1.74427148e-02,+1.88816346e-02,+1.85451448e-02,+1.61005368e-02,+1.46080611e-02,+1.62560069e-02,+1.47639152e-02,+1.53493122e+01,+1,+2.16009429e+01,+1.50805108e+02,+2.07378104e+00,+4.10740757e+00,+5.18865306e-01,+2.42036778e-02,
+9.70000000e-01,+0.00000000e+00,+7.59996762e-04,-1.52733944e-04,+6.77896708e-03,+2.34861682e-04,+5.65850396e-02,+1.11882045e-03,+3.94207635e-06,-9.13613004e-04,+4.93280196e-03,+3.08427875e-05,-4.23614229e-03,-1.03679589e-03,+1.36484317e-01,+2.44162133e-01,-2.15919038e-03,-9.03637121e-05,+1.97846296e-03,+1.94243225e-02,+1.90130825e-02,+2.05741016e-02,+2.01618372e-02,+1.60870074e-02,+1.46028135e-02,+1.62499139e-02,+1.47659802e-02,+1.71444660e+01,+1,+2.26652795e+01,+1.54519405e+02,+2.28317732e+00,+4.52038567e+00,+5.66292376e-01,+2.51672125e-02,
+9.80000000e-01,+0.00000000e+00,+8.33313652e-04,-1.59534267e-04,+7.37798704e-03,+2.46004368e-04,+6.29037273e-02,+1.07493591e-03,+4.26227722e-06,-9.56910924e-04,+4.92158732e-03,+3.10368536e-05,-4.42395192e-03,-1.20502169e-03,+1.42691579e-01,+2.42199531e-01,-2.16953804e-03,-9.49152813e-05,+1.97970747e-03,+2.12116080e-02,+2.07257835e-02,+2.24083813e-02,+2.19209820e-02,+1.60731300e-02,+1.45977598e-02,+1.62437933e-02,+1.47685635e-02,+1.90772977e+01,+1,+2.37595725e+01,+1.58264736e+02,+2.50896570e+00,+4.96541554e+00,+6.17339657e-01,+2.61641013e-02,
+9.90000000e-01,+0.00000000e+00,+9.13316807e-04,-1.66628095e-04,+8.04232206e-03,+2.56660969e-04,+6.96875789e-02,+1.03098997e-03,+4.58481582e-06,-1.00212127e-03,+4.90869997e-03,+3.08929064e-05,-4.61861017e-03,-1.37138871e-03,+1.45780616e-01,+2.39732975e-01,-2.18085092e-03,-9.96784533e-05,+1.98149401e-03,+2.31516729e-02,+2.25916681e-02,+2.43957156e-02,+2.38336168e-02,+1.60589503e-02,+1.45929397e-02,+1.62376952e-02,+1.47717112e-02,+2.11551231e+01,+1,+2.48838996e+01,+1.62041917e+02,+2.75203759e+00,+5.44419595e+00,+6.72291328e-01,+2.71976794e-02,
+1.00000000e+00,+0.00000000e+00,+1.00067740e-03,-1.74034830e-04,+8.77674660e-03,+2.66837877e-04,+7.69597709e-02,+9.89002469e-04,+4.90671602e-06,-1.04931308e-03,+4.89415718e-03,+3.04606627e-05,-4.82023179e-03,-1.53617400e-03,+1.46373990e-01,+2.36840681e-01,-2.19308971e-03,-1.04661679e-04,+1.98376635e-03,+2.52559883e-02,+2.46220699e-02,+2.65478136e-02,+2.59112904e-02,+1.60445054e-02,+1.45883887e-02,+1.62316623e-02,+1.47754663e-02,+2.33854655e+01,+1,+2.60383379e+01,+1.65851765e+02,+3.01331129e+00,+5.95847107e+00,+7.31446426e-01,+2.82710205e-02,
+1.01000000e+00,+0.00000000e+00,+1.09611631e-03,-1.81774032e-04,+9.58627105e-03,+2.76561852e-04,+8.47438490e-02,+9.50287258e-04,+5.22553299e-06,-1.09855673e-03,+4.87797299e-03,+2.97938314e-05,-5.02896601e-03,-1.69974648e-03,+1.45005631e-01,+2.33589774e-01,-2.20621687e-03,-1.09873523e-04,+1.98646983e-03,+2.75365059e-02,+2.68288243e-02,+2.88768834e-02,+2.81660784e-02,+1.60298248e-02,+1.45841399e-02,+1.62257305e-02,+1.47798699e-02,+2.57760210e+01,+1,+2.72229632e+01,+1.69695100e+02,+3.29373212e+00,+6.51003000e+00,+7.95119226e-01,+2.93869701e-02,
+1.02000000e+00,+0.00000000e+00,+1.20040667e-03,-1.89865299e-04,+1.04761482e-02,+2.85879221e-04,+9.30644969e-02,+9.17498871e-04,+5.53938234e-06,-1.14992424e-03,+4.86015732e-03,+2.89476184e-05,-5.24499452e-03,-1.86255516e-03,+1.42129604e-01,+2.30039135e-01,-2.22019727e-03,-1.15322714e-04,+1.98955184e-03,+3.00057044e-02,+2.92242923e-02,+3.13956729e-02,+3.06105998e-02,+1.60149312e-02,+1.45802239e-02,+1.62199301e-02,+1.47849614e-02,+2.83346418e+01,+1,+2.84378501e+01,+1.73572744e+02,+3.59427253e+00,+7.10070627e+00,+8.63639720e-01,+3.05481774e-02,
+1.03000000e+00,+0.00000000e+00,+1.31437653e-03,-1.98328135e-04,+1.14518791e-02,+2.94854538e-04,+1.01946655e-01,+8.91705818e-04,+5.84694528e-06,-1.20348961e-03,+4.84071527e-03,+2.79763888e-05,-5.46852975e-03,-2.02511712e-03,+1.38128528e-01,+2.26241397e-01,-2.23499869e-03,-1.21018187e-04,+1.99296232e-03,+3.26766373e-02,+3.18213878e-02,+3.41175084e-02,+3.32580349e-02,+1.59998411e-02,+1.45766698e-02,+1.62142863e-02,+1.47907793e-02,+3.10693341e+01,+1,+2.96830713e+01,+1.77485520e+02,+3.91593209e+00,+7.73237719e+00,+9.37354120e-01,+3.17571243e-02,
+1.04000000e+00,+0.00000000e+00,+1.43891151e-03,-2.07181841e-04,+1.25192192e-02,+3.03569029e-04,+1.11416016e-01,+8.74926965e-04,+6.14745216e-06,-1.25932909e-03,+4.81964646e-03,+2.69317159e-05,-5.69981357e-03,-2.18800609e-03,+1.33321768e-01,+2.22244288e-01,-2.25059230e-03,-1.26969114e-04,+1.99665407e-03,+3.55629736e-02,+3.46336083e-02,+3.70563282e-02,+3.61221454e-02,+1.59845651e-02,+1.45735049e-02,+1.62088193e-02,+1.47973609e-02,+3.39882646e+01,+1,+3.09586978e+01,+1.81434255e+02,+4.25973764e+00,+8.40696317e+00,+1.01662535e+00,+3.30161489e-02,
+1.05000000e+00,+0.00000000e+00,+1.57495745e-03,-2.16445413e-04,+1.36841845e-02,+3.12118627e-04,+1.21498855e-01,+8.68175453e-04,+6.44064756e-06,-1.31752151e-03,+4.79694454e-03,+2.58605643e-05,-5.93911631e-03,-2.35184206e-03,+1.27973000e-01,+2.18091404e-01,-2.26695297e-03,-1.33184951e-04,+2.00058307e-03,+3.86790323e-02,+3.76750653e-02,+4.02267087e-02,+3.92172963e-02,+1.59691081e-02,+1.45707544e-02,+1.62035449e-02,+1.48047421e-02,+3.70997723e+01,+1,+3.22647985e+01,+1.85419775e+02,+4.62674321e+00,+9.12642693e+00,+1.10183347e+00,+3.43274640e-02,
+1.06000000e+00,+0.00000000e+00,+1.72352320e-03,-2.26137459e-04,+1.49530575e-02,+3.20611796e-04,+1.32222220e-01,+8.73090850e-04,+6.72674014e-06,-1.37814853e-03,+4.77259677e-03,+2.48040025e-05,-6.18673615e-03,-2.51728195e-03,+1.22297365e-01,+2.13822620e-01,-2.28405966e-03,-1.39675470e-04,+2.00470872e-03,+4.20398082e-02,+4.09605127e-02,+4.36438852e-02,+4.25584773e-02,+1.59534693e-02,+1.45684416e-02,+1.61984744e-02,+1.48129578e-02,+4.04123822e+01,+1,+3.36014400e+01,+1.89442908e+02,+5.01803010e+00,+9.89277267e+00,+1.19337607e+00,+3.56931720e-02,
+1.07000000e+00,+0.00000000e+00,+1.88568338e-03,-2.36276138e-04,+1.63323947e-02,+3.29167066e-04,+1.43613742e-01,+8.89813875e-04,+7.00634089e-06,-1.44129494e-03,+4.74658367e-03,+2.37962025e-05,-6.44299873e-03,-2.68501155e-03,+1.16467927e-01,+2.09474258e-01,-2.30189567e-03,-1.46450844e-04,+2.00899398e-03,+4.56609894e-02,+4.45053719e-02,+4.73237666e-02,+4.61613238e-02,+1.59376427e-02,+1.45665877e-02,+1.61936147e-02,+1.48220413e-02,+4.39348185e+01,+1,+3.49686865e+01,+1.93504483e+02,+5.43470682e+00,+1.07080451e+01,+1.29166853e+00,+3.71152744e-02,
