time, x, y, z, vx, vy, vz, yaw, pitch, roll, yaw_rate, pitch_rate, roll_rate
0.0000000e+00,0.0000000e+00,0.0000000e+00,0.0000000e+00,0.0000000e+00,0.0000000e+00,0.0000000e+00,0.0000000e+00,0.0000000e+00,0.0000000e+00,0.0000000e+00,0.0000000e+00,0.0000000e+00
9.9999905e-03,2.1896307e-05,1.3700546e-04,6.1524323e-05,2.1933934e-03,1.3696992e-02,2.2081115e-03,3.9545957e-04,-1.2277876e-03,7.5657139e-04,3.9545994e-02,-1.2277888e-01,7.5657211e-02
1.9999981e-02,-4.3956717e-05,1.9021031e-05,7.4799501e-05,-6.5840052e-03,-1.1793817e-02,-6.5949123e-03,3.5219004e-04,-3.5153423e-04,8.2852785e-04,-4.3269565e-03,8.7625421e-02,7.1956527e-03
2.9999971e-02,-7.7706583e-05,1.6528510e-04,3.8040605e-05,-3.3644014e-03,1.4631134e-02,-3.3651184e-03,4.9349609e-04,-9.0438068e-04,9.9799169e-04,1.4130618e-02,-5.5284698e-02,1.6946400e-02
3.9999962e-02,-3.7008780e-05,1.8528408e-04,5.2421566e-05,4.0667362e-03,1.9951520e-03,4.0751575e-03,3.5319234e-04,-8.1234943e-04,9.2199122e-04,-1.4030388e-02,9.2031336e-03,-7.6000541e-03
4.9999952e-02,-9.4834423e-05,3.2823864e-05,-4.0342830e-05,-5.7808097e-03,-1.5248219e-02,-5.7785712e-03,-1.3877449e-04,2.3892428e-04,-6.1519099e-05,-4.9196731e-02,1.0512747e-01,-9.8351126e-02
5.9999943e-02,1.5639450e-04,3.9634396e-04,3.8472900e-05,2.5105747e-02,3.6237154e-02,2.5305397e-02,9.1516222e-04,-3.6405042e-03,2.0051942e-03,1.0539377e-01,-3.8794321e-01,2.0667152e-01
6.9999933e-02,3.2682818e-05,-1.9351378e-04,-8.4298016e-05,-1.2371372e-02,-5.9011787e-02,-1.2246575e-02,-6.0988777e-05,2.0477482e-03,-3.0637122e-04,-9.7615192e-02,5.6882578e-01,-2.3115676e-01
7.9999924e-02,3.2878847e-05,-4.2987697e-05,-1.5109066e-04,2.2492253e-05,1.5052630e-02,-6.9420029e-06,1.9184962e-04,1.7633595e-03,-7.6525634e-05,2.5283864e-02,-2.8438905e-02,2.2984581e-02
8.9999914e-02,1.2026126e-04,3.6115252e-04,-9.0390417e-05,8.7684891e-03,4.0390821e-02,8.8150730e-03,1.2035362e-03,-1.4447781e-03,2.1028266e-03,1.0116876e-01,-3.2081407e-01,2.1793543e-01
9.9999905e-02,1.1994248e-04,4.7469048e-04,4.1419093e-05,-1.8449514e-05,1.1353878e-02,8.1408750e-06,1.1760553e-03,-3.5285628e-03,2.3761528e-03,-2.7481001e-03,-2.0837867e-01,2.7332646e-02
1.0999990e-01,1.4885179e-05,5.7912819e-04,4.3346007e-05,-1.0467688e-02,1.0502801e-02,-1.0484867e-02,1.3218668e-03,-4.2961254e-03,2.3044954e-03,1.4581171e-02,-7.6756331e-02,-7.1657489e-03
1.1999083e-01,-7.7045459e-05,6.6802932e-04,4.7141887e-05,-9.1711365e-03,8.9488534e-03,-9.1824716e-03,1.1009749e-03,-4.4061072e-03,2.2222174e-03,-2.2109240e-02,-1.1008168e-02,-8.2352683e-03
1.2999082e-01,-1.2456096e-04,3.3646061e-04,2.4266660e-05,-4.7522707e-03,-3.3149481e-02,-4.8023513e-03,1.4473855e-04,-1.4090439e-03,8.5884684e-04,-9.5623730e-02,2.9970662e-01,-1.3633719e-01
1.3987207e-01,-7.0277149e-05,3.5376918e-04,1.8894450e-05,5.4889965e-03,1.7443563e-03,5.5005463e-03,2.7605082e-06,-1.3248288e-03,8.4087470e-04,-1.4368418e-02,8.5227061e-03,-1.8188110e-03
1.4987206e-01,3.3937258e-05,6.6141253e-04,-6.1314445e-06,1.0422541e-02,3.0716206e-02,1.0561473e-02,7.6707296e-04,-3.8233101e-03,2.1571741e-03,7.6431318e-02,-2.4984836e-01,1.3163006e-01
1.5987206e-01,1.3517248e-04,4.7754031e-04,2.7026568e-05,1.0097984e-02,-1.8424444e-02,1.0081317e-02,4.8851255e-04,-3.1908443e-03,1.6349140e-03,-2.7856067e-02,6.3246632e-02,-5.2226059e-02
1.6987205e-01,9.7113539e-06,6.7106679e-05,1.9219141e-05,-1.2520034e-02,-4.1051441e-02,-1.2545887e-02,-7.5814581e-04,-1.1649634e-04,-4.0102123e-04,-1.2466595e-01,3.0743509e-01,-2.0359371e-01
1.7987204e-01,1.8635411e-05,3.4168731e-05,1.6817873e-06,8.9529719e-04,-3.2929668e-03,8.9257880e-04,-7.6202518e-04,1.6832962e-04,-4.2690007e-04,-3.8793752e-04,2.8482623e-02,-2.5878858e-03
1.8987203e-01,5.1646796e-05,1.1578854e-05,1.2899790e-05,3.3037264e-03,-2.2551772e-03,3.3011627e-03,-8.1562965e-04,3.3915035e-04,-2.2521645e-04,-5.3604524e-03,1.7082089e-02,2.0168381e-02
1.9987202e-01,7.3148801e-05,4.2022490e-05,-1.5752982e-05,2.1477536e-03,3.0462521e-03,2.1499796e-03,-6.3718033e-04,2.4005102e-04,2.3660109e-04,1.7844949e-02,-9.9099422e-03,4.6181798e-02
2.0987201e-01,5.3665308e-05,7.9006287e-05,1.0012323e-05,-1.9482793e-03,3.6978823e-03,-1.9493739e-03,-3.7855181e-04,-1.2147702e-04,7.5515411e-04,2.5862877e-02,-3.6152839e-02,5.1855351e-02
2.1987200e-01,2.3274997e-05,1.7900209e-04,6.0125245e-05,-3.0372561e-03,1.0001539e-02,-3.0343928e-03,-7.2495003e-05,-7.1422541e-04,8.2322887e-04,3.0605710e-02,-5.9274896e-02,6.8074825e-03
2.2987223e-01,-8.7520873e-05,3.4197830e-04,-8.1360259e-06,-1.1069232e-02,1.6314972e-02,-1.1063333e-02,1.7386950e-05,-1.5827477e-03,8.8572901e-04,8.9879896e-03,-8.6850245e-02,6.2498713e-03
2.3987222e-01,-6.0037453e-05,6.4724496e-04,-5.1137861e-06,2.7713282e-03,3.0512260e-02,2.8823058e-03,9.6327476e-04,-4.1774042e-03,2.3334860e-03,9.4588871e-02,-2.5946589e-01,1.4477584e-01
2.4987221e-01,-1.3278892e-05,5.7255234e-04,-1.0790821e-04,4.6572473e-03,-7.4858716e-03,4.6678808e-03,1.1060039e-03,-2.4448655e-03,2.2109185e-03,1.4272929e-02,1.7325404e-01,-1.2256764e-02
2.5987220e-01,4.4273050e-05,6.1467076e-04,-1.0586449e-04,5.7476297e-03,4.1895714e-03,5.7789742e-03,1.0294940e-03,-2.8317858e-03,2.0660905e-03,-7.6509996e-03,-3.8692069e-02,-1.4482815e-02
2.6987219e-01,1.0113377e-04,5.8643380e-04,-8.4997222e-05,5.6718827e-03,-2.8463788e-03,5.6889466e-03,1.0371758e-03,-2.9480824e-03,1.9789206e-03,7.6818008e-04,-1.1629671e-02,-8.7169992e-03
2.7987218e-01,8.6487148e-05,5.4916595e-04,-1.2139856e-04,-1.4656383e-03,-3.7211856e-03,-1.4778755e-03,1.0089430e-03,-2.7997993e-03,1.8997732e-03,-2.8232776e-03,1.4828321e-02,-7.9147463e-03
2.8987217e-01,1.3842226e-04,4.6037994e-04,-6.3527410e-05,5.1698417e-03,-8.9020095e-03,5.1770549e-03,1.4532104e-03,-3.0558540e-03,2.0709535e-03,4.4426778e-02,-2.5605495e-02,1.7118048e-02
2.9987216e-01,8.3109772e-05,1.3064855e-04,1.8708428e-05,-5.5367560e-03,-3.2966164e-02,-5.5673898e-03,2.6510656e-04,-9.9769643e-04,5.8548663e-04,-1.1881050e-01,2.0581596e-01,-1.4854683e-01
3.0987215e-01,7.3656291e-05,1.5372535e-04,7.8025112e-05,-9.4389148e-04,2.3090139e-03,-9.4355185e-04,3.5342219e-04,-1.0561092e-03,6.7875760e-04,8.8315710e-03,-5.8412828e-03,9.3271054e-03
3.1987214e-01,2.6034057e-05,1.0366980e-04,7.8313941e-05,-4.7605032e-03,-5.0007581e-03,-4.7689929e-03,3.7605475e-04,-6.3161814e-04,7.5708073e-04,2.2632577e-03,4.2449147e-02,7.8323206e-03
3.2987213e-01,-1.5277821e-05,2.1064935e-04,1.9595482e-05,-4.1245280e-03,1.0704114e-02,-4.1219141e-03,2.8066997e-04,-1.2084868e-03,8.8579864e-04,-9.5384867e-03,-5.7686922e-02,1.2871803e-02
3.3987212e-01,5.6341319e-05,1.1734575e-04,3.3874759e-05,7.1539507e-03,-9.3374101e-03,7.1607102e-03,2.8789026e-04,-6.9507197e-04,7.3747585e-04,7.2202974e-04,5.1341532e-02,-1.4832292e-02
3.4987211e-01,7.1947390e-05,1.1019772e-04,2.2045051e-05,1.5593075e-03,-7.1641336e-04,1.5611707e-03,3.2746029e-04,-7.0392792e-04,6.8341166e-04,3.9570066e-03,-8.8559517e-04,-5.4064242e-03
3.5987210e-01,4.6701480e-05,-3.6828003e-05,2.0018831e-05,-2.5217813e-03,-1.4704035e-02,-2.5189606e-03,-1.5547413e-04,4.1883001e-04,2.0836136e-04,-4.8293488e-02,1.1227590e-01,-4.7505075e-02
3.6987209e-01,1.7934822e-04,3.4438923e-04,7.5586961e-05,1.3273187e-02,3.8066958e-02,1.3412739e-02,9.5485598e-04,-3.1542626e-03,2.1007337e-03,1.1103312e-01,-3.5730961e-01,1.8923741e-01
3.7987208e-01,2.1486704e-04,3.1079558e-04,5.2817275e-05,3.5420909e-03,-3.3724878e-03,3.5492319e-03,8.5185995e-04,-2.8404642e-03,1.9494837e-03,-1.0299612e-02,3.1379878e-02,-1.5125013e-02
3.8987207e-01,2.2979767e-04,3.1332727e-04,6.4945705e-05,1.4903972e-03,2.4777972e-04,1.4966307e-03,8.2733736e-04,-2.7766364e-03,1.9249821e-03,-2.4522610e-03,6.3827774e-03,-2.4501642e-03
3.9987206e-01,1.5528780e-04,3.2442975e-04,6.1910213e-05,-7.4357671e-03,1.1375599e-03,-7.4620786e-03,8.7315031e-04,-2.7875603e-03,1.9113633e-03,4.5812987e-03,-1.0923855e-03,-1.3618755e-03
4.0987206e-01,1.2104146e-04,5.0561396e-04,4.0088147e-05,-3.3958573e-03,1.8135521e-02,-3.3623054e-03,1.1479717e-03,-3.8746323e-03,2.3269534e-03,2.7482170e-02,-1.0870731e-01,4.1559044e-02
4.1987205e-01,9.1169960e-05,5.1113254e-04,-2.6381055e-05,-2.9793447e-03,5.6615107e-04,-2.9922722e-03,1.6024088e-03,-3.1758890e-03,2.3139654e-03,4.5443746e-02,6.9874400e-02,-1.2988027e-03
4.2987204e-01,-1.0277981e-05,5.9563601e-04,-8.9851987e-05,-1.0112621e-02,8.4903047e-03,-1.0143580e-02,1.1547776e-03,-2.7808417e-03,2.2073800e-03,-4.4763161e-02,3.9504761e-02,-1.0658546e-02
4.3987203e-01,-3.7149091e-05,5.9742637e-04,-8.5545199e-05,-2.6806591e-03,1.9011095e-04,-2.6927935e-03,1.3077124e-03,-2.8076566e-03,2.3113379e-03,1.5293494e-02,-2.6814846e-03,1.0395800e-02
4.4987202e-01,1.4184427e-05,4.8722116e-04,-2.7439925e-05,5.1007193e-03,-1.1043290e-02,5.1169549e-03,1.7869554e-03,-2.6508163e-03,2.5168309e-03,4.7924353e-02,1.5684037e-02,2.0549325e-02
4.5987201e-01,-4.2367005e-06,2.5647658e-04,-2.0911081e-05,-1.8486837e-03,-2.3071558e-02,-1.8718927e-03,3.5047153e-04,-1.2246169e-03,8.2351222e-04,-1.4364853e-01,1.4262008e-01,-1.6933203e-01
4.6987200e-01,1.1747248e-04,1.5883128e-04,3.6463379e-05,1.2161864e-02,-9.7808092e-03,1.2166928e-02,1.7451757e-04,-1.1621472e-03,6.0467199e-04,-1.7595413e-02,6.2469773e-03,-2.1884045e-02
4.7987223e-01,5.1011680e-05,1.5772908e-05,1.0544434e-05,-6.6453812e-03,-1.4304633e-02,-6.6483614e-03,-5.1515581e-05,-1.8335216e-04,-2.8564674e-05,-2.2602798e-02,9.7877261e-02,-6.3322217e-02
4.8987222e-01,1.4422617e-04,3.8478987e-04,3.1146767e-05,9.3244616e-03,3.6871682e-02,9.4366515e-03,5.0386809e-04,-2.7003305e-03,1.6709459e-03,5.5538420e-02,-2.5169808e-01,1.6995122e-01
4.9987221e-01,7.1370629e-05,8.1486706e-05,1.9397340e-05,-7.2712032e-03,-3.0334021e-02,-7.2846006e-03,-4.6836233e-04,3.6637210e-05,2.0772860e-05,-9.7223134e-02,2.7369703e-01,-1.6501746e-01
5.0987220e-01,1.0277502e-04,8.5486488e-05,1.4357829e-05,3.1401168e-03,4.0136262e-04,3.1405899e-03,-5.3719367e-04,-9.6463000e-05,3.4882362e-05,-6.8831407e-03,-1.3310034e-02,1.4109516e-03
5.1987219e-01,2.9933606e-05,3.5047160e-05,-1.1592898e-05,-7.2798511e-03,-5.0512453e-03,-7.2833796e-03,-7.3812652e-04,2.6530262e-04,7.8494117e-05,-2.0093304e-02,3.6176597e-02,4.3611796e-03
5.2987218e-01,4.4667193e-06,5.6415937e-04,-4.4912047e-05,-2.4950841e-03,5.2922166e-02,-2.3649128e-03,8.6695951e-04,-3.5412680e-03,2.2490807e-03,1.6050876e-01,-3.8065742e-01,2.1705886e-01
5.3987217e-01,-2.2050888e-05,5.1704665e-04,-1.1794555e-04,-2.6511970e-03,-4.7014256e-03,-2.6697517e-03,1.2285663e-03,-2.4735792e-03,2.3926417e-03,3.6160710e-02,1.0676899e-01,1.4356118e-02
5.4987216e-01,-3.3819654e-05,6.1942136e-04,-5.6427370e-05,-1.1645298e-03,1.0243094e-02,-1.1397276e-03,9.2883897e-04,-3.9019145e-03,2.4090241e-03,-2.9972758e-02,-1.4283367e-01,1.6382347e-03
5.5987215e-01,-1.4273748e-05,6.2767920e-04,-4.8042262e-05,1.9507229e-03,8.1683866e-04,1.9622027e-03,8.0274733e-04,-3.7627321e-03,2.3158497e-03,-1.2609175e-02,1.3918260e-02,-9.3174470e-03
5.6987214e-01,3.3616476e-05,5.5858248e-04,-9.9135119e-05,4.7711999e-03,-6.9270814e-03,4.7816749e-03,1.0753478e-03,-2.5585282e-03,2.1680253e-03,2.7260075e-02,1.2042050e-01,-1.4782448e-02
5.7987213e-01,4.6234528e-05,5.2317484e-04,-9.9345833e-05,1.2556446e-03,-3.5454483e-03,1.2547892e-03,1.0647170e-03,-2.6516245e-03,1.8932857e-03,-1.0630860e-03,-9.3096365e-03,-2.7473987e-02
5.8987212e-01,8.6821794e-05,5.4055378e-04,-9.0341397e-05,4.0530740e-03,1.7212294e-03,4.0714651e-03,1.1191298e-03,-2.9794258e-03,1.8704837e-03,5.4412833e-03,-3.2780163e-02,-2.2802058e-03
5.9987211e-01,9.4019048e-05,5.7729848e-04,-4.6474648e-05,7.2088384e-04,3.6713578e-03,7.3431547e-04,6.8146118e-04,-3.6053328e-03,1.8684802e-03,-4.3766899e-02,-6.2590761e-02,-2.0035215e-04
6.0987210e-01,1.6640860e-04,3.6805524e-04,7.8599818e-05,7.2084836e-03,-2.0952770e-02,7.1869688e-03,9.0051462e-04,-3.0359358e-03,1.6057479e-03,2.1905365e-02,5.6939752e-02,-2.6273252e-02
6.1987209e-01,9.9747859e-05,1.9439411e-04,6.7081937e-05,-6.6665941e-03,-1.7354584e-02,-6.6955718e-03,2.7459520e-04,-1.4537089e-03,6.3811479e-04,-6.2592002e-02,1.5822284e-01,-9.6763403e-02
6.2987208e-01,6.0165158e-05,1.8105796e-04,6.3251948e-05,-3.9565526e-03,-1.3272264e-03,-3.9621405e-03,3.7532825e-04,-1.2378772e-03,5.6109733e-04,1.0073315e-02,2.1583192e-02,-7.7017532e-03
6.3987207e-01,6.0034277e-05,1.5202993e-04,5.4257531e-05,-1.4222863e-05,-2.9027847e-03,-1.6154593e-05,3.9389932e-04,-1.0531874e-03,6.5727866e-04,1.8571089e-03,1.8468998e-02,9.6181416e-03
6.4987206e-01,5.4091764e-05,2.5483275e-04,3.8289730e-05,-5.9413449e-04,1.0281063e-02,-5.8087048e-04,-2.9987003e-05,-1.3430130e-03,7.1612833e-04,-4.2388673e-02,-2.8982586e-02,5.8849730e-03
6.5987206e-01,-2.5798504e-05,2.3471170e-04,-5.4331054e-05,-7.9813379e-03,-2.0071858e-03,-7.9979599e-03,-2.7383354e-04,-8.8882238e-04,8.9397767e-04,-2.4384677e-02,4.5419102e-02,1.7784951e-02
6.6987205e-01,3.5749248e-05,1.2802626e-04,-2.2921191e-06,6.1531291e-03,-1.0669040e-02,6.1555913e-03,-3.2243034e-04,-4.0120425e-04,8.2690338e-04,-4.8596852e-03,4.8761859e-02,-6.7074357e-03
6.7987204e-01,2.4399436e-05,4.8036432e-05,-3.1451598e-05,-1.1298948e-03,-8.0000544e-03,-1.1325594e-03,-6.1009839e-04,3.2864405e-04,1.8250194e-04,-2.8766832e-02,7.2984900e-02,-6.4440205e-02
6.8987203e-01,1.5981504e-04,3.7013746e-04,-3.5440780e-05,1.3531572e-02,3.2167972e-02,1.3651347e-02,4.2369121e-04,-2.6764407e-03,1.7446939e-03,1.0337906e-01,-3.0050876e-01,1.5621934e-01
6.9987202e-01,1.1455554e-04,3.4605185e-04,4.2039748e-06,-4.5200374e-03,-2.3949642e-03,-4.5390648e-03,2.7157535e-04,-2.7272196e-03,1.4507362e-03,-1.5211601e-02,-5.0778918e-03,-2.9395797e-02
7.0987201e-01,1.0032623e-04,5.7733161e-04,-3.5544596e-05,-1.4025080e-03,2.3134609e-02,-1.3328987e-03,7.5223040e-04,-4.0211042e-03,2.1242734e-03,4.8065551e-02,-1.2938859e-01,6.7353787e-02
7.1987200e-01,1.1035800e-04,5.1071420e-04,-4.5789216e-05,9.9408268e-04,-6.6655085e-03,9.8712287e-04,1.0503946e-03,-2.7207991e-03,2.0876829e-03,2.9816445e-02,1.3003063e-01,-3.6590522e-03
7.2987223e-01,3.1805614e-05,5.8940413e-04,1.7515078e-07,-7.8326610e-03,7.9042563e-03,-7.8418277e-03,8.3298091e-04,-3.6788990e-03,2.0145295e-03,-2.1740868e-02,-9.5807792e-02,-7.3151760e-03
7.3987222e-01,1.2157511e-05,5.3486382e-04,-7.0983442e-05,-1.9687106e-03,-5.4454101e-03,-1.9847333e-03,1.5214914e-03,-2.8477042e-03,2.2356128e-03,6.8851117e-02,8.3119561e-02,2.2108354e-02
7.4987221e-01,-9.1889694e-05,3.2032316e-04,-1.6230759e-05,-1.0405704e-02,-2.1430263e-02,-1.0452742e-02,4.3277786e-04,-1.8517414e-03,7.9836426e-04,-1.0887146e-01,9.9596369e-02,-1.4372499e-01
7.5987220e-01,-6.5432859e-05,5.5751930e-04,1.5867009e-05,2.6727636e-03,2.3704985e-02,2.7478214e-03,1.3901237e-03,-4.0565225e-03,2.2249283e-03,9.5734676e-02,-2.2047832e-01,1.4265654e-01
7.6987219e-01,2.2796100e-05,4.5887769e-04,4.9082233e-05,8.7849125e-03,-9.9141590e-03,8.8047666e-03,1.6810083e-03,-3.9855681e-03,2.4223167e-03,2.9088484e-02,7.0954464e-03,1.9738863e-02
7.7987218e-01,1.6540715e-04,3.0042228e-04,1.0113180e-04,1.4211615e-02,-1.5908756e-02,1.4240159e-02,1.2510227e-03,-3.1804668e-03,2.0782522e-03,-4.2998596e-02,8.0510209e-02,-3.4406480e-02
7.8987217e-01,1.6062520e-04,3.2460695e-04,5.5015940e-05,-4.7472805e-04,2.4205413e-03,-4.7111690e-04,1.0482652e-03,-3.3071122e-03,1.9455875e-03,-2.0275774e-02,-1.2664550e-02,-1.3266489e-02
7.9987216e-01,5.8435053e-06,-1.1805966e-05,-1.9772069e-06,-1.5479233e-02,-3.3632933e-02,-1.5495364e-02,6.0181158e-05,-4.8168783e-04,6.3099664e-05,-9.8808496e-02,2.8254271e-01,-1.8824896e-01
8.0987215e-01,9.9617356e-05,4.7639065e-04,1.4584091e-05,9.4175211e-03,4.8766812e-02,9.6095427e-03,1.2595468e-03,-4.3187663e-03,2.2748039e-03,1.1993668e-01,-3.8370821e-01,2.2117063e-01
8.1987214e-01,1.3073253e-05,-1.5954586e-05,1.3809253e-05,-8.6549709e-03,-4.9232247e-02,-8.6670751e-03,3.5213925e-05,-2.3308007e-04,1.3648554e-04,-1.2243340e-01,4.0856901e-01,-2.1383204e-01
8.2987213e-01,-8.3640014e-06,-6.6439884e-05,1.6049682e-05,-2.1430266e-03,-5.0493101e-03,-2.1426014e-03,-9.1539678e-05,2.7030393e-04,1.1136302e-04,-1.2675372e-02,5.0338448e-02,-2.5122541e-03
8.3987212e-01,2.8747869e-05,5.9127518e-05,5.0909362e-05,3.7156408e-03,1.2552297e-02,3.7217924e-03,5.8584807e-04,-6.1280302e-04,7.8260713e-04,6.7738839e-02,-8.8310779e-02,6.7124475e-02
8.4987211e-01,2.4813153e-05,5.8920351e-05,6.7270634e-05,-3.9318527e-04,-2.0170695e-05,-3.9378675e-04,6.6019074e-04,-7.2673120e-04,7.6282815e-04,7.4342741e-03,-1.1392829e-02,-1.9779002e-03
8.5987210e-01,2.1606777e-05,9.9460012e-05,6.4446829e-05,-3.1740916e-04,4.0545986e-03,-3.1586534e-04,7.3373836e-04,-1.2391954e-03,7.9231884e-04,7.3547698e-03,-5.1246470e-02,2.9490713e-03
8.6987209e-01,-6.2992232e-05,5.5299696e-05,-3.1153860e-05,-8.4598572e-03,-4.4089663e-03,-8.4636471e-03,2.6796558e-04,-5.6749148e-04,1.4594685e-04,-4.6577323e-02,6.7170458e-02,-6.4637260e-02
8.7987208e-01,9.7434621e-05,4.9495286e-04,4.0438871e-05,1.6069876e-02,4.3871610e-02,1.6270528e-02,1.5119210e-03,-4.2928443e-03,2.4453417e-03,1.2439566e-01,-3.7253564e-01,2.2993971e-01
8.8987207e-01,1.6796157e-04,4.1021410e-04,-2.5140626e-05,7.0208346e-03,-8.5069903e-03,7.0446359e-03,1.7466185e-03,-2.9475173e-03,2.4153638e-03,2.3469765e-02,1.3453283e-01,-2.9977989e-03
8.9987206e-01,1.3374708e-04,3.7525291e-04,-3.2585009e-05,-3.4195889e-03,-3.4814136e-03,-3.4382718e-03,1.7567624e-03,-2.5313541e-03,2.3354750e-03,1.0143958e-03,4.1616363e-02,-7.9888802e-03
9.0987206e-01,1.1513927e-04,3.8501936e-04,-2.5093750e-05,-1.8551544e-03,9.8515893e-04,-1.8619140e-03,1.6903141e-03,-2.8815528e-03,2.1336933e-03,-6.6448378e-03,-3.5019901e-02,-2.0178192e-02
9.1987205e-01,5.6110252e-05,4.5754519e-04,-9.9062930e-05,-5.8824405e-03,7.2743040e-03,-5.8966164e-03,1.2234978e-03,-2.4548546e-03,1.9613239e-03,-4.6681675e-02,4.2669857e-02,-1.7236956e-02
9.2987204e-01,1.9622218e-05,5.5823780e-04,-1.0627101e-04,-3.6270284e-03,1.0085789e-02,-3.6248209e-03,1.3886493e-03,-3.1479673e-03,2.1332922e-03,1.6515171e-02,-6.9311332e-02,1.7196848e-02
9.3987203e-01,7.3435607e-05,4.1452343e-04,-2.3867793e-05,5.3400657e-03,-1.4396975e-02,5.3541694e-03,1.9397447e-03,-2.8120216e-03,2.4853815e-03,5.5109584e-02,3.3594601e-02,3.5208965e-02
9.4987202e-01,1.3244078e-05,5.6809765e-04,1.6264366e-05,-5.9869058e-03,1.5389484e-02,-5.9692670e-03,1.1873845e-03,-4.1509970e-03,2.3254389e-03,-7.5236085e-02,-1.3389767e-01,-1.5994276e-02
9.5987201e-01,9.5849985e-05,9.4734705e-05,7.9160857e-05,8.2279509e-03,-4.7350091e-02,8.2142403e-03,5.4686918e-04,-1.1213569e-03,8.1796455e-04,-6.4051596e-02,3.0296429e-01,-1.5074758e-01
9.6987200e-01,6.8420196e-05,-2.4523730e-05,3.7322032e-05,-2.7438694e-03,-1.1925197e-02,-2.7449549e-03,1.0343358e-04,-1.3648433e-04,1.2600320e-04,-4.4343603e-02,9.8487354e-02,-6.9196201e-02
9.7987223e-01,7.7605991e-05,-4.6343944e-05,1.2588969e-05,9.1835894e-04,-2.1823293e-03,9.1790757e-04,7.2173071e-05,-3.1752278e-04,4.5749878e-05,-3.1259791e-03,-1.8103431e-02,-8.0251481e-03
9.8987222e-01,7.1592725e-05,-9.2629252e-05,7.8782807e-06,-6.0178609e-04,-4.6284041e-03,-6.0187635e-04,1.0210255e-04,-1.1570705e-04,2.2689598e-05,2.9929510e-03,2.0181593e-02,-2.3060303e-03
9.9987221e-01,5.9611705e-05,-1.2138197e-04,9.7744923e-06,-1.1985447e-03,-2.8753024e-03,-1.1975945e-03,1.9896382e-04,2.2231502e-04,1.0893410e-04,9.6861354e-03,3.3802239e-02,8.6244580e-03
1.0098722e+00,8.0930992e-05,-1.2008776e-04,6.1584783e-05,2.1313574e-03,1.2906319e-04,2.1325256e-03,2.3561016e-04,6.7643181e-05,2.8316379e-04,3.6646385e-03,-1.5467198e-02,1.7422986e-02
1.0198722e+00,4.5989882e-05,-1.5305350e-04,3.9328812e-05,-3.4941949e-03,-3.2966752e-03,-3.4939418e-03,2.7449618e-04,3.0237783e-04,2.3583693e-04,3.8886054e-03,2.3473487e-02,-4.7326903e-03
1.0298722e+00,-4.9929958e-06,-1.3624821e-04,4.3159558e-05,-5.0965010e-03,1.6823942e-03,-5.0994692e-03,3.8877043e-04,2.3231771e-05,2.2316764e-04,1.1427436e-02,-2.7914632e-02,-1.2669303e-03
1.0398722e+00,6.3634830e-05,3.4606919e-04,-1.1259637e-05,6.9494733e-03,4.8195200e-02,7.0305357e-03,2.1463897e-03,-3.1263777e-03,2.4484580e-03,1.7576209e-01,-3.1496125e-01,2.2252925e-01
1.0498722e+00,6.5148585e-05,3.8255674e-04,-5.6732455e-07,1.5870458e-04,3.6478912e-03,1.6422191e-04,2.1069295e-03,-3.4182871e-03,2.3649498e-03,-3.9460241e-03,-2.9190968e-02,-8.3508231e-03
1.0598722e+00,1.8647048e-05,4.3526556e-04,-8.5413149e-05,-4.6327586e-03,5.2917811e-03,-4.6437913e-03,1.4907967e-03,-3.0025173e-03,2.0487039e-03,-6.1613336e-02,4.1577019e-02,-3.1624622e-02
1.0698721e+00,4.7148118e-05,4.3665094e-04,-8.1246548e-05,2.8443211e-03,1.2599348e-04,2.8564674e-03,1.5005513e-03,-2.8944186e-03,2.1006087e-03,9.7546525e-04,1.0809882e-02,5.1904818e-03
1.0798721e+00,1.0442311e-04,3.4916854e-04,-1.6020906e-05,5.6960713e-03,-8.7749179e-03,5.7180474e-03,1.9741448e-03,-2.6841580e-03,2.4679241e-03,4.7359390e-02,2.1026080e-02,3.6731573e-02
1.0898721e+00,4.1480311e-05,4.0834100e-04,5.7666562e-05,-6.2699792e-03,5.9527585e-03,-6.2850594e-03,1.6537162e-03,-3.9870779e-03,2.3031037e-03,-3.2042884e-02,-1.3029212e-01,-1.6482052e-02
1.0998721e+00,2.2960167e-06,7.4312316e-05,4.4968344e-05,-3.9393271e-03,-3.3393875e-02,-3.9740118e-03,7.0645357e-04,-1.5828243e-03,6.8949171e-04,-9.4726357e-02,2.4042559e-01,-1.6136135e-01
1.1098721e+00,1.2551034e-05,1.3827793e-04,7.7115899e-06,1.0267989e-03,6.3945917e-03,1.0364711e-03,2.9882004e-04,-1.6187265e-03,5.9968408e-04,-4.0763392e-02,-3.5902187e-03,-8.9807715e-03
1.1198721e+00,5.1319437e-05,1.4304939e-04,4.0552946e-05,3.8745002e-03,4.6995009e-04,3.8800647e-03,3.0910283e-04,-1.5459051e-03,6.4234983e-04,1.0282807e-03,7.2821464e-03,4.2665796e-03
1.1298721e+00,3.0574740e-06,-2.9562457e-05,5.1783808e-05,-4.8253233e-03,-1.7260655e-02,-4.8290317e-03,-1.8722619e-05,-1.3188721e-04,1.1486081e-04,-3.2782577e-02,1.4140192e-01,-5.2748952e-02
1.1398721e+00,1.1358893e-05,-5.7247921e-05,3.9134627e-05,8.3035398e-04,-2.7683708e-03,8.3052549e-04,-9.6097798e-05,1.1849790e-04,6.5945795e-05,-7.7375253e-03,2.5038535e-02,-4.8915066e-03
1.1498721e+00,1.1147521e-05,-1.8137010e-05,2.1679269e-05,-2.1624580e-05,3.9110953e-03,-2.0544010e-05,-1.2475938e-04,-1.5182217e-04,2.7274083e-05,-2.8661606e-03,-2.7032033e-02,-3.8671749e-03
1.1598721e+00,-1.6622209e-05,2.3843088e-05,1.7898627e-05,-2.7771441e-03,4.1997855e-03,-2.7741268e-03,-3.4888337e-05,-6.7326028e-04,-7.9021753e-06,8.9871126e-03,-5.2143861e-02,-3.5176292e-03
1.1698720e+00,1.2628960e-05,4.6087026e-04,-2.0635691e-05,2.9763313e-03,4.3686621e-02,3.1087608e-03,1.3225697e-03,-4.0496413e-03,2.2489112e-03,1.3574594e-01,-3.3763842e-01,2.2568155e-01
1.1798720e+00,-1.0854565e-05,4.0406517e-04,-2.2058076e-05,-2.3502490e-03,-5.6685376e-03,-2.3752483e-03,1.2736616e-03,-3.7986992e-03,2.2709188e-03,-4.8908225e-03,2.5094228e-02,2.2007649e-03
1.1898720e+00,5.9421603e-05,4.0053796e-04,1.1450164e-05,7.0103259e-03,-3.8953737e-04,7.0429388e-03,1.4281836e-03,-3.8019925e-03,2.3858267e-03,1.5452221e-02,-3.2932500e-04,1.1490799e-02
1.1998720e+00,8.3624046e-05,3.7141446e-04,-2.5846677e-05,2.4107451e-03,-2.9241243e-03,2.4155314e-03,1.4075107e-03,-3.4569240e-03,2.2286898e-03,-2.0672921e-03,3.4506880e-02,-1.5713700e-02
1.2098720e+00,3.9068054e-05,4.2227248e-04,-4.7385652e-05,-4.4383877e-03,5.1100661e-03,-4.4450163e-03,1.4197592e-03,-4.0264195e-03,2.2397489e-03,1.2248461e-03,-5.6949600e-02,1.1059073e-03
1.2198720e+00,3.3673723e-05,3.9977056e-04,-1.0887664e-04,-5.4228727e-04,-2.2474542e-03,-5.4792672e-04,1.8038933e-03,-3.2388970e-03,2.2305649e-03,3.8413447e-02,7.8752326e-02,-9.1839804e-04
1.2298722e+00,-1.0391034e-06,4.5792627e-04,-1.0277813e-04,-3.4536616e-03,5.8322022e-03,-3.4605572e-03,1.7221248e-03,-3.1114079e-03,2.1645065e-03,-8.1766625e-03,1.2748615e-02,-6.6056949e-03
1.2398722e+00,3.3045487e-05,4.7709084e-04,-7.2523287e-05,3.4042505e-03,1.9008607e-03,3.4213820e-03,1.6515813e-03,-2.9154666e-03,2.1606134e-03,-7.0543516e-03,1.9594144e-02,-3.8930829e-04
1.2498722e+00,7.7552694e-05,3.3858878e-04,6.7883974e-05,4.4287847e-03,-1.3867454e-02,4.4188308e-03,1.0361805e-03,-2.8456044e-03,1.7031139e-03,-6.1540144e-02,6.9862321e-03,-4.5749993e-02
1.2598722e+00,4.6689371e-05,1.2704148e-04,4.8690956e-05,-3.0900855e-03,-2.1150724e-02,-3.1100816e-03,2.6270633e-04,-1.0370946e-03,5.8535645e-04,-7.7347490e-02,1.8085115e-01,-1.1177585e-01
1.2698722e+00,2.8793841e-05,1.5572740e-04,7.0901129e-05,-1.7873039e-03,2.8724228e-03,-1.7856584e-03,4.2797365e-04,-1.7130075e-03,5.7143113e-04,1.6526748e-02,-6.7591346e-02,-1.3925338e-03
1.2798722e+00,3.7642368e-05,1.6440529e-04,6.8034639e-05,8.8473497e-04,8.6564525e-04,8.8707012e-04,4.5835447e-04,-1.9623424e-03,5.8324928e-04,3.0380848e-03,-2.4933518e-02,1.1818164e-03
1.2898722e+00,8.5325163e-06,-1.2542765e-05,2.8905588e-05,-2.9131968e-03,-1.7692399e-02,-2.9234782e-03,1.4190367e-04,-6.8884154e-04,1.0376243e-04,-3.1645111e-02,1.2735021e-01,-4.7948731e-02
1.2998722e+00,2.8604583e-05,-1.4612826e-04,4.4908624e-06,2.0092891e-03,-1.3356876e-02,2.0163277e-03,-1.8085117e-04,6.5756253e-04,1.6707251e-04,-3.2275515e-02,1.3464053e-01,6.3310138e-03
1.3098722e+00,7.1824236e-05,-1.1054958e-04,1.7181483e-05,4.3209997e-03,3.5598471e-03,4.3213123e-03,-9.7594646e-05,3.5952274e-04,1.4402860e-04,8.3256605e-03,-2.9804007e-02,-2.3043923e-03
1.3198721e+00,-1.2317245e-06,-1.1974345e-04,-1.9758730e-05,-7.3042089e-03,-9.2346006e-04,-7.3064834e-03,-2.0058487e-04,3.5682713e-04,1.6555511e-04,-1.0299033e-02,-2.6956099e-04,2.1526525e-03
1.3298721e+00,1.0027897e-05,4.3948839e-04,-5.5773622e-05,1.1911647e-03,5.5916860e-02,1.3527425e-03,1.2146598e-03,-4.0039149e-03,2.4173492e-03,1.4152460e-01,-4.3607462e-01,2.2517962e-01
1.3398721e+00,3.0239998e-05,4.1996738e-04,-1.2438424e-04,2.0132141e-03,-1.9622172e-03,2.0194000e-03,1.6926262e-03,-3.3103442e-03,2.3181986e-03,4.7796689e-02,6.9357137e-02,-9.9150695e-03
1.3498721e+00,3.9998784e-05,3.6018269e-04,-8.4081621e-05,9.6399138e-04,-5.9824330e-03,9.6335470e-04,1.6289640e-03,-2.4487837e-03,2.1988040e-03,-6.3662320e-03,8.6156133e-02,-1.1939473e-02
1.3598721e+00,2.2959616e-05,4.2745630e-04,2.6231624e-05,-1.6917080e-03,6.7352598e-03,-1.6848004e-03,1.2672822e-03,-3.3829266e-03,2.1595050e-03,-3.6168214e-02,-9.3414377e-02,-3.9299018e-03
1.3698721e+00,2.6410249e-05,4.1056707e-04,6.4002778e-05,3.4209705e-04,-1.6905077e-03,3.4023294e-04,1.3160300e-03,-3.2947301e-03,2.1526746e-03,4.8747906e-03,8.8196549e-03,-6.8304145e-04
1.3798721e+00,8.1433910e-06,4.5558426e-04,1.5832791e-05,-1.8165279e-03,4.5112595e-03,-1.8132440e-03,1.4152562e-03,-3.8176828e-03,2.0708858e-03,9.9226276e-03,-5.2295316e-02,-8.1788835e-03
1.3898721e+00,-1.9200094e-05,5.1283464e-04,-2.7920857e-05,-2.7204186e-03,5.7403667e-03,-2.7160613e-03,1.4566178e-03,-4.1592026e-03,2.0424155e-03,4.1361589e-03,-3.4152015e-02,-2.8470285e-03
1.3998721e+00,-5.7654510e-05,1.4478269e-04,-3.8231626e-05,-3.8533661e-03,-3.6799898e-02,-3.8883122e-03,2.4704776e-04,-1.1328946e-03,3.0463636e-04,-1.2095712e-01,3.0263109e-01,-1.7377809e-01
1.4098721e+00,7.8793267e-05,3.0898035e-04,5.3047159e-05,1.3638419e-02,1.6363361e-02,1.3718739e-02,1.0553620e-03,-3.0679514e-03,1.7349107e-03,8.0831503e-02,-1.9350587e-01,1.4302757e-01
1.4198720e+00,3.5304839e-05,-1.4871264e-05,3.2547642e-05,-4.3473399e-03,-3.2384835e-02,-4.3530135e-03,-2.6021730e-05,-1.0815146e-04,1.5274708e-04,-1.0813848e-01,2.9598028e-01,-1.5821652e-01
1.4298720e+00,5.9101517e-05,-1.8501498e-06,1.8556647e-05,2.3792317e-03,1.3013873e-03,2.3805051e-03,-2.7133998e-05,-3.3187783e-04,1.6935614e-04,-1.1122693e-04,-2.2372658e-02,1.6609077e-03
1.4398720e+00,2.5205618e-05,1.3846456e-05,-1.6660335e-07,-3.3889825e-03,1.5727423e-03,-3.3887757e-03,2.8453583e-05,-8.8032446e-04,1.6693726e-04,5.5587634e-03,-5.4844715e-02,-2.4188799e-04
1.4498720e+00,7.5096817e-06,4.7048102e-04,-4.6688956e-05,-1.6960997e-03,4.5673505e-02,-1.5723714e-03,1.5169216e-03,-4.4071616e-03,2.3852275e-03,1.4884694e-01,-3.5268405e-01,2.2182924e-01
1.4598720e+00,1.1601459e-05,2.8366160e-04,3.4863569e-05,3.8663774e-04,-1.8683631e-02,3.5058940e-04,1.1667858e-03,-3.1734710e-03,1.8123935e-03,-3.5013610e-02,1.2336918e-01,-5.7283462e-02
1.4698720e+00,3.0825736e-05,4.9884895e-05,4.8957439e-05,1.9133590e-03,-2.3379789e-02,1.9059132e-03,3.3181974e-04,-7.6236600e-04,6.8287800e-04,-8.3496687e-02,2.4111073e-01,-1.1295165e-01
1.4798722e+00,9.2906266e-05,5.1596151e-05,7.4320554e-05,6.2039681e-03,1.6560618e-04,6.2120007e-03,3.1964049e-04,-5.6844549e-04,6.4367227e-04,-1.2178975e-03,1.9391606e-02,-3.9204839e-03
1.4898722e+00,2.7774557e-05,-4.5776452e-05,5.7000265e-05,-6.5121046e-03,-9.7382268e-03,-6.5128183e-03,-5.2719542e-05,9.4251629e-05,8.5842429e-05,-3.7236038e-02,6.6269776e-02,-5.5783037e-02
1.4998722e+00,4.9132389e-05,4.5408813e-04,-2.0016920e-06,2.2046799e-03,4.9973690e-02,2.3544972e-03,1.4725627e-03,-4.2788143e-03,2.2033654e-03,1.5252837e-01,-4.3730701e-01,2.1175249e-01
1.5098722e+00,1.1639348e-04,4.0703318e-04,-6.2535923e-05,6.7031818e-03,-4.7393233e-03,6.7252622e-03,1.7530623e-03,-3.2733896e-03,2.1793119e-03,2.8049990e-02,1.0054257e-01,-2.4053437e-03
1.5198722e+00,1.4062581e-04,3.1114801e-04,3.0333149e-05,2.4084929e-03,-9.5988576e-03,2.3968868e-03,1.0887124e-03,-3.1917586e-03,1.7738237e-03,-6.6435057e-02,8.1631068e-03,-4.0548867e-02
1.5298722e+00,1.3669220e-04,3.0954057e-04,9.1065636e-06,-3.9277496e-04,-1.5917921e-04,-3.9458256e-04,9.9683389e-04,-2.9759569e-03,1.8963186e-03,-9.1878550e-03,2.1580187e-02,1.2249508e-02
1.5398722e+00,6.9139314e-05,3.5524028e-04,-9.7354105e-05,-6.7326814e-03,4.5960855e-03,-6.7601555e-03,1.6193111e-03,-2.2433462e-03,2.2482632e-03,6.2247785e-02,7.3261143e-02,3.5194496e-02
1.5498722e+00,2.6030313e-05,3.8691253e-04,-8.5651771e-05,-4.2957866e-03,3.1863318e-03,-4.3119172e-03,1.7242462e-03,-2.7050352e-03,2.2360346e-03,1.0493519e-02,-4.6168943e-02,-1.2228670e-03
1.5598722e+00,-5.4639881e-05,4.8302782e-04,-3.7921699e-05,-8.0335130e-03,9.6569791e-03,-8.0461765e-03,1.5709515e-03,-4.0639859e-03,2.2789077e-03,-1.5329491e-02,-1.3589520e-01,4.2873178e-03
1.5698721e+00,-6.9446090e-05,2.3451801e-04,-2.2401143e-05,-1.4923423e-03,-2.4847551e-02,-1.5261291e-03,5.2595942e-04,-1.7765677e-03,9.1159999e-04,-1.0449931e-01,2.2874204e-01,-1.3673090e-01
1.5798721e+00,5.5263668e-06,4.7299425e-04,-9.9469621e-06,7.5120336e-03,2.3807691e-02,7.6086170e-03,1.3292697e-03,-3.9633773e-03,2.2532867e-03,8.0331109e-02,-2.1868118e-01,1.3416880e-01
1.5898721e+00,7.9550360e-05,4.0910898e-04,-4.4825653e-05,7.3751358e-03,-6.4233321e-03,7.3995113e-03,1.7035194e-03,-2.9960832e-03,2.2099237e-03,3.7425001e-02,9.6729504e-02,-4.3363034e-03
1.5998721e+00,1.5921463e-05,4.5374496e-05,4.0287494e-05,-6.3642922e-03,-3.6367934e-02,-6.3931438e-03,3.2565547e-05,-8.3749053e-04,-3.3305619e-05,-1.6709554e-01,2.1585947e-01,-2.2432315e-01
1.6098721e+00,3.1232191e-05,4.1732634e-05,2.9399226e-05,1.5312826e-03,-3.6564378e-04,1.5305185e-03,8.6724599e-05,-8.6529364e-04,-1.5668555e-04,5.4159104e-03,-2.7803142e-03,-1.2338005e-02
1.6198721e+00,1.6966015e-05,2.6517251e-05,2.2087877e-05,-1.4268891e-03,-1.5202986e-03,-1.4276716e-03,1.1252172e-04,-7.5726075e-04,-6.9380164e-05,2.5797146e-03,1.0803299e-02,8.7305466e-03
1.6298721e+00,8.2244038e-05,3.7419604e-04,-8.6713100e-05,6.5738117e-03,3.4738890e-02,6.6352662e-03,1.7286653e-03,-2.6841894e-03,2.1559757e-03,1.6161451e-01,-1.9269305e-01,2.2253580e-01
1.6398721e+00,9.3319768e-06,-8.5125992e-05,7.6743863e-06,-7.2924325e-03,-4.5933946e-02,-7.2792781e-03,5.7715359e-05,2.9100664e-04,1.9632322e-04,-1.6709516e-01,2.9751989e-01,-1.9596543e-01
1.6498721e+00,5.4194714e-05,-1.0581144e-05,8.8862919e-06,4.4854338e-03,7.4513398e-03,4.4923545e-03,2.9834732e-04,-4.0376551e-04,6.8363755e-04,2.4063219e-02,-6.9477281e-02,4.8731479e-02
1.6598721e+00,4.4646657e-05,3.9615678e-05,1.4133222e-05,-9.5219016e-04,5.0210472e-03,-9.5025658e-04,3.7750569e-04,-1.0495890e-03,7.5530221e-04,7.9158448e-03,-6.4582413e-02,7.1664725e-03
1.6698720e+00,1.2207792e-05,4.6274130e-04,-2.0269775e-05,-3.1691768e-03,4.2331636e-02,-3.0644669e-03,1.5829115e-03,-4.4176683e-03,2.3806693e-03,1.2054070e-01,-3.3680825e-01,1.6253686e-01
1.6798720e+00,-7.9375101e-06,4.9434567e-04,-2.4450944e-05,-2.0057989e-03,3.1723196e-03,-2.0045491e-03,1.3277681e-03,-4.5769790e-03,2.2486872e-03,-2.5514363e-02,-1.5931077e-02,-1.3198224e-02
1.6898720e+00,8.1868240e-05,3.4454669e-04,4.3920653e-05,8.9479099e-03,-1.5019227e-02,8.9474718e-03,1.0700384e-03,-3.3117497e-03,1.8511133e-03,-2.5772994e-02,1.2652305e-01,-3.9757425e-02
1.6998720e+00,7.4849861e-05,4.5205173e-04,-1.8990319e-05,-6.8595697e-04,1.0753957e-02,-6.6375811e-04,1.3359092e-03,-3.6795676e-03,2.1623415e-03,2.6587107e-02,-3.6781833e-02,3.1122846e-02
1.7098720e+00,1.0733249e-04,3.9155045e-04,-9.6257283e-05,3.2318477e-03,-6.0635392e-03,3.2396355e-03,1.5721731e-03,-2.5576668e-03,2.1226753e-03,2.3626410e-02,1.1219019e-01,-3.9666165e-03
1.7198720e+00,4.4996758e-05,4.8016402e-04,-2.9217743e-05,-6.2083325e-03,8.8965663e-03,-6.2085861e-03,1.3810466e-03,-4.2713030e-03,2.0837503e-03,-1.9112671e-02,-1.7136378e-01,-3.8925055e-03
1.7298722e+00,-1.2340418e-05,1.3745773e-04,7.3632496e-06,-5.7476577e-03,-3.4257461e-02,-5.7931932e-03,4.9119357e-04,-1.6589401e-03,4.8144910e-04,-8.8983266e-02,2.6123032e-01,-1.6022645e-01
1.7398722e+00,-3.9380147e-05,2.4905716e-04,-1.5636678e-05,-2.6955130e-03,1.1166989e-02,-2.6832991e-03,5.6605567e-04,-2.0435410e-03,7.9293459e-04,7.4862173e-03,-3.8460131e-02,3.1148578e-02
1.7498722e+00,3.6874372e-05,3.7543081e-04,-3.7422865e-05,7.6316003e-03,1.2604543e-02,7.6735068e-03,1.7616872e-03,-2.5308505e-03,2.1104312e-03,1.1956326e-01,-4.8730995e-02,1.3174979e-01
1.7598722e+00,7.5911127e-06,4.8755702e-04,-9.2160759e-06,-2.9064119e-03,1.1227953e-02,-2.8912268e-03,1.3792842e-03,-3.8764120e-03,2.1997343e-03,-3.8240334e-02,-1.3455627e-01,8.9303176e-03
1.7698722e+00,3.7070884e-05,-1.4413627e-05,2.1123411e-05,2.9487353e-03,-5.0197866e-02,2.9343631e-03,-2.3610774e-05,-2.7983129e-04,1.4581358e-04,-1.4028963e-01,3.5965841e-01,-2.0539227e-01
1.7798722e+00,3.6711990e-05,7.1719799e-06,-9.5487235e-06,-3.5950370e-05,2.1585853e-03,-3.4443404e-05,-2.9279020e-05,-6.7101438e-04,6.4988083e-05,-5.6682512e-04,-3.9118346e-02,-8.0825575e-03
1.7898722e+00,-4.2333767e-05,-4.8710516e-05,-4.8265613e-05,-7.9041343e-03,-5.5855845e-03,-7.9069192e-03,-9.2228805e-05,-4.2999698e-04,-8.4154281e-06,-6.2949845e-03,2.4101763e-02,-7.3403581e-03
1.7998722e+00,4.5227898e-05,3.4209292e-04,-1.4484220e-04,8.8064716e-03,3.9041648e-02,8.8776798e-03,1.8026752e-03,-2.5926550e-03,2.2972396e-03,1.8949058e-01,-2.1626601e-01,2.3056573e-01
1.8098722e+00,2.6028939e-05,-1.0532395e-04,6.0351299e-06,-1.9223471e-03,-4.4742290e-02,-1.9043393e-03,5.8256043e-05,3.5125182e-04,8.1792860e-05,-1.7444208e-01,2.9439096e-01,-2.2154489e-01
1.8198721e+00,7.1264996e-05,-5.9960653e-05,5.0760557e-05,4.5231646e-03,4.5365281e-03,4.5238612e-03,1.0752207e-05,5.3566865e-05,1.0923914e-04,-4.7503881e-03,-2.9768524e-02,2.7446307e-03
1.8298721e+00,2.7266175e-05,-6.7511022e-05,4.4987731e-05,-4.3994073e-03,-7.5352991e-04,-4.4006237e-03,1.4295995e-04,-1.9967161e-04,1.3339143e-04,1.3220787e-02,-2.5323872e-02,2.4152310e-03
1.8398721e+00,-3.6449262e-05,1.2614702e-05,3.7306817e-05,-6.3699644e-03,8.0194177e-03,-6.3645287e-03,1.0243386e-04,-9.7121713e-04,1.1999921e-04,-4.0526129e-03,-7.7154625e-02,-1.3392234e-03
1.8498721e+00,2.3855099e-05,4.7432125e-04,-7.6607553e-06,6.0844895e-03,4.6134694e-02,6.2477923e-03,1.4472084e-03,-4.4307396e-03,2.1144579e-03,1.3447758e-01,-3.4595257e-01,1.9944606e-01
1.8598721e+00,7.3280332e-05,3.3152412e-04,3.3437338e-05,4.9178300e-03,-1.4302163e-02,4.9021253e-03,1.1448344e-03,-3.4076161e-03,1.6873416e-03,-3.0237424e-02,1.0231244e-01,-4.2711671e-02
1.8698721e+00,3.1939157e-05,4.8759498e-04,-2.8338817e-05,-4.1034474e-03,1.5629888e-02,-4.0782130e-03,1.4003366e-03,-4.1390591e-03,2.1299513e-03,2.5550236e-02,-7.3144364e-02,4.4261013e-02
1.8798721e+00,6.3482680e-05,3.8579105e-04,-9.1530230e-05,3.1311390e-03,-1.0193248e-02,3.1359483e-03,1.6186046e-03,-2.4625228e-03,2.1325920e-03,2.1826828e-02,1.6765379e-01,2.6406902e-04
1.8898721e+00,6.8639586e-05,3.9853023e-04,-9.8353311e-05,5.1669188e-04,1.2716547e-03,5.2025799e-04,1.6929346e-03,-2.6796435e-03,2.2375425e-03,7.4330035e-03,-2.1712090e-02,1.0495065e-02
1.8998721e+00,1.5714859e-05,4.5809461e-04,-5.3863825e-05,-5.2725443e-03,5.9853893e-03,-5.2797029e-03,1.4143886e-03,-4.0563145e-03,2.1711966e-03,-2.7854630e-02,-1.3766723e-01,-6.6345998e-03
1.9098721e+00,-4.0955279e-06,4.7298339e-04,-4.1384430e-05,-1.9746662e-03,1.5006751e-03,-1.9785024e-03,1.4756974e-03,-4.4777408e-03,2.1052936e-03,6.1308882e-03,-4.2142672e-02,-6.5903057e-03
1.9198720e+00,-3.9986723e-05,5.0382587e-04,-2.6578490e-05,-3.5768250e-03,3.1062460e-03,-3.5824246e-03,1.5094356e-03,-4.6193675e-03,2.1259496e-03,3.3738244e-03,-1.4162681e-02,2.0655999e-03
1.9298720e+00,1.5124928e-05,1.5484326e-04,6.8131171e-05,5.4939395e-03,-3.4911423e-02,5.4448184e-03,3.9461480e-04,-1.9996624e-03,6.2743236e-04,-1.1148219e-01,2.6197076e-01,-1.4985187e-01
1.9398720e+00,8.5831450e-05,6.7422978e-05,7.2612598e-05,7.0623890e-03,-8.7544286e-03,7.0635886e-03,4.8821261e-04,-1.2647891e-03,5.6572327e-04,9.3597898e-03,7.3487396e-02,-6.1709149e-03
1.9498720e+00,5.6366375e-05,-4.4150785e-05,6.9149758e-05,-2.9481326e-03,-1.1155872e-02,-2.9506221e-03,1.6382067e-04,-3.5012847e-04,6.9745941e-05,-3.2439225e-02,9.1466154e-02,-4.9597780e-02
1.9598720e+00,-2.4149866e-06,-6.8472727e-05,-5.1273538e-06,-5.8783829e-03,-2.4298625e-03,-5.8788658e-03,1.4456173e-04,-2.5249401e-04,1.8778904e-05,-1.9258967e-03,9.7634560e-03,-5.0967086e-03
1.9698720e+00,-7.1317844e-06,-9.3747632e-05,-3.0731460e-05,-4.7215627e-04,-2.5272292e-03,-4.7261589e-04,1.9916066e-04,-3.5939375e-04,5.7941996e-05,5.4598985e-03,-1.0689985e-02,3.9163130e-03
1.9798722e+00,4.1086428e-05,-1.4306698e-04,-2.3801675e-05,4.8199240e-03,-4.9333946e-03,4.8218881e-03,2.1453283e-04,-1.1172526e-04,1.5111306e-04,1.5371816e-03,2.4766282e-02,9.3168932e-03
1.9898722e+00,2.3929554e-05,-1.7706483e-04,-9.3441952e-06,-1.7154809e-03,-3.3999407e-03,-1.7155953e-03,3.1198469e-05,1.1994425e-04,1.8309396e-04,-1.8333453e-02,2.3166973e-02,3.1980925e-03
1.9998722e+00,2.3832621e-07,-1.8133157e-04,1.9589137e-05,-2.3685963e-03,-4.2732702e-04,-2.3695360e-03,1.2207158e-05,2.8763025e-04,2.2532738e-04,-1.8991329e-03,1.6768616e-02,4.2233461e-03
2.0098722e+00,2.3104264e-05,-3.4329253e-05,4.5050047e-05,2.2921899e-03,1.4696832e-02,2.3028822e-03,4.9893107e-04,-9.8938370e-04,7.6072138e-04,4.8672438e-02,-1.2770152e-01,5.3539451e-02
2.0198722e+00,-1.6271788e-05,5.3542358e-05,2.7228157e-05,-3.9295887e-03,8.7949876e-03,-3.9281548e-03,5.9821148e-04,-1.3888754e-03,7.0141814e-04,9.9280505e-03,-3.9949204e-02,-5.9303294e-03
2.0298722e+00,-3.1367102e-05,4.3945080e-04,-3.2491345e-05,-1.4461407e-03,3.8599441e-02,-1.3436193e-03,1.5590483e-03,-4.3787424e-03,2.1344120e-03,9.6083778e-02,-2.9898699e-01,1.4329952e-01
2.0398722e+00,5.8709773e-06,4.0563099e-04,-7.7815983e-05,3.7097979e-03,-3.4015734e-03,3.7199543e-03,1.8368799e-03,-3.4233120e-03,2.0911048e-03,2.7783182e-02,9.5543132e-02,-4.3307183e-03
2.0498722e+00,4.2322319e-05,3.5689963e-04,-5.8216862e-05,3.6288614e-03,-4.8899013e-03,3.6389264e-03,1.8376350e-03,-2.7623610e-03,2.0048007e-03,7.5507192e-05,6.6095165e-02,-8.6304198e-03
2.0598722e+00,6.0849814e-05,3.7001864e-04,-5.1427572e-05,1.8515386e-03,1.3031868e-03,1.8600995e-03,1.8490857e-03,-2.8451653e-03,1.9602098e-03,1.1450781e-03,-8.2804394e-03,-4.4590957e-03
2.0698721e+00,4.3463809e-05,3.8169342e-04,-7.3706119e-05,-1.7326706e-03,1.1762770e-03,-1.7385935e-03,1.9908176e-03,-3.0678517e-03,2.0707724e-03,1.4173200e-02,-2.2268667e-02,1.1056269e-02
2.0798721e+00,-6.1243893e-05,-2.6695598e-05,2.3048483e-06,-1.0486210e-02,-4.0827411e-02,-1.0500262e-02,3.9666347e-04,-7.0317011e-04,7.3439966e-05,-1.5941557e-01,2.3646839e-01,-1.9973343e-01
2.0898721e+00,3.6150151e-05,3.1226475e-04,5.6265741e-05,9.7712189e-03,3.3841278e-02,9.8968115e-03,1.4510799e-03,-4.1336044e-03,1.7819320e-03,1.0544175e-01,-3.4304376e-01,1.7084937e-01
2.0998721e+00,4.6409159e-05,2.2841599e-05,3.4566172e-05,1.0057865e-03,-2.8944705e-02,9.7804078e-04,6.7221484e-04,-1.6759180e-03,6.4268281e-04,-7.7886583e-02,2.4576888e-01,-1.1392503e-01
2.1098721e+00,8.0287402e-05,-1.4245917e-04,4.0886175e-05,3.3853050e-03,-1.6531162e-02,3.3851315e-03,1.2482705e-04,-1.9084894e-04,1.3552106e-04,-5.4738831e-02,1.4850705e-01,-5.0716224e-02
2.1198721e+00,6.0939316e-05,-2.0355584e-04,3.1346079e-05,-1.9341152e-03,-6.1108170e-03,-1.9318888e-03,-9.9791227e-05,4.9214801e-04,4.4205457e-05,-2.2461849e-02,6.8299761e-02,-9.1315692e-03
2.1298721e+00,-4.6665388e-06,-1.8363306e-04,3.4635002e-06,-6.5604922e-03,1.9904827e-03,-6.5612366e-03,-2.1263920e-05,2.5263617e-04,2.1620997e-05,7.8527382e-03,-2.3951207e-02,-2.2584482e-03
2.1398721e+00,-8.4119906e-06,-9.2831160e-05,-8.9775397e-06,-3.7179270e-04,9.0804815e-03,-3.7041264e-04,3.0247385e-04,-4.5583344e-04,1.6815246e-05,3.2373808e-02,-7.0847028e-02,-4.8057554e-04
2.1498721e+00,1.0755388e-04,2.5479854e-04,3.1958006e-05,1.1626665e-02,3.4703562e-02,1.1743594e-02,1.4652338e-03,-3.6310109e-03,1.7968731e-03,1.1627610e-01,-3.1751805e-01,1.7800596e-01
2.1598721e+00,1.8826903e-05,-8.1822043e-05,1.3102552e-05,-8.8788828e-03,-3.3657039e-02,-8.8856827e-03,2.1434041e-04,-3.5467646e-04,1.1698917e-04,-1.2508946e-01,3.2763375e-01,-1.6798856e-01
2.1698720e+00,7.6204120e-05,3.5448897e-04,-1.1303012e-06,5.7926579e-03,4.3601828e-02,5.9029962e-03,1.5446894e-03,-3.5011215e-03,2.1690245e-03,1.3303503e-01,-3.1464481e-01,2.0520373e-01
2.1798720e+00,8.4721127e-05,3.4263811e-04,-4.4821756e-05,8.4767315e-04,-1.1890675e-03,8.5017240e-04,1.8752399e-03,-2.7992334e-03,2.1165240e-03,3.3055079e-02,7.0188878e-02,-5.2500623e-03
2.1898720e+00,3.2153451e-05,3.9195629e-04,-6.8936720e-05,-5.2366777e-03,4.9596157e-03,-5.2506775e-03,1.9342294e-03,-3.3531557e-03,2.0041478e-03,5.8989613e-03,-5.5392280e-02,-1.1237624e-02
2.1998720e+00,1.0668513e-05,3.8324595e-04,-9.5415355e-05,-2.1457776e-03,-8.5973681e-04,-2.1557506e-03,1.9433055e-03,-3.3052438e-03,2.0490350e-03,9.0760846e-04,4.7911928e-03,4.4887249e-03
2.2098720e+00,2.5566947e-05,3.4797584e-04,-9.6282303e-05,1.4798838e-03,-3.5344781e-03,1.4820660e-03,1.9389640e-03,-3.0795782e-03,2.0917022e-03,-4.3415575e-04,2.2566581e-02,4.2667202e-03
2.2198720e+00,6.5729900e-05,2.1200266e-04,3.8820480e-05,3.9913206e-03,-1.3614045e-02,3.9844521e-03,1.3368386e-03,-2.8366557e-03,1.6910503e-03,-6.0212596e-02,2.4292277e-02,-4.0065229e-02
2.2298722e+00,7.3967713e-05,1.8486605e-05,4.2494408e-05,8.1178052e-04,-1.9352457e-02,8.0503858e-04,5.9130266e-04,-9.9500538e-04,6.5456271e-04,-7.4551884e-02,1.8416081e-01,-1.0364639e-01
2.2398722e+00,8.9094554e-05,3.5130864e-05,5.4553620e-05,1.5127506e-03,1.6615436e-03,1.5157876e-03,6.1425319e-04,-1.2902792e-03,6.3244392e-04,2.2950549e-03,-2.9527410e-02,-2.2118818e-03
2.2498722e+00,3.9731171e-05,-3.7580303e-05,2.4056655e-05,-4.9379010e-03,-7.2656291e-03,-4.9428707e-03,2.5075803e-04,-8.6168002e-04,5.3705679e-05,-3.6349550e-02,4.2859959e-02,-5.7873879e-02
2.2598722e+00,4.4013258e-05,-4.1575749e-05,3.4385548e-05,4.2807112e-04,-4.0009865e-04,4.2783006e-04,2.8766340e-04,-1.0057629e-03,5.3927623e-05,3.6905404e-03,-1.4408299e-02,2.2194480e-05
2.2698722e+00,2.4517175e-05,-7.1025565e-05,3.7968513e-05,-1.9504009e-03,-2.9429106e-03,-1.9519495e-03,2.8293000e-04,-7.8024575e-04,2.1787677e-05,-4.7334008e-04,2.2551735e-02,-3.2139977e-03
2.2798722e+00,6.4715865e-06,-1.6510380e-04,2.8332945e-05,-1.8054702e-03,-9.4077301e-03,-1.8041835e-03,9.1700822e-05,3.5090353e-05,-2.6008735e-05,-1.9122936e-02,8.1533688e-02,-4.7796457e-03
2.2898722e+00,2.3520082e-05,-2.0831006e-04,1.9033294e-05,1.7044201e-03,-4.3199771e-03,1.7069372e-03,8.9390544e-05,4.7246129e-04,2.6314063e-05,-2.3102811e-04,4.3737135e-02,5.2322847e-03
2.2998722e+00,3.5038483e-05,-1.4538859e-04,1.7813444e-05,1.1531013e-03,6.2918850e-03,1.1520494e-03,2.1873771e-04,-1.4624405e-05,1.0082743e-04,1.2934729e-02,-4.8708616e-02,7.4513438e-03
2.3098722e+00,3.1276437e-05,3.1552557e-04,-4.2593018e-05,-3.0525510e-04,4.6093078e-02,-2.0176818e-04,1.5203978e-03,-3.7998467e-03,2.3159536e-03,1.3016613e-01,-3.7852259e-01,2.2151283e-01
2.3198721e+00,-8.2996700e-07,3.5791166e-04,-5.7756778e-05,-3.1959831e-03,4.2564739e-03,-3.2016279e-03,1.5507388e-03,-4.0145896e-03,2.5145502e-03,3.0341099e-03,-2.1474319e-02,1.9859677e-02
2.3298721e+00,-5.3178228e-05,3.8518272e-04,-5.7922940e-05,-5.2177034e-03,2.7566731e-03,-5.2364453e-03,1.4990500e-03,-4.1433694e-03,2.4867224e-03,-5.1688867e-03,-1.2877988e-02,-2.7827764e-03
2.3398721e+00,-3.6089408e-05,3.3500221e-04,-8.5380850e-05,1.6944202e-03,-5.0269848e-03,1.6970001e-03,2.0594983e-03,-3.1793195e-03,2.4110474e-03,5.6044877e-02,9.6405085e-02,-7.5675070e-03
2.3498721e+00,-2.4239915e-04,3.8405133e-04,-1.2561761e-05,-2.0571731e-02,5.0302736e-03,-2.0659966e-02,1.8089168e-03,-4.2594762e-03,2.4378304e-03,-2.5058169e-02,-1.0801578e-01,2.6783043e-03
2.3598721e+00,-4.6023245e-04,2.9686836e-04,7.1495030e-06,-2.1746024e-02,-8.5932040e-03,-2.1870184e-02,1.9061121e-03,-3.8237965e-03,2.4715819e-03,9.7195395e-03,4.3568015e-02,3.3751481e-03
2.3698721e+00,-6.7727944e-04,2.5878660e-04,4.8512411e-05,-2.1659307e-02,-3.6816411e-03,-2.1771813e-02,2.0466756e-03,-3.7724925e-03,2.4462930e-03,1.4056366e-02,5.1304061e-03,-2.5288900e-03
2.3798721e+00,-8.5827585e-04,2.1020735e-04,5.7250326e-05,-1.8061044e-02,-4.7536138e-03,-1.8165809e-02,2.2397853e-03,-3.5117763e-03,2.7283752e-03,1.9310983e-02,2.6071641e-02,2.8208243e-02
2.3898721e+00,-1.1310087e-03,2.2346815e-04,2.2828446e-05,-2.7184503e-02,1.5010318e-03,-2.7352796e-02,2.4561083e-03,-3.9468011e-03,3.1289972e-03,2.1632322e-02,-4.3502519e-02,4.0062242e-02
2.3998721e+00,-1.5396761e-03,-4.1181682e-04,7.5639202e-05,-4.0891825e-02,-6.3528949e-02,-4.0841104e-02,4.6706799e-04,4.7693277e-04,1.1302939e-04,-1.9890422e-01,4.4237381e-01,-3.0159707e-01
2.4098446e+00,-1.9635428e-03,-2.9156646e-04,1.6402509e-04,-4.2518104e-02,1.2137116e-02,-4.2465883e-02,1.7050255e-04,-1.6894209e-03,-3.9802389e-04,-2.9738109e-02,-2.1723118e-01,-5.1245883e-02
2.4198446e+00,-2.3621396e-03,-1.7957011e-04,1.7320605e-04,-3.9884030e-02,1.1329097e-02,-3.9798768e-02,3.7639024e-04,-2.8745413e-03,-7.1602653e-04,2.0588789e-02,-1.1851215e-01,-3.1800295e-02
2.4298446e+00,-2.6767199e-03,-1.8503920e-04,1.9793845e-04,-3.1478265e-02,-4.4415482e-04,-3.1439459e-02,1.5206103e-04,-3.1162668e-03,-6.3990370e-04,-2.2432942e-02,-2.4172576e-02,7.6122903e-03
2.4398446e+00,-2.8109154e-03,-1.9792300e-04,2.1601299e-04,-1.3422740e-02,-1.2499588e-03,-1.3420020e-02,1.3630214e-04,-2.7271001e-03,-2.2367255e-04,-1.5758908e-03,3.8916710e-02,4.1623155e-02
2.4498446e+00,-2.8596889e-03,-2.3544828e-04,2.7670630e-04,-4.8772336e-03,-3.7378394e-03,-4.8887524e-03,4.1449545e-04,-2.5942619e-03,3.4444373e-04,2.7819357e-02,1.3283828e-02,5.6811682e-02
2.4598446e+00,-3.0239096e-03,-3.9248321e-04,2.9475003e-04,-1.6416545e-02,-1.5669928e-02,-1.6459662e-02,9.3131373e-04,-1.1111412e-03,1.2268748e-03,5.1681878e-02,1.4831222e-01,8.8243194e-02
2.4698446e+00,-3.7170514e-03,2.7053079e-04,-4.4965140e-05,-6.8985570e-02,6.7194821e-02,-6.8779787e-02,3.7835913e-03,-9.1418881e-03,1.1148444e-03,2.8522803e-01,-8.0307546e-01,-1.1203054e-02
2.4798448e+00,-4.4047229e-03,-7.2466885e-05,-2.2490258e-04,-6.8990111e-02,-3.3689249e-02,-6.8842051e-02,2.6428705e-03,-6.2248486e-03,-1.9524259e-03,-1.1406947e-01,2.9169727e-01,-3.0672001e-01
2.4898448e+00,-5.0264919e-03,-7.1505115e-04,-6.8150975e-04,-6.2686837e-02,-6.3984958e-02,-6.1946652e-02,3.3812589e-03,-1.0163519e-03,-4.7228933e-03,7.3838908e-02,5.2085017e-01,-2.7704700e-01
2.4998448e+00,-5.1654858e-03,-8.2102006e-04,-6.1832698e-04,-1.3995005e-02,-1.0539310e-02,-1.3847162e-02,3.4715606e-03,-6.7001003e-04,-4.2465412e-03,9.0301821e-03,3.4634219e-02,4.7635252e-02
2.5098448e+00,-5.1962780e-03,-8.9433662e-04,-4.2961787e-04,-3.1144602e-03,-7.3190580e-03,-3.0737613e-03,3.4623870e-03,-6.1839407e-04,-3.2114818e-03,-9.1736623e-04,5.1616008e-03,1.0350604e-01
2.5198448e+00,-5.0487567e-03,-1.9312145e-04,2.0656497e-05,1.4972985e-02,6.9976124e-02,1.5213130e-02,3.0907223e-03,-6.6439293e-03,-2.8426414e-04,-3.7166506e-02,-6.0255410e-01,2.9272205e-01
2.5298448e+00,-5.3079986e-03,1.3923510e-04,6.5989072e-05,-2.5785321e-02,3.3583043e-02,-2.5613211e-02,3.6690487e-03,-9.7940155e-03,6.4670276e-04,5.7832691e-02,-3.1500892e-01,9.3096779e-02
2.5398448e+00,-5.8720122e-03,3.3548635e-04,4.1923518e-05,-5.6230652e-02,2.0540766e-02,-5.6245681e-02,4.1743487e-03,-1.2069825e-02,1.5652499e-03,5.0530055e-02,-2.2758115e-01,9.1854802e-02
2.5498447e+00,-6.4374006e-03,1.2714631e-04,1.1381018e-04,-5.6576651e-02,-1.9974283e-02,-5.6810730e-02,4.4537481e-03,-1.0717765e-02,9.6287640e-04,2.7939962e-02,1.3520611e-01,-6.0237409e-02
2.5598447e+00,-6.8395397e-03,-4.1619620e-04,2.1041633e-05,-4.0469939e-02,-5.3940359e-02,-4.0486566e-02,3.9063911e-03,-5.8628437e-03,-1.0958296e-03,-5.4735747e-02,4.8549260e-01,-2.0587079e-01
2.5698447e+00,-6.8516760e-03,-4.0119652e-04,1.4712552e-04,-1.2082591e-03,1.5118282e-03,-1.2042414e-03,3.8465680e-03,-5.9577970e-03,-3.3478478e-04,-5.9823197e-03,-9.4953374e-03,7.6104552e-02
2.5798447e+00,-6.7556866e-03,-8.2399447e-05,3.0708522e-04,9.6939615e-03,3.1766491e-02,9.8749506e-03,3.3784274e-03,-8.2758744e-03,1.3160328e-03,-4.6814099e-02,-2.3180797e-01,1.6508192e-01
2.5898447e+00,-6.9642393e-03,1.2036018e-07,2.9438900e-04,-2.0794370e-02,8.5324616e-03,-2.0803198e-02,3.6938115e-03,-9.7624703e-03,1.4517703e-03,3.1538434e-02,-1.4865973e-01,1.3573758e-02
2.5998447e+00,-7.7741033e-03,-3.4407799e-04,1.7261993e-04,-8.1205351e-02,-3.3409615e-02,-8.1190108e-02,3.6427483e-03,-8.8227664e-03,-1.1617646e-03,-5.1063223e-03,9.3970476e-02,-2.6135373e-01
2.6098447e+00,-8.1443839e-03,-1.8212093e-03,4.7945416e-04,-3.8023138e-02,-1.4745894e-01,-3.7033427e-02,6.5867922e-03,-1.9555240e-04,-6.1845897e-04,2.9440467e-01,8.6272223e-01,5.4330611e-02
2.6198447e+00,-8.7180498e-03,-2.3585015e-03,3.3218729e-04,-5.7829206e-02,-5.3507014e-02,-5.7109383e-02,7.1556114e-03,3.3150014e-03,-1.3878796e-03,5.6881967e-02,3.5105571e-01,-7.6942133e-02
2.6298447e+00,-9.4731283e-03,-2.0612185e-03,-6.3206603e-04,-7.5727294e-02,2.9649762e-02,-7.5318879e-02,5.1444581e-03,6.2029352e-03,-4.9562816e-03,-2.0111552e-01,2.8879366e-01,-3.5684055e-01
2.6398447e+00,-8.7796214e-03,-1.0462313e-03,7.3462977e-04,6.9604482e-02,1.0123877e-01,6.9476544e-02,3.2041013e-03,-5.3723926e-04,1.0251162e-03,-1.9403586e-01,-6.7401809e-01,5.9814035e-01
2.6498446e+00,-9.1531776e-03,-9.2343388e-04,7.2325288e-04,-3.7270971e-02,1.2456591e-02,-3.7381683e-02,3.3527133e-03,-1.3816762e-03,1.1585269e-03,1.4861212e-02,-8.4443777e-02,1.3341085e-02
2.6598446e+00,-9.4546214e-03,-9.5838007e-04,7.6336375e-04,-3.0120541e-02,-3.3446963e-03,-3.0185262e-02,3.7659383e-03,-1.2052788e-03,1.2207625e-03,4.1322537e-02,1.7639760e-02,6.2235631e-03
2.6698446e+00,-9.7011044e-03,-1.0382236e-03,7.1925053e-04,-2.4651126e-02,-7.8742844e-03,-2.4680898e-02,3.7745021e-03,-6.8823107e-04,1.1009886e-03,8.5638037e-04,5.1704821e-02,-1.1977397e-02
2.6798446e+00,-9.8282753e-03,-1.1681101e-03,7.0838502e-04,-1.2749894e-02,-1.2949544e-02,-1.2724160e-02,3.5080848e-03,4.3799859e-04,9.9779901e-04,-2.6641750e-02,1.1262307e-01,-1.0318969e-02
2.6898446e+00,-9.6601303e-03,-9.9010890e-04,7.9277535e-04,1.6850601e-02,1.7708725e-02,1.6874812e-02,4.7733523e-03,-6.4898830e-04,2.8916449e-03,1.2652686e-01,-1.0869879e-01,1.8938477e-01
2.6998446e+00,-8.9053125e-03,1.1475725e-04,1.3843557e-03,7.5681058e-02,1.0887657e-01,7.7592559e-02,8.3996704e-03,-1.2642527e-02,9.5742236e-03,3.6263216e-01,-1.1993550e+00,6.6825851e-01
2.7098446e+00,-1.0486596e-02,-8.8685186e-04,8.9110970e-04,-1.5821656e-01,-9.9138211e-02,-1.5868393e-01,3.1370820e-03,-3.3197375e-03,1.4240957e-03,-5.2625934e-01,9.3227986e-01,-8.1501357e-01
2.7198446e+00,-1.1395880e-02,-1.6476496e-03,4.7597750e-04,-9.1349716e-02,-7.5881878e-02,-9.0671398e-02,3.9228317e-03,1.7556942e-03,-1.3586506e-03,7.8575046e-02,5.0754365e-01,-2.7827489e-01
2.7298448e+00,-1.0956151e-02,-3.2320927e-04,1.0895772e-03,4.4522495e-02,1.3174410e-01,4.5485363e-02,5.6398800e-03,-9.9670587e-03,4.4398585e-03,1.7170089e-01,-1.1722485e+00,5.7983764e-01
2.7398448e+00,-1.1117556e-02,-7.4540175e-04,1.1094280e-03,-1.6324812e-02,-4.2014819e-02,-1.6485082e-02,6.2074942e-03,-6.3272791e-03,4.7894855e-03,5.6761477e-02,3.6397831e-01,3.4962737e-02
2.7498448e+00,-1.1344405e-02,-1.3548073e-03,1.1486883e-03,-2.2930996e-02,-6.0798637e-02,-2.2818028e-02,5.1550387e-03,-1.0630402e-03,2.9821451e-03,-1.0524565e-01,5.2642439e-01,-1.8073422e-01
2.7598448e+00,-1.1663232e-02,-1.2697715e-03,1.1499021e-03,-3.1743194e-02,8.7249748e-03,-3.1962024e-02,5.2160944e-03,-1.7268982e-03,2.9670307e-03,6.1055775e-03,-6.6385862e-02,-1.5114377e-03
2.7698448e+00,-1.2190943e-02,-1.1795374e-03,1.1767707e-03,-5.2590482e-02,9.4671540e-03,-5.2873771e-02,5.2526131e-03,-3.1514120e-03,2.5094873e-03,3.6518706e-03,-1.4245152e-01,-4.5754385e-02
2.7798448e+00,-1.3550233e-02,-1.1974244e-03,5.7150854e-04,-1.3618661e-01,-2.9082727e-04,-1.3568253e-01,5.0857590e-03,-5.9444431e-03,-1.8423293e-03,-1.6685426e-02,-2.7930337e-01,-4.3518207e-01
2.7898448e+00,-1.4291582e-02,-1.8631198e-03,1.0195808e-04,-7.4880489e-02,-6.5991285e-02,-7.3902560e-02,6.3953486e-03,-1.3924516e-03,-4.3423334e-03,1.3095908e-01,4.5519958e-01,-2.5000065e-01
2.7998447e+00,-1.4663497e-02,-2.1171695e-03,-1.7603580e-05,-3.7543209e-02,-2.5144300e-02,-3.7014758e-02,7.0305885e-03,3.8187523e-05,-4.6915344e-03,6.3524051e-02,1.4306405e-01,-3.4920133e-02
2.8098447e+00,-1.4527946e-02,-1.4387008e-03,5.5058584e-04,1.4023870e-02,6.7694696e-02,1.3836351e-02,6.4958390e-03,-4.5871152e-03,-2.0963071e-03,-5.3475003e-02,-4.6253071e-01,2.5952298e-01
2.8198447e+00,-1.4204923e-02,-1.9360854e-04,1.0531322e-03,3.3324105e-02,1.2369827e-01,3.4317595e-02,8.9435237e-03,-1.5504755e-02,2.7964285e-03,2.4476871e-01,-1.0917651e+00,4.8927402e-01
2.8298447e+00,-1.4862659e-02,-5.9342921e-04,1.0844222e-03,-6.5998521e-02,-3.8669205e-02,-6.6331053e-02,7.8378171e-03,-1.2045327e-02,1.3142648e-03,-1.1057076e-01,3.4594317e-01,-1.4821651e-01
2.8398447e+00,-1.5313985e-02,-7.8211166e-04,1.1385873e-03,-4.5218430e-02,-1.7926145e-02,-4.5429788e-02,9.8153504e-03,-1.0990971e-02,2.1516516e-03,1.9775351e-01,1.0543574e-01,8.3738753e-02
2.8498447e+00,-1.6029453e-02,-9.3108696e-04,1.2031474e-03,-7.1563294e-02,-1.3523986e-02,-7.1802727e-02,8.8133668e-03,-1.0349977e-02,1.5649391e-03,-1.0019846e-01,6.4099449e-02,-5.8671297e-02
2.8598447e+00,-1.6662208e-02,-1.1986370e-03,1.2582304e-03,-6.3462858e-02,-2.5730871e-02,-6.3512302e-02,7.6788333e-03,-8.4775091e-03,2.5727493e-04,-1.1345346e-01,1.8724694e-01,-1.3076655e-01
2.8698447e+00,-1.7189305e-02,-1.1451694e-03,1.1797792e-03,-5.2686490e-02,6.2523835e-03,-5.2633313e-02,7.9066986e-03,-9.2862935e-03,-3.9200411e-04,2.2786553e-02,-8.0878516e-02,-6.4927967e-02
2.8798447e+00,-1.7479569e-02,-6.6094911e-04,1.1868413e-03,-2.8439584e-02,4.9144515e-02,-2.8386049e-02,1.1042614e-02,-1.4091488e-02,1.7330556e-03,3.1359181e-01,-4.8051991e-01,2.1250617e-01
2.8898447e+00,-1.8526568e-02,-2.4113288e-03,3.8197572e-04,-1.0668652e-01,-1.7420755e-01,-1.0407815e-01,8.4966604e-03,6.2722004e-04,-4.8164364e-03,-2.5459558e-01,1.4718722e+00,-6.5494982e-01
2.8998446e+00,-1.8260871e-02,-1.3292887e-03,1.4168719e-03,2.7403070e-02,1.0772032e-01,2.7666473e-02,7.5767739e-03,-1.0304922e-02,-5.3797746e-04,-9.1988730e-02,-1.0932152e+00,4.2784630e-01
2.9098446e+00,-1.8561938e-02,-1.5276997e-03,1.4533412e-03,-3.0261233e-02,-1.9327741e-02,-3.0285344e-02,8.0857554e-03,-8.9173977e-03,1.6563996e-04,5.0898192e-02,1.3875252e-01,7.0361809e-02
2.9198446e+00,-1.9075774e-02,-1.1140904e-03,1.6011585e-03,-5.0942823e-02,4.2494913e-02,-5.0894923e-02,9.1078713e-03,-1.3047932e-02,1.2050827e-03,1.0221169e-01,-4.1305379e-01,1.0394438e-01
2.9298446e+00,-1.9781008e-02,-7.0829606e-04,1.6717436e-03,-6.9929752e-02,4.2548434e-02,-6.9951815e-02,1.0671025e-02,-1.7331906e-02,2.2184435e-03,1.5631547e-01,-4.2839789e-01,1.0133618e-01
2.9398446e+00,-2.0951760e-02,-1.6503774e-03,1.4257582e-03,-1.1812036e-01,-9.2039169e-02,-1.1774897e-01,9.0950472e-03,-9.3795198e-03,-1.6504880e-03,-1.5759788e-01,7.9523942e-01,-3.8689352e-01
2.9498446e+00,-2.2057555e-02,-2.8737243e-03,6.1174977e-04,-1.1253833e-01,-1.2114197e-01,-1.0991476e-01,1.1078383e-02,3.6095175e-04,-5.5342695e-03,1.9833382e-01,9.7404808e-01,-3.8837852e-01
2.9598446e+00,-2.2403175e-02,-2.5192724e-03,1.0059388e-03,-3.4326248e-02,3.5924437e-02,-3.4301354e-02,1.0741521e-02,-3.2019186e-03,-4.2588995e-03,-3.3686262e-02,-3.5628737e-01,1.2753712e-01
2.9698446e+00,-2.2312859e-02,-1.9026308e-03,1.6113903e-03,9.6988793e-03,6.1494924e-02,9.4827615e-03,1.0732603e-02,-7.4358246e-03,-6.5991754e-04,-8.9181279e-04,-4.2339100e-01,3.5989854e-01
2.9798448e+00,-2.2221934e-02,-2.1392572e-03,2.2146095e-03,8.8396019e-03,-2.3783677e-02,9.0239169e-03,9.8100662e-03,-3.6973356e-03,2.2075311e-03,-9.2251575e-02,3.7384034e-01,2.8673830e-01
2.9898448e+00,-2.3281644e-02,-1.0856431e-03,1.9696385e-03,-1.0441910e-01,1.0826066e-01,-1.0458035e-01,1.1919815e-02,-1.5590127e-02,2.7192625e-03,2.1097511e-01,-1.1892803e+00,5.1173190e-02
2.9998448e+00,-2.4135089e-02,-1.0706786e-03,1.9160638e-03,-8.5090176e-02,4.0067309e-03,-8.5517528e-02,1.2825717e-02,-1.6550397e-02,2.6704039e-03,9.0590235e-02,-9.6027033e-02,-4.8858636e-03
3.0098448e+00,-2.5501782e-02,-2.5969960e-03,1.3659817e-03,-1.3908359e-01,-1.4990937e-01,-1.3724623e-01,1.3732339e-02,-6.0778693e-03,-2.4252987e-03,9.0662298e-02,1.0472537e+00,-5.0957074e-01
3.0198448e+00,-2.6134012e-02,-2.5575745e-03,1.7241297e-03,-6.3226164e-02,5.3533293e-03,-6.3116015e-02,1.4591893e-02,-7.7464749e-03,-1.0668190e-03,8.5955471e-02,-1.6686071e-01,1.3584810e-01
3.0298448e+00,-2.6606068e-02,-2.0922010e-03,2.1827319e-03,-4.6570635e-02,4.7722528e-02,-4.6650002e-02,1.2929868e-02,-1.2327229e-02,6.2302423e-04,-1.6620260e-01,-4.5807584e-01,1.6898448e-01
3.0398448e+00,-2.7157127e-02,-1.7088015e-03,2.3652477e-03,-5.4438594e-02,4.0035505e-02,-5.4560683e-02,1.4107689e-02,-1.6794846e-02,2.1921166e-03,1.1778220e-01,-4.4676210e-01,1.5690939e-01
3.0498447e+00,-2.8213213e-02,-2.5062948e-03,2.3863792e-03,-1.0662407e-01,-7.7285555e-02,-1.0641729e-01,1.1951712e-02,-1.1285092e-02,-6.6048465e-04,-2.1559794e-01,5.5097588e-01,-2.8526040e-01
3.0598447e+00,-2.9181725e-02,-2.3000170e-03,2.2984468e-03,-9.6532854e-02,2.3364835e-02,-9.6547121e-02,1.4175507e-02,-1.4127368e-02,1.6842818e-04,2.2237971e-01,-2.8422790e-01,8.2891363e-02
3.0698447e+00,-3.0179712e-02,-3.2653823e-03,2.0527488e-03,-1.0139047e-01,-9.4368058e-02,-1.0026727e-01,1.3905834e-02,-7.7224293e-03,-2.5989575e-03,-2.6967296e-02,6.4049452e-01,-2.7673883e-01
3.0798447e+00,-3.0794419e-02,-4.1861434e-03,2.2236896e-03,-6.3051159e-02,-9.0882697e-02,-6.1646038e-02,1.5987390e-02,-3.2362058e-03,-1.8923668e-03,2.0815581e-01,4.4862278e-01,7.0659140e-02
3.0898447e+00,-3.1412544e-02,-3.3689303e-03,2.3105094e-03,-6.0697484e-02,8.3124960e-02,-6.1041269e-02,1.3975913e-02,-8.9184574e-03,-5.3426887e-04,-2.0114793e-01,-5.6822570e-01,1.3580992e-01
3.0998447e+00,-3.2173127e-02,-3.3281018e-03,2.2812210e-03,-7.5952286e-02,6.0229808e-03,-7.6035387e-02,1.5502295e-02,-1.0012394e-02,4.4173820e-04,1.5263839e-01,-1.0939380e-01,9.7600801e-02
3.1098447e+00,-3.2897189e-02,-3.7306083e-03,2.5985525e-03,-7.2912014e-02,-3.8764050e-02,-7.2709230e-02,1.4387926e-02,-6.0714707e-03,9.0884728e-04,-1.1143709e-01,3.9409273e-01,4.6710952e-02
3.1198447e+00,-3.3939052e-02,-3.0115625e-03,2.7046837e-03,-1.0259661e-01,7.5090509e-02,-1.0351444e-01,1.6667702e-02,-1.4027421e-02,3.6109321e-03,2.2797782e-01,-7.9559580e-01,2.7020874e-01
3.1298447e+00,-3.5125705e-02,-3.6741819e-03,2.7969790e-03,-1.1950116e-01,-6.2990457e-02,-1.1960484e-01,1.6879114e-02,-1.0557843e-02,2.2373861e-03,2.1141289e-02,3.4695818e-01,-1.3735473e-01
3.1398447e+00,-3.6173478e-02,-3.8933744e-03,2.8193939e-03,-1.0496381e-01,-1.9132151e-02,-1.0513619e-01,1.7141167e-02,-9.4053379e-03,1.6582948e-03,2.6205337e-02,1.1525058e-01,-5.7909185e-02
3.1498446e+00,-3.7131951e-02,-3.6993682e-03,2.9267546e-03,-9.5286496e-02,2.2244864e-02,-9.5788627e-02,1.7648530e-02,-1.2049235e-02,2.1214078e-03,5.0736301e-02,-2.6438999e-01,4.6311351e-02
3.1598446e+00,-3.7872148e-02,-3.9141186e-03,2.9499225e-03,-7.4195049e-02,-1.9298364e-02,-7.4442767e-02,1.8831664e-02,-1.0479584e-02,2.9148689e-03,1.1831352e-01,1.5696531e-01,7.9346183e-02
3.1698446e+00,-3.8660291e-02,-4.2269751e-03,3.0439170e-03,-7.9175284e-02,-2.9026736e-02,-7.9315295e-02,1.8992797e-02,-9.5546140e-03,2.7748581e-03,1.6113347e-02,9.2497053e-02,-1.4001092e-02
3.1798446e+00,-3.9649314e-02,-4.3199649e-03,3.0952313e-03,-9.8783984e-02,-6.4057311e-03,-9.9249714e-02,1.9470676e-02,-9.7353870e-03,2.8336327e-03,4.7787959e-02,-1.8077315e-02,5.8774646e-03
