time, x, y, z, vx, vy, vz, yaw, pitch, roll, yaw_rate, pitch_rate, roll_rate
0.0000000e+00,0.0000000e+00,0.0000000e+00,0.0000000e+00,0.0000000e+00,0.0000000e+00,0.0000000e+00,0.0000000e+00,0.0000000e+00,0.0000000e+00,0.0000000e+00,0.0000000e+00,0.0000000e+00
9.9999905e-03,-2.4458786e-04,-8.3523749e-04,-5.6204959e-04,-2.4570068e-02,-8.3692651e-02,-2.3760231e-02,4.9573176e-04,7.5165594e-03,-2.8601679e-03,4.9573224e-02,7.5165666e-01,-2.8601706e-01
1.9999981e-02,1.2567717e-04,-1.3573549e-04,-5.0103525e-05,3.6932874e-02,7.0052040e-02,3.6927542e-02,-9.9720620e-04,1.7541782e-03,6.4502865e-04,-1.4929394e-01,-5.7623868e-01,3.5051998e-01
2.9999971e-02,-1.8027993e-04,-5.5200586e-04,-3.1572731e-04,-3.0657186e-02,-4.1770626e-02,-3.0337498e-02,5.0356310e-04,5.2210379e-03,-1.3242118e-03,1.5007707e-01,3.4668630e-01,-1.9692423e-01
3.9999962e-02,-1.1833569e-06,-1.6195385e-04,-1.0095114e-04,1.7909153e-02,3.9045648e-02,1.7821927e-02,1.0790990e-04,2.3697579e-03,2.6411879e-04,-3.9565358e-02,-2.8512826e-01,1.5883321e-01
4.9999952e-02,-1.5949362e-04,-4.3780007e-04,-3.3785313e-04,-1.5855452e-02,-2.7657871e-02,-1.5678117e-02,2.3047414e-04,4.8821534e-03,-1.1410354e-03,1.2256436e-02,2.5123979e-01,-1.4051556e-01
5.9999943e-02,6.2233575e-06,-1.5830493e-04,-7.7176956e-05,1.6536440e-02,2.7997753e-02,1.6525500e-02,-9.0207787e-04,2.0101292e-03,6.0647683e-04,-1.1325531e-01,-2.8720269e-01,1.7475139e-01
6.9999933e-02,-1.9858779e-04,-1.2336805e-04,-1.1847600e-04,-2.0491558e-02,3.4697371e-03,-2.0474778e-02,1.0781155e-04,1.2779272e-03,-5.2750681e-04,1.0098904e-01,-7.3220270e-02,-1.1339847e-01
7.9999924e-02,-8.3052814e-05,7.9963567e-05,9.7192534e-06,1.1548808e-02,2.0326649e-02,1.1569691e-02,-1.2217656e-05,-5.7710058e-04,3.8525820e-04,-1.2002932e-02,-1.8550296e-01,9.1276587e-02
8.9999914e-02,-7.2341664e-05,-1.8574509e-05,-1.5990974e-05,1.0711609e-03,-9.8533424e-03,1.0754288e-03,6.9136082e-06,4.4914120e-04,-1.0544022e-04,1.9131283e-03,1.0262428e-01,-4.9069889e-02
9.9969864e-02,-9.6626969e-05,-1.7566374e-04,-7.9445243e-05,-2.4405983e-03,-1.5760409e-02,-2.4041244e-03,1.7189600e-04,1.8836189e-03,-8.3769040e-04,1.6547966e-02,1.4388014e-01,-7.3445724e-02
1.0996985e-01,-1.7347068e-04,-4.3790770e-04,-3.0440880e-04,-7.7091291e-03,-2.6253731e-02,-7.5584755e-03,5.7807597e-04,4.4319558e-03,-1.2489929e-03,4.0618036e-02,2.5483393e-01,-4.1130291e-02
1.1996984e-01,-5.6650347e-05,-2.1075778e-04,-1.2365310e-04,1.1688281e-02,2.2741312e-02,1.1624501e-02,3.0087353e-04,2.5583349e-03,5.1191453e-05,-2.7720271e-02,-1.8736228e-01,1.3001856e-01
1.2996984e-01,9.7533762e-05,1.2800129e-05,-1.2824596e-05,1.5409414e-02,2.2366651e-02,1.5411714e-02,1.9195324e-04,8.9477172e-04,8.6242864e-04,-1.0892039e-02,-1.6635647e-01,8.1123796e-02
1.3996983e-01,-1.6080274e-05,-2.9050715e-04,-1.7990655e-04,-1.1377549e-02,-3.0364842e-02,-1.1253711e-02,3.8258347e-04,3.3996774e-03,-3.9892653e-04,1.9063042e-02,2.5049080e-01,-1.2613564e-01
1.4996982e-01,1.6762347e-04,4.0588064e-05,-1.5757504e-05,1.8318969e-02,3.3136909e-02,1.8372419e-02,-8.7151878e-04,6.1785982e-04,1.2273428e-03,-1.2541034e-01,-2.7818202e-01,1.6262709e-01
1.5996981e-01,-8.0077046e-05,-2.5330242e-04,-2.5632427e-04,-2.4794566e-02,-2.9460547e-02,-2.4660429e-02,3.2359461e-04,3.2170948e-03,-6.0502312e-04,1.1951145e-01,2.5992374e-01,-1.8323677e-01
1.6996980e-01,-1.2815703e-04,-4.2262831e-04,-2.5762128e-04,-4.8187191e-03,-1.6949986e-02,-4.7354852e-03,3.8432049e-04,4.0318044e-03,-8.7568975e-04,6.0725938e-03,8.1471040e-02,-2.7066689e-02
1.7996979e-01,-3.9184733e-05,-1.6787342e-04,-3.3202955e-05,8.9045824e-03,2.5488288e-02,8.8531940e-03,5.9945718e-05,1.5000221e-03,-6.5398344e-04,-3.2437508e-02,-2.5317847e-01,2.2170652e-02
1.8996978e-01,1.2463969e-04,8.0096263e-05,8.9274740e-05,1.6340760e-02,2.4809091e-02,1.6405769e-02,-1.1927354e-03,-4.5265038e-04,7.3893915e-04,-1.2526823e-01,-1.9526744e-01,1.3929239e-01
1.9996977e-01,-2.5040012e-04,-4.9347300e-04,-3.4439022e-04,-3.7590609e-02,-5.7518331e-02,-3.7168718e-02,3.6447076e-05,4.3630765e-03,-2.2556725e-03,1.2291836e-01,4.8157315e-01,-2.9946145e-01
2.0997000e-01,-4.1814253e-05,-7.8682965e-05,-5.8929927e-05,2.0863741e-02,4.1492533e-02,2.0823650e-02,-2.2362871e-05,6.7248145e-04,-3.1453684e-04,-5.8808601e-03,-3.6905106e-01,1.9410912e-01
2.1996999e-01,-1.3394065e-04,-4.6582012e-04,-3.1995212e-04,-9.2508703e-03,-3.8746211e-02,-9.0362026e-03,7.0784110e-04,4.2756170e-03,-1.1752218e-03,7.3020467e-02,3.6031390e-01,-8.6068579e-02
2.2996998e-01,-2.0129686e-04,-5.4660595e-04,-3.6719198e-04,-6.7512156e-03,-8.1075972e-03,-6.6849771e-03,6.9306888e-04,5.0224401e-03,-1.4844493e-03,-1.4772236e-03,7.4682382e-02,-3.0922776e-02
2.3996997e-01,-3.8494519e-05,-1.8373142e-04,-1.7988226e-04,1.6287372e-02,3.6328645e-02,1.6181034e-02,1.0486353e-04,2.6412659e-03,-2.0379025e-04,-5.8820591e-02,-2.3811765e-01,1.2806602e-01
2.4996996e-01,-4.1244819e-07,-6.1681821e-05,-1.2819550e-04,3.8106616e-03,1.2210224e-02,3.7888708e-03,3.1292933e-04,1.6964862e-03,3.5922063e-04,2.0806600e-02,-9.4478061e-02,5.6301141e-02
2.5996995e-01,1.8098469e-05,-7.5786983e-05,-1.1895877e-04,1.8497704e-03,-1.4084558e-03,1.8539838e-03,5.2473937e-04,1.6369198e-03,3.1472158e-04,2.1181024e-02,-5.9566466e-03,-4.4499094e-03
2.6996994e-01,-1.2016411e-04,-4.1718795e-04,-2.6508181e-04,-1.3858199e-02,-3.4189279e-02,-1.3671994e-02,6.0348993e-04,4.1838352e-03,-8.1963885e-04,7.8750627e-03,2.5469179e-01,-1.1343615e-01
2.7996993e-01,-2.0963777e-04,-4.6924955e-04,-3.7273422e-04,-8.9602138e-03,-5.2451376e-03,-8.9116930e-03,4.0204125e-04,4.7702680e-03,-1.2018411e-03,-2.0144886e-02,5.8643331e-02,-3.8220257e-02
2.8996992e-01,-2.2564846e-05,7.3845130e-05,8.4478790e-07,1.8676674e-02,5.4313402e-02,1.8726639e-02,-4.2711140e-04,-2.1914555e-04,3.9752056e-04,-8.2915344e-02,-4.9894183e-01,1.5993631e-01
2.9996991e-01,-2.3972723e-05,-1.2310250e-05,-4.4634145e-05,-1.4059396e-04,-8.6155929e-03,-1.3809981e-04,-2.5493208e-05,3.0900199e-04,-1.8325347e-04,4.0161857e-02,5.2814805e-02,-5.8077458e-02
3.0996990e-01,-9.1902673e-05,-3.2777771e-04,-1.6876212e-04,-6.8191975e-03,-3.1562042e-02,-6.6951408e-03,5.1271175e-04,2.7826334e-03,-1.4765012e-03,5.3820547e-02,2.4736337e-01,-1.2932490e-01
3.1996989e-01,1.2847292e-04,-2.3387402e-04,-3.8837443e-05,2.2024187e-02,9.4645391e-03,2.2019237e-02,-7.0538949e-04,2.6606321e-03,3.0689669e-04,-1.2181024e-01,-1.2200140e-02,1.7833996e-01
3.2996988e-01,-1.4946524e-04,-5.8453915e-04,-3.1707370e-04,-2.7850963e-02,-3.5207148e-02,-2.7557914e-02,4.5711488e-04,5.5436160e-03,-1.4795970e-03,1.1625055e-01,2.8829866e-01,-1.7864954e-01
3.3996987e-01,4.3413648e-05,-1.5021099e-04,-1.5088569e-04,1.9294907e-02,4.3474299e-02,1.9187280e-02,1.6195934e-04,2.3165840e-03,1.7435664e-06,-2.9515581e-02,-3.2270351e-01,1.4813420e-01
3.4996986e-01,1.1817947e-04,-1.0339232e-03,-8.1004488e-05,7.3487578e-03,-8.8319780e-02,8.1791993e-03,1.4890687e-03,7.9943608e-03,-5.0411239e-04,1.3271106e-01,5.6777822e-01,-5.0585644e-02
3.5996985e-01,3.6643510e-04,-4.6374891e-04,1.8840967e-04,2.4796891e-02,5.7086327e-02,2.4695725e-02,4.0361538e-04,3.1817536e-03,2.0806435e-03,-1.0854544e-01,-4.8126118e-01,2.5847583e-01
3.6996984e-01,-2.3195768e-04,-6.5034232e-04,-4.2706576e-04,-5.9964676e-02,-1.8970043e-02,-5.9615759e-02,7.0215612e-04,5.9108049e-03,-1.8776891e-03,2.9854103e-02,2.7290539e-01,-3.9583364e-01
3.7996984e-01,3.4221633e-05,1.1767265e-04,6.7656992e-05,2.6574264e-02,7.6787010e-02,2.6703483e-02,-3.3347927e-04,-8.7861518e-04,6.7900156e-04,-1.0356364e-01,-6.7894265e-01,2.5566931e-01
3.8996983e-01,5.2470534e-05,1.4613641e-04,4.6369496e-05,1.8224032e-03,2.8449302e-03,1.8296319e-03,-4.1322016e-04,-1.2050685e-03,7.1884224e-04,-7.9740963e-03,-3.2645363e-02,3.9840719e-03
3.9996982e-01,-4.4816454e-05,-5.7423887e-05,-8.2495394e-05,-9.7266634e-03,-2.0367207e-02,-9.7073778e-03,-3.0126893e-04,8.4676256e-04,-4.2033409e-04,1.1195134e-02,2.0518330e-01,-1.1391774e-01
4.0996981e-01,-2.0000400e-04,-2.2096758e-04,-1.9535599e-04,-1.5538312e-02,-1.6387530e-02,-1.5464153e-02,8.4286559e-05,2.2253244e-03,-1.1711239e-03,3.8555585e-02,1.3785631e-01,-7.5079057e-02
4.1996980e-01,-1.6457964e-04,-4.1019373e-04,-2.6749843e-04,3.5327472e-03,-1.8910047e-02,3.6185078e-03,6.5115166e-04,4.1597386e-03,-7.4282085e-04,5.6686564e-02,1.9344160e-01,4.2830351e-02
4.2996979e-01,3.5055132e-05,-2.0335344e-05,-7.8573686e-05,1.9966712e-02,3.9000786e-02,1.9931131e-02,4.9469581e-04,1.2423108e-03,8.0454056e-04,-1.5645600e-02,-2.9174305e-01,1.5473629e-01
4.3996978e-01,-6.2949371e-05,-1.9945163e-04,-1.8204063e-04,-9.8065953e-03,-1.7935259e-02,-9.7510128e-03,2.9950639e-04,2.7159310e-03,-7.8717686e-05,-1.9518960e-02,1.4736216e-01,-8.8325908e-02
4.4996977e-01,-2.0700108e-04,-4.4637408e-04,-3.1216232e-04,-1.4436154e-02,-2.4754290e-02,-1.4267075e-02,5.3919588e-04,4.8712549e-03,-1.2265239e-03,2.3968972e-02,2.1553260e-01,-1.1478073e-01
4.5997000e-01,-2.0964169e-04,-5.2528810e-04,-3.3084005e-04,-2.7103855e-04,-7.8922951e-03,-2.2145380e-04,8.3712347e-04,5.3489590e-03,-1.4339148e-03,2.9792077e-02,4.7769320e-02,-2.0738612e-02
4.6996999e-01,-9.5100676e-05,-4.0788669e-04,-2.6906681e-04,1.1475112e-02,1.1778586e-02,1.1393475e-02,7.6066141e-04,4.1294493e-03,-1.0545631e-03,-7.6462131e-03,-1.2195109e-01,3.7935202e-02
4.7996998e-01,-1.0582867e-04,-5.1632376e-04,-3.2600624e-04,-1.0797070e-03,-1.0848159e-02,-1.0196609e-03,4.9290484e-04,4.7546281e-03,-1.4570865e-03,-2.6775682e-02,6.2517937e-02,-4.0252382e-02
4.8996997e-01,-4.3327495e-06,-1.8232084e-04,-8.3418824e-05,1.0137543e-02,3.3422852e-02,1.0087303e-02,-6.0466537e-04,1.6211197e-03,-8.0221510e-04,-1.0975713e-01,-3.1335114e-01,6.5487207e-02
4.9996996e-01,-1.1494405e-04,-4.0891494e-04,-2.1467216e-04,-1.1075055e-02,-2.2696971e-02,-1.0969874e-02,-1.1270693e-04,3.2972176e-03,-1.4899798e-03,4.9195891e-02,1.6760995e-01,-6.8776533e-02
5.0996995e-01,-5.3368425e-05,-3.0413662e-04,-1.2424067e-04,6.1661109e-03,1.0490354e-02,6.1276443e-03,2.2439488e-04,2.2629694e-03,-1.0060460e-03,3.3710213e-02,-1.0342492e-01,4.8393421e-02
5.1996994e-01,-1.9056260e-05,-1.9116260e-04,-7.0234800e-05,3.4353121e-03,1.1302350e-02,3.4108029e-03,1.3652093e-04,1.5809270e-03,-7.4345059e-04,-8.7874037e-03,-6.8204312e-02,2.6259568e-02
5.2996993e-01,-1.1752778e-04,-4.9981209e-04,-2.7624987e-04,-9.8721712e-03,-3.0904449e-02,-9.6971826e-03,4.3316184e-04,4.4785244e-03,-1.1828565e-03,2.9664119e-02,2.8976002e-01,-4.3940632e-02
5.3996992e-01,-2.6257083e-05,-1.0462838e-04,-1.4482915e-04,9.1263367e-03,3.9534139e-02,9.0594460e-03,2.2653575e-05,1.7525073e-03,1.7936826e-04,-4.1050866e-02,-2.7260196e-01,1.3622260e-01
5.4996991e-01,-1.3609812e-04,-2.3435276e-04,-2.2138638e-04,-1.0991281e-02,-1.2999050e-02,-1.0945430e-02,3.3431966e-04,2.7612625e-03,-2.5771165e-04,3.1166639e-02,1.0087561e-01,-4.3708032e-02
5.5996990e-01,-1.7064567e-04,-3.2631122e-04,-2.5744799e-04,-3.4635998e-03,-9.2063878e-03,-3.4176524e-03,6.4986927e-04,3.7208883e-03,-8.2999085e-04,3.1554991e-02,9.5962672e-02,-5.7227975e-02
5.6996989e-01,-1.6436333e-04,-3.4023152e-04,-2.6987682e-04,6.2758704e-04,-1.3902250e-03,6.3286469e-04,8.1917766e-04,3.6815727e-03,-7.8494785e-04,1.6930854e-02,-3.9315565e-03,4.5043045e-03
5.7996988e-01,-1.5127477e-04,-3.0766931e-04,-2.3148173e-04,1.3103742e-03,3.2602741e-03,1.2972045e-03,2.9301335e-04,3.4035315e-03,-4.3026728e-04,-5.2616481e-02,-2.7804147e-02,3.5468091e-02
5.8996987e-01,-7.5421873e-05,9.0210522e-05,-3.3877438e-05,7.5587051e-03,3.9789819e-02,7.6023950e-03,-5.9170916e-04,-3.5336440e-04,4.0171980e-04,-8.8472336e-02,-3.7568995e-01,8.3198788e-02
5.9996986e-01,-5.3298874e-05,1.4439929e-05,-2.8353307e-05,2.2147193e-03,-7.5756433e-03,2.2147559e-03,-3.4070122e-04,3.0223621e-04,7.4126048e-05,2.5100818e-02,6.5560124e-02,-3.2759407e-02
6.0996985e-01,-7.1951553e-05,-1.9399385e-04,-8.9987218e-05,-1.8702795e-03,-2.0846317e-02,-1.8272498e-03,1.7635923e-04,1.7597938e-03,-7.1539633e-04,5.1706094e-02,1.4575590e-01,-7.8952313e-02
6.1996984e-01,-2.0215469e-04,-7.3223162e-04,-4.6382331e-04,-1.3090015e-02,-5.3899863e-02,-1.2630063e-02,7.8096706e-04,6.7299969e-03,-2.1265088e-03,6.0460842e-02,4.9702078e-01,-1.4111138e-01
6.2996984e-01,-1.9047124e-04,-7.2379849e-04,-4.0615607e-04,1.1709531e-03,8.5089784e-04,1.1602096e-03,2.5409047e-04,6.7760961e-03,-2.0497847e-03,-5.2687710e-02,4.6099275e-03,7.6724171e-03
6.3996983e-01,1.4601505e-05,-3.1159598e-04,-1.5560323e-04,2.0521424e-02,4.1287225e-02,2.0357966e-02,1.5240241e-04,3.4294929e-03,-3.8275737e-04,-1.0168816e-02,-3.3466064e-01,1.6670289e-01
6.4996982e-01,1.7095338e-04,-8.1063483e-04,8.2724178e-05,1.5548101e-02,-4.9835611e-02,1.5937066e-02,1.5438917e-03,5.8514671e-03,6.4173649e-04,1.3914906e-01,2.4219765e-01,1.0244948e-01
6.5996981e-01,2.4728801e-05,-1.1113592e-03,-1.2565762e-04,-1.4689730e-02,-3.0165430e-02,-1.4361232e-02,1.8738975e-03,8.3127463e-03,-7.4782229e-04,3.3000611e-02,2.4612816e-01,-1.3895601e-01
6.6996980e-01,6.7280363e-05,-1.7632305e-04,-7.7741844e-05,4.1816560e-03,9.3515942e-02,4.0542661e-03,-7.6754096e-04,2.1665720e-03,4.0769541e-04,-2.6414410e-01,-6.1461801e-01,1.1555188e-01
6.7996979e-01,-2.5449110e-04,-8.5930495e-04,-5.7179220e-04,-3.2297219e-02,-6.8528822e-02,-3.1560790e-02,4.3515104e-04,7.6852651e-03,-2.8110659e-03,1.2026931e-01,5.5186983e-01,-3.2187643e-01
6.8996978e-01,5.7254513e-05,4.7132419e-05,3.1405422e-06,3.1136589e-02,9.0640319e-02,3.1222722e-02,-3.7079432e-04,-4.8259498e-04,1.4080569e-04,-8.0594613e-02,-8.1678678e-01,2.9518744e-01
6.9996977e-01,4.9048653e-06,-1.1051633e-05,-6.2869915e-06,-5.2331683e-03,-5.8190195e-03,-5.2360940e-03,-2.2770582e-04,-1.1136030e-04,9.0997960e-05,1.4308865e-02,3.7123503e-02,-4.9807780e-03
7.0997000e-01,-1.2231667e-04,-2.2947287e-04,-1.4592066e-04,-1.2727161e-02,-2.1874719e-02,-1.2659547e-02,-2.9069548e-04,2.3175551e-03,-9.1604699e-04,-6.2988226e-03,2.4288599e-01,-1.0070219e-01
7.1996999e-01,-1.9543773e-04,-6.0400305e-04,-3.7428733e-04,-7.3417124e-03,-3.7491537e-02,-7.0816065e-03,5.1118342e-04,5.8715169e-03,-1.4308679e-03,8.0187967e-02,3.5539651e-01,-5.1482137e-02
7.2996998e-01,-1.4864963e-05,-8.4665662e-05,-1.6625001e-04,1.8068857e-02,5.1958672e-02,1.7973950e-02,3.6796004e-04,1.7498826e-03,4.1775862e-04,-1.4322352e-02,-4.1216383e-01,1.8486283e-01
7.3996997e-01,-3.3405296e-05,-5.4274575e-05,-1.0736190e-04,-1.8524361e-03,3.0367845e-03,-1.8594385e-03,1.5782200e-04,1.4104584e-03,6.0352271e-04,-2.1013824e-02,-3.3942445e-02,1.8576427e-02
7.4996996e-01,-1.6461935e-04,-3.0719716e-04,-2.0727498e-04,-1.3133303e-02,-2.5335323e-02,-1.3026149e-02,3.1630725e-04,3.6102135e-03,-2.9610501e-04,1.5848540e-02,2.1997572e-01,-8.9962858e-02
7.5996995e-01,-2.3519018e-04,-4.2761086e-04,-3.2257613e-04,-7.0716740e-03,-1.2069094e-02,-6.9948763e-03,6.3099053e-04,4.5806227e-03,-9.9072295e-04,3.1468358e-02,9.7041012e-02,-6.9461861e-02
7.6996994e-01,-1.8869513e-04,-4.3450393e-04,-2.9402704e-04,4.6546913e-03,-6.7221744e-04,4.6468268e-03,5.8624012e-04,4.2657442e-03,-1.2022435e-03,-4.4750451e-03,-3.1487879e-02,-2.1152074e-02
7.7996993e-01,-1.2740339e-04,-5.0352734e-04,-3.4174233e-04,6.1358599e-03,-6.8741864e-03,6.1540934e-03,3.4640141e-04,4.9345229e-03,-1.4811893e-03,-2.3983893e-02,6.6877931e-02,-2.7894613e-02
7.8996992e-01,-1.7051589e-06,-1.4312892e-04,-7.2402082e-05,1.2573137e-02,3.6055951e-02,1.2520335e-02,-1.3063919e-04,1.1508635e-03,-6.3748581e-04,-4.7704105e-02,-3.7836630e-01,8.4370434e-02
7.9996991e-01,-2.7621014e-05,-3.3744734e-04,-1.5012366e-04,-2.5992472e-03,-1.9437048e-02,-2.5445945e-03,2.5943195e-04,2.2829769e-03,-1.0107394e-03,3.9007151e-02,1.1321145e-01,-3.7325390e-02
8.0996990e-01,2.5829237e-05,-1.7773581e-03,5.9270897e-05,4.8733660e-03,-1.4395061e-01,6.7141393e-03,3.2856361e-03,9.5182829e-03,-2.7439460e-04,3.0262070e-01,7.2353129e-01,7.3634546e-02
8.1996989e-01,-4.1150966e-05,-1.5584763e-03,-3.2589693e-04,-6.6594979e-03,2.1830210e-02,-6.9219433e-03,2.2768540e-03,1.0754834e-02,-1.6921839e-03,-1.0087830e-01,1.2365524e-01,-1.4177907e-01
8.2996988e-01,-9.4670100e-05,-6.0666059e-04,-2.7857757e-04,-5.3043750e-03,9.5157721e-02,-5.8057353e-03,5.6488062e-04,4.8332291e-03,-1.1635425e-03,-1.7119751e-01,-5.9216106e-01,5.2864200e-02
8.3996987e-01,-3.9680392e-05,-2.1113224e-04,-1.4784712e-04,5.5137109e-03,3.9561047e-02,5.4249253e-03,3.5390377e-04,1.8533607e-03,-1.3408333e-04,-2.1097706e-02,-2.9798712e-01,1.0294601e-01
8.4996986e-01,-1.7271508e-04,-3.7848311e-04,-2.5923856e-04,-1.3321675e-02,-1.6777920e-02,-1.3231149e-02,4.3962502e-04,3.6697147e-03,-8.1494074e-04,8.5721329e-03,1.8163558e-01,-6.8085806e-02
8.5996985e-01,-2.1600397e-04,-4.4681207e-04,-3.3599858e-04,-4.3378002e-03,-6.8495191e-03,-4.2935735e-03,5.8163105e-04,4.4409896e-03,-1.1402955e-03,1.4200617e-02,7.7127566e-02,-3.2535509e-02
8.6996984e-01,-3.1521231e-04,-5.5486049e-04,-4.3158079e-04,-9.9422366e-03,-1.0848173e-02,-9.8519117e-03,6.1687008e-04,5.0047955e-03,-1.4858851e-03,3.5239061e-03,5.6380638e-02,-3.4558995e-02
8.7996984e-01,-1.4341757e-04,4.7198915e-05,-6.5949629e-05,1.7163165e-02,6.0206233e-02,1.7194977e-02,-2.2171234e-04,-2.0781969e-04,1.7325008e-04,-8.3858323e-02,-5.2126202e-01,1.6591368e-01
8.8996983e-01,-1.3402339e-04,2.0357256e-05,-4.3833728e-05,9.3957806e-04,-2.6839710e-03,9.3982337e-04,-9.1470368e-05,1.1873706e-04,9.1605991e-05,1.3024210e-02,3.2655706e-02,-8.1644170e-03
8.9996982e-01,-1.3020855e-04,-7.8676008e-05,-7.7292676e-05,3.8147176e-04,-9.9030174e-03,3.8967288e-04,1.3444215e-05,8.3915293e-04,-3.1763220e-04,1.0491468e-02,7.2041656e-02,-4.0923858e-02
9.0996981e-01,-8.2490958e-05,-4.7208219e-05,-4.2153234e-05,4.7732427e-03,3.1468424e-03,4.7702455e-03,2.9396478e-04,3.0674210e-04,-1.1601803e-04,2.8052083e-02,-5.3241134e-02,2.0161437e-02
9.1996980e-01,-8.9986216e-05,-3.5945076e-04,-2.1234434e-04,-7.7811361e-04,-3.1225719e-02,-6.5461875e-04,9.0224796e-04,3.0257043e-03,-5.5425306e-04,6.0828376e-02,2.7189648e-01,-4.3823545e-02
9.2996979e-01,1.3055604e-04,-7.6851079e-04,5.6494769e-05,2.1965562e-02,-4.0834450e-02,2.2274327e-02,1.7781446e-03,4.9946661e-03,7.2127775e-04,8.7589752e-02,1.9689637e-01,1.2755320e-01
9.3996978e-01,1.1157181e-04,-9.2370779e-04,1.6118550e-05,-1.9224963e-03,-1.5528475e-02,-1.8000171e-03,1.5877120e-03,6.3765706e-03,2.9840827e-04,-1.9043278e-02,1.3819059e-01,-4.2286988e-02
9.4996977e-01,-1.1675973e-05,-1.2436544e-03,-1.7019435e-04,-1.2400130e-02,-3.2079816e-02,-1.2024282e-02,1.9742192e-03,9.0002200e-03,-9.9031636e-04,3.8650749e-02,2.6236519e-01,-1.2887259e-01
9.5997000e-01,2.3497096e-05,-1.1129471e-03,-1.4879591e-04,3.5490228e-03,1.3089762e-02,3.4118109e-03,2.2724630e-03,7.8993460e-03,-5.9822630e-04,2.9823701e-02,-1.1008488e-01,3.9208108e-02
9.6996999e-01,-6.4952276e-05,-1.3393933e-03,-2.0737338e-04,-8.9063617e-03,-2.2704014e-02,-8.6284735e-03,2.2824546e-03,9.1178683e-03,-1.1033569e-03,9.9916056e-04,1.2185234e-01,-5.0513106e-02
9.7996998e-01,-1.2425233e-04,-3.4149651e-04,-1.4023822e-04,-5.9453176e-03,9.9773130e-02,-6.1891727e-03,-8.3170843e-05,2.6677089e-03,-1.1823669e-03,-2.3656277e-01,-6.4501655e-01,-7.9010103e-03
9.8996997e-01,-1.4847265e-04,-2.4241249e-04,-1.3602542e-04,-2.4240597e-03,9.9043150e-03,-2.4367158e-03,4.6908892e-05,1.7336281e-03,-1.0287334e-03,1.3007986e-02,-9.3408176e-02,1.5363360e-02
9.9996996e-01,-2.5833244e-04,-3.4322796e-04,-2.7187427e-04,-1.1007079e-02,-1.0103461e-02,-1.0944680e-02,3.8373827e-04,2.3840492e-03,-1.5687345e-03,3.3682970e-02,6.5042175e-02,-5.4000157e-02
1.0099699e+00,-2.0880866e-04,-2.9472601e-04,-1.9677835e-04,4.9608917e-03,4.8573450e-03,4.9368402e-03,4.8525257e-04,1.9324052e-03,-1.2436932e-03,1.0151439e-02,-4.5164445e-02,3.2504163e-02
1.0199699e+00,-2.0229817e-04,-2.0952501e-04,-1.2911358e-04,6.5549595e-04,8.5205380e-03,6.4088167e-04,4.7173235e-04,1.1428427e-03,-6.5685144e-04,-1.3520233e-03,-7.8956325e-02,5.8684231e-02
1.0299699e+00,-1.8108988e-04,-4.2842916e-04,-2.4299584e-04,2.1114027e-03,-2.1883222e-02,2.2030924e-03,4.8114218e-04,3.8086324e-03,-5.2086951e-04,9.4098389e-04,2.6657923e-01,1.3598206e-02
1.0399699e+00,-3.7560800e-05,-8.0655774e-05,-1.1896492e-04,1.4352909e-02,3.4793898e-02,1.4312827e-02,2.2058454e-04,1.3735746e-03,5.3519062e-04,-2.6055789e-02,-2.4350602e-01,1.0560611e-01
1.0499699e+00,-9.7045765e-05,-1.5886344e-04,-1.9134450e-04,-5.9508631e-03,-7.8301094e-03,-5.9338414e-03,4.8383688e-04,2.0557016e-03,2.3908948e-04,2.6325259e-02,6.8212764e-02,-2.9610142e-02
1.0599699e+00,-1.6927746e-04,-2.7166915e-04,-2.7459567e-04,-7.2346771e-03,-1.1297179e-02,-7.1856297e-03,6.4657760e-04,2.9531594e-03,-5.8283884e-04,1.6274088e-02,8.9745868e-02,-8.2192910e-02
1.0699699e+00,-8.1678539e-05,-1.9081554e-04,-2.0380335e-04,8.7674466e-03,8.0994232e-03,8.7393429e-03,7.0615543e-04,2.3137533e-03,-2.0996422e-04,5.9577880e-03,-6.3940670e-02,3.7287497e-02
1.0799699e+00,-1.4799031e-04,-4.0815760e-04,-2.5846022e-04,-6.6533318e-03,-2.1752923e-02,-6.5471621e-03,7.6410484e-04,3.6088223e-03,-8.3627240e-04,5.7949465e-03,1.2950702e-01,-6.2630877e-02
1.0899699e+00,-1.0129130e-04,-4.4888151e-04,-2.8113630e-04,4.6719995e-03,-4.0579787e-03,4.6803486e-03,6.6314113e-04,3.7475635e-03,-1.0273954e-03,-1.0096380e-02,1.3874132e-02,-1.9112316e-02
1.0999699e+00,-1.8165839e-04,-6.3426682e-04,-4.2819026e-04,-8.0677561e-03,-1.8574295e-02,-7.9222660e-03,8.6164348e-04,5.3535855e-03,-1.8766643e-03,1.9850254e-02,1.6060236e-01,-8.4926976e-02
1.1099699e+00,6.8575123e-05,-2.3069981e-04,-9.8459589e-05,2.4997740e-02,4.0427776e-02,2.4934173e-02,-5.1004833e-04,2.3328953e-03,2.0174549e-04,-1.3716931e-01,-3.0206931e-01,2.0784118e-01
1.1199698e+00,5.7420522e-05,-2.8674154e-04,-9.5184178e-05,-1.1125841e-03,-5.6075279e-03,-1.1014145e-03,-4.7475159e-04,2.5440684e-03,1.9391528e-04,3.5296773e-03,2.1117331e-02,-7.8302147e-04
1.1299698e+00,-1.4603193e-04,-6.3907840e-04,-3.5092092e-04,-2.0400357e-02,-3.5327216e-02,-2.0126794e-02,7.4743625e-04,5.3760687e-03,-1.4147429e-03,1.2221890e-01,2.8320030e-01,-1.6086597e-01
1.1399698e+00,-1.5642278e-04,-5.7928021e-04,-3.5111532e-04,-1.0377982e-03,5.9750261e-03,-1.0675854e-03,4.5620750e-04,5.0084909e-03,-1.3876772e-03,-2.9122903e-02,-3.6757818e-02,2.7065664e-03
1.1499698e+00,-3.2192077e-04,-8.5070521e-04,-5.5888946e-04,-1.6611876e-02,-2.7251634e-02,-1.6306546e-02,6.7858902e-04,7.3353045e-03,-2.6407684e-03,2.2238173e-02,2.3268158e-01,-1.2530923e-01
1.1599698e+00,-3.6383365e-04,-8.2998280e-04,-5.6858312e-04,-4.1995550e-03,2.0475197e-03,-4.1951693e-03,1.0474233e-03,6.9514177e-03,-2.4930630e-03,3.6883468e-02,-3.8388717e-02,1.4770555e-02
1.1699698e+00,-1.6280444e-04,-1.3294971e-04,-8.2406557e-05,2.0120468e-02,6.9714729e-02,2.0045954e-02,1.3969863e-04,7.0563890e-04,-3.8763150e-04,-9.0772557e-02,-6.2457848e-01,2.1054335e-01
1.1799698e+00,-1.1168244e-04,-4.8220926e-05,-6.1655962e-05,5.1120384e-03,8.4728900e-03,5.1123655e-03,-7.6695054e-05,-7.5940487e-05,-9.4502402e-05,-2.1639389e-02,-7.8158013e-02,2.9312937e-02
1.1899698e+00,-1.2947673e-04,-1.8484869e-04,-1.2452632e-04,-1.7846269e-03,-1.3663772e-02,-1.7666389e-03,3.0768025e-04,8.6338142e-04,-5.5792044e-04,3.8437567e-02,9.3932280e-02,-4.6341848e-02
1.1999698e+00,-1.4716763e-04,-2.5544267e-04,-1.4625286e-04,-1.7757432e-03,-7.0604662e-03,-1.7581584e-03,7.1248760e-04,1.3181474e-03,-9.1731379e-04,4.0480774e-02,4.5476641e-02,-3.5939369e-02
1.2099700e+00,-3.4276522e-04,-7.9445667e-04,-5.4785432e-04,-1.9681393e-02,-5.3985157e-02,-1.9199136e-02,1.5163315e-03,5.9254740e-03,-2.0663291e-03,8.0382553e-02,4.6072211e-01,-1.1489890e-01
1.2199545e+00,-1.6837988e-04,-5.2224629e-04,-2.7862232e-04,1.7503451e-02,2.7322628e-02,1.7334563e-02,8.9518973e-04,4.3096759e-03,-7.6950737e-04,-6.2210648e-02,-1.6183075e-01,1.2988358e-01
1.2299545e+00,-4.3984863e-05,-2.3221831e-04,-1.8304858e-04,1.2460806e-02,2.9021194e-02,1.2375199e-02,7.7728199e-04,2.2602901e-03,1.0028430e-04,-1.1790785e-02,-2.0493877e-01,8.6979250e-02
1.2399545e+00,-1.2782879e-04,-3.2656113e-04,-2.7675101e-04,-8.3978471e-03,-9.4523950e-03,-8.3504844e-03,8.9372497e-04,3.0604374e-03,-5.9873562e-04,1.1644309e-02,8.0014805e-02,-6.9902059e-02
1.2499545e+00,-2.9741475e-04,-5.8389456e-04,-4.8031428e-04,-1.7020965e-02,-2.5789925e-02,-1.6809574e-02,1.2840086e-03,4.6447382e-03,-1.7306815e-03,3.9028395e-02,1.5843023e-01,-1.1319469e-01
1.2599545e+00,-1.7819699e-04,-4.6964130e-04,-3.3208085e-04,1.1947611e-02,1.1462157e-02,1.1860434e-02,9.2416178e-04,4.0260394e-03,-1.2816552e-03,-3.5984712e-02,-6.1869942e-02,4.4902667e-02
1.2699544e+00,-3.2889282e-04,-8.4690802e-04,-5.2590729e-04,-1.5156593e-02,-3.7801234e-02,-1.4793054e-02,1.3325507e-03,6.3462192e-03,-2.4407424e-03,4.0838934e-02,2.3201821e-01,-1.1590882e-01
1.2799544e+00,-2.3289951e-04,-7.3933881e-04,-4.6611627e-04,9.6308817e-03,1.0805297e-02,9.5130396e-03,9.4799531e-04,6.0206310e-03,-2.2264175e-03,-3.8455578e-02,-3.2558854e-02,2.1432503e-02
1.2899544e+00,-2.1705222e-04,-4.9132773e-04,-3.0496061e-04,1.5966867e-03,2.4805944e-02,1.4948520e-03,3.5849528e-04,3.4991301e-03,-1.9361589e-03,-5.8950059e-02,-2.5215033e-01,2.9025895e-02
1.2999544e+00,-1.4973554e-04,-3.5232364e-04,-1.9509780e-04,6.7450330e-03,1.3913315e-02,6.6915492e-03,3.8596491e-04,2.3095638e-03,-1.1881880e-03,2.7469653e-03,-1.1895674e-01,7.4797161e-02
1.3099544e+00,-1.9581650e-04,-4.2365063e-04,-2.2126299e-04,-4.6189783e-03,-7.1410455e-03,-4.5842314e-03,6.8955402e-04,2.5078087e-03,-1.2943849e-03,3.0358941e-02,1.9824508e-02,-1.0619707e-02
1.3199544e+00,-1.7358871e-04,-3.5354665e-04,-1.8682947e-04,2.2298862e-03,7.0129134e-03,2.2076984e-03,6.9673022e-04,1.8334774e-03,-9.9982135e-04,7.1762066e-04,-6.7433196e-02,2.9456386e-02
1.3299544e+00,-2.9424165e-04,-7.6070491e-04,-5.0141841e-04,-1.2132813e-02,-4.0768942e-02,-1.1815796e-02,1.0687228e-03,5.5325579e-03,-1.9912098e-03,3.7199297e-02,3.6990840e-01,-9.9138943e-02
1.3399544e+00,-3.5961611e-04,-8.0038257e-04,-5.0922380e-04,-6.5557122e-03,-3.9989382e-03,-6.5000695e-03,1.1568481e-03,5.9480141e-03,-2.0938408e-03,8.8125300e-03,4.1545655e-02,-1.0263103e-02
1.3499544e+00,-2.2016825e-04,-4.5888419e-04,-3.0415351e-04,1.3999702e-02,3.4182159e-02,1.3810028e-02,1.2023376e-03,3.5384078e-03,-9.9392767e-04,4.5489559e-03,-2.4096085e-01,1.0999142e-01
1.3599544e+00,-2.1899122e-04,-3.4277676e-04,-2.8867507e-04,1.3120667e-04,1.1610875e-02,8.7678234e-05,1.1553863e-03,2.5773990e-03,-7.5589288e-04,-4.6951358e-03,-9.6100976e-02,2.3803501e-02
1.3699543e+00,-3.4144146e-04,-6.3794578e-04,-4.2482212e-04,-1.2293820e-02,-2.9562108e-02,-1.2086139e-02,1.0642651e-03,4.7895410e-03,-1.4201293e-03,-9.1121203e-03,2.2121441e-01,-6.6423710e-02
1.3799543e+00,-3.6074490e-04,-7.0301550e-04,-4.9826675e-04,-1.9405147e-03,-6.5150192e-03,-1.8926589e-03,1.0557768e-03,5.2795246e-03,-1.7109687e-03,-8.4883660e-04,4.8998406e-02,-2.9083967e-02
1.3899543e+00,-3.4479839e-04,-7.0886890e-04,-4.8869740e-04,1.5964733e-03,-5.7926293e-04,1.5950515e-03,1.4133793e-03,5.2277752e-03,-1.6624785e-03,3.5760287e-02,-5.1749527e-03,4.8490281e-03
1.3999543e+00,-2.9856691e-04,-7.0179494e-04,-4.4957375e-04,4.6314478e-03,7.2479370e-04,4.6121417e-03,1.4303708e-03,5.2039272e-03,-1.5777259e-03,1.6991537e-03,-2.3847967e-03,8.4752638e-03
1.4099543e+00,-2.3738304e-04,-6.3446305e-04,-3.6424773e-04,6.1330923e-03,6.7577968e-03,6.0764086e-03,9.2197284e-04,4.9638223e-03,-1.3892811e-03,-5.0839847e-02,-2.4010519e-02,1.8844507e-02
1.4199543e+00,-2.6528461e-04,-7.7425126e-04,-4.1849747e-04,-2.8060449e-03,-1.3993827e-02,-2.6975428e-03,7.5124206e-04,6.2352911e-03,-1.9315427e-03,-1.7073095e-02,1.2714700e-01,-5.4226215e-02
1.4299543e+00,-3.2108213e-04,-8.8275300e-04,-5.3058823e-04,-5.6080112e-03,-1.0878796e-02,-5.4950776e-03,1.3912961e-03,6.5787948e-03,-2.3618999e-03,6.4005470e-02,3.4350411e-02,-4.3035757e-02
1.4399543e+00,-2.9546949e-06,-1.1102787e-03,-1.1667134e-04,3.1764201e-02,-2.2612591e-02,3.1960785e-02,2.6336711e-03,7.0168022e-03,-3.6029111e-04,1.2423762e-01,4.3800774e-02,2.0016107e-01
1.4499543e+00,-1.2969359e-04,-1.4393586e-03,-2.1059923e-04,-1.2773927e-02,-3.2991221e-02,-1.2353137e-02,2.5847009e-03,9.2804135e-03,-1.1850235e-03,-4.8970245e-03,2.2636135e-01,-8.2473319e-02
1.4599545e+00,-2.2929484e-04,-1.6826843e-03,-3.5214531e-04,-1.0040483e-02,-2.4416610e-02,-9.6676693e-03,2.4896364e-03,1.1165937e-02,-2.0140483e-03,-9.5062395e-03,1.8854806e-01,-8.2900581e-02
1.4699545e+00,-3.7302133e-04,-9.5526621e-04,-5.9694799e-04,-1.4305729e-02,7.2658609e-02,-1.4852640e-02,1.4504209e-03,7.1293855e-03,-2.6883776e-03,-1.0392164e-01,-4.0365557e-01,-6.7432991e-02
1.4799545e+00,-2.6022245e-04,-7.1488417e-04,-4.6554253e-04,1.1332111e-02,2.4081051e-02,1.1135297e-02,1.3008888e-03,5.1368771e-03,-1.8590523e-03,-1.4953232e-02,-1.9925103e-01,8.2932603e-02
1.4899545e+00,-1.3160399e-04,-2.2633859e-04,-1.0363473e-04,1.2892187e-02,4.8857898e-02,1.2818911e-02,4.6825744e-04,7.2620989e-04,-5.7959144e-04,-8.3263212e-02,-4.4106714e-01,1.2794621e-01
1.4999545e+00,-1.9351222e-04,-3.2596226e-04,-1.5698494e-04,-6.2014523e-03,-9.9683743e-03,-6.1705083e-03,5.8532066e-04,1.5575723e-03,-7.7455750e-04,1.1706333e-02,8.3136318e-02,-1.9496625e-02
1.5099545e+00,-1.6500663e-04,-2.3821237e-04,-1.1331932e-04,2.8577455e-03,8.7752863e-03,2.8424689e-03,6.5461072e-04,7.5768834e-04,-5.0550694e-04,6.9290123e-03,-7.9988471e-02,2.6905082e-02
1.5199544e+00,-2.4655452e-04,-5.3560751e-04,-3.8216490e-04,-8.1955589e-03,-2.9759163e-02,-8.0415722e-03,1.0520897e-03,3.4862657e-03,-1.1629291e-03,3.9747933e-02,2.7285799e-01,-6.5742277e-02
1.5299544e+00,-3.3910687e-04,-6.4893562e-04,-4.2646591e-04,-9.2800849e-03,-1.1366166e-02,-9.1892447e-03,1.1210007e-03,4.7445950e-03,-1.3128274e-03,6.8911096e-03,1.2583305e-01,-1.4989844e-02
1.5399544e+00,-2.0314180e-04,-3.4510402e-04,-2.2550866e-04,1.3629893e-02,3.0410970e-02,1.3500659e-02,9.2142383e-04,2.9767201e-03,-3.9597025e-04,-1.9957705e-02,-1.7678766e-01,9.1685800e-02
1.5499544e+00,-2.8736133e-04,-4.4758266e-04,-3.2953304e-04,-8.4432487e-03,-1.0267086e-02,-8.3771268e-03,1.3658309e-03,3.6595415e-03,-8.6702721e-04,4.4440745e-02,6.8282205e-02,-4.7105741e-02
1.5599544e+00,-2.2024149e-04,-3.7051452e-04,-3.2130004e-04,6.7265095e-03,7.7187222e-03,6.6837201e-03,1.1649300e-03,2.9462284e-03,-8.2662462e-04,-2.0090108e-02,-7.1331376e-02,4.0402627e-03
1.5699544e+00,-3.3180548e-04,-6.4013095e-04,-4.6519654e-04,-1.1203707e-02,-2.7002941e-02,-1.1008207e-02,1.0666896e-03,4.8034258e-03,-1.6636108e-03,-9.8240454e-03,1.8571992e-01,-8.3698694e-02
1.5799544e+00,-2.8018814e-04,-6.2791808e-04,-4.1346783e-04,5.1709906e-03,1.2387424e-03,5.1483019e-03,1.1418560e-03,4.5328647e-03,-1.5240289e-03,7.5166432e-03,-2.7056142e-02,1.3958195e-02
1.5899544e+00,-2.5768215e-04,-7.9300006e-04,-4.7468326e-04,2.2300979e-03,-1.6498453e-02,2.3407835e-03,1.5249091e-03,5.7444818e-03,-2.0785351e-03,3.8305350e-02,1.2116182e-01,-5.5450668e-02
1.5999544e+00,-4.6848128e-05,-2.1365708e-03,-1.5862282e-04,2.0548132e-02,-1.3416868e-01,2.2746853e-02,4.1414530e-03,1.2539939e-02,-1.0118567e-03,2.6165464e-01,6.7954637e-01,1.0666794e-01
1.6099544e+00,-8.5887741e-05,-1.7126809e-03,-3.7828468e-04,-3.8055189e-03,4.2351487e-02,-4.3796523e-03,2.5138781e-03,1.1412446e-02,-2.0838197e-03,-1.6275765e-01,-1.1274938e-01,-1.0719640e-01
1.6199543e+00,2.2032558e-05,-1.3027647e-03,-1.1524774e-04,1.0894453e-02,4.1050374e-02,1.0460887e-02,2.3547920e-03,7.9296055e-03,-5.4830758e-04,-1.5908623e-02,-3.4828441e-01,1.5355136e-01
1.6299543e+00,-9.2276319e-05,-1.4300707e-03,-2.0625194e-04,-1.1476030e-02,-1.2798657e-02,-1.1309043e-02,2.7119558e-03,8.7193569e-03,-9.3202906e-04,3.5716413e-02,7.8975213e-02,-3.8372184e-02
1.6399543e+00,-4.6194970e-04,-1.1178714e-03,-7.3459800e-04,-3.7052513e-02,3.0964115e-02,-3.7097091e-02,1.4802727e-03,8.4004123e-03,-3.5606926e-03,-1.2316843e-01,-3.1894487e-02,-2.6286660e-01
1.6499543e+00,-4.6329060e-04,-1.0765146e-03,-6.9990027e-04,-1.2923237e-04,4.1346350e-03,-1.6699393e-04,1.2847489e-03,8.0626468e-03,-3.3971471e-03,-1.9552399e-02,-3.3776585e-02,1.6354564e-02
1.6599543e+00,-3.2083174e-04,-6.0273190e-04,-4.2524603e-04,1.4325593e-02,4.7418469e-02,1.4030769e-02,1.2703020e-03,4.1254264e-03,-1.3711590e-03,-1.4446893e-03,-3.9372241e-01,2.0259900e-01
1.6699543e+00,-2.2343309e-04,-3.6837557e-04,-2.5628143e-04,9.7649373e-03,2.3454828e-02,9.6683636e-03,9.1466917e-04,2.8954010e-03,-3.7287082e-04,-3.5563317e-02,-1.2300266e-01,9.9828911e-02
1.6799543e+00,-3.2400219e-04,-6.0875368e-04,-3.8427184e-04,-1.0091570e-02,-2.4077457e-02,-9.9265791e-03,8.9033287e-04,4.8659576e-03,-1.3186467e-03,-2.4336332e-03,1.9705585e-01,-9.4577678e-02
1.6899543e+00,-4.7296128e-04,-9.5839895e-04,-6.2553366e-04,-1.4981367e-02,-3.5054153e-02,-1.4596662e-02,1.3816774e-03,7.4830151e-03,-2.4969846e-03,4.9134503e-02,2.6170600e-01,-1.1783390e-01
1.6999543e+00,-3.8216475e-04,-7.5809218e-04,-5.2947393e-04,9.1281505e-03,2.0066150e-02,8.9518619e-03,1.5568408e-03,5.5082279e-03,-1.9088270e-03,1.7516358e-02,-1.9747891e-01,5.8815813e-02
1.7099545e+00,-2.3814643e-04,-4.9995428e-04,-3.5166681e-04,1.4448097e-02,2.5841418e-02,1.4303893e-02,1.3008585e-03,3.2744364e-03,-9.0503498e-04,-2.5597647e-02,-2.2337404e-01,1.0037691e-01
1.7199545e+00,-2.4425928e-04,-6.4735283e-04,-3.8006365e-04,-6.2683727e-04,-1.4741918e-02,-5.4221220e-04,1.0024796e-03,4.6319334e-03,-1.2700241e-03,-2.9837923e-02,1.3574984e-01,-3.6498944e-02
1.7299545e+00,-2.2274780e-04,-6.9048204e-04,-3.6910714e-04,2.1507161e-03,-4.3036702e-03,2.1700367e-03,8.7966148e-04,5.1627717e-03,-1.5637502e-03,-1.2281820e-02,5.3083876e-02,-2.9372642e-02
1.7399545e+00,-2.0064171e-04,-6.3653662e-04,-3.7826036e-04,2.2210408e-03,5.4015291e-03,2.1829356e-03,1.3306985e-03,4.5225307e-03,-1.4728861e-03,4.5103743e-02,-6.4024155e-02,9.0864171e-03
1.7499545e+00,-1.3630989e-04,-4.7001588e-04,-4.0013917e-04,6.4639501e-03,1.6666194e-02,6.3654726e-03,1.3450145e-03,3.5608126e-03,-1.3020166e-03,1.4316046e-03,-9.6171908e-02,1.7086968e-02
1.7599292e+00,9.9619875e-05,-1.0930090e-03,-8.6757251e-05,2.3512093e-02,-6.2345474e-02,2.4083913e-02,2.3168242e-03,6.9710729e-03,-1.7264511e-04,9.7427280e-02,3.4189040e-01,1.1322340e-01
1.7699292e+00,-5.3281093e-05,-1.4890642e-03,-1.9232256e-04,-1.5397727e-02,-3.9717982e-02,-1.4885139e-02,2.2319494e-03,9.7258474e-03,-1.2601578e-03,-8.4874799e-03,2.7547771e-01,-1.0875137e-01
1.7799292e+00,-8.9684801e-05,-1.3817087e-03,-1.8361390e-04,-3.6160899e-03,1.0712987e-02,-3.7299804e-03,2.5183370e-03,8.6076426e-03,-7.5925223e-04,2.8638788e-02,-1.1182058e-01,5.0090606e-02
1.7899292e+00,-4.3207344e-04,-1.0058439e-03,-6.7085131e-04,-3.4283044e-02,3.7388890e-02,-3.4410667e-02,1.5581183e-03,7.3213039e-03,-3.0055687e-03,-9.6021965e-02,-1.2863399e-01,-2.2463186e-01
1.7999291e+00,-3.0224871e-04,-5.5800213e-04,-2.9448714e-04,1.3046425e-02,4.4814587e-02,1.2812498e-02,9.1606273e-04,3.2807204e-03,-1.7670063e-03,-6.4205620e-02,-4.0405874e-01,1.2385636e-01
1.8099291e+00,-2.1031024e-04,-2.8840603e-04,-1.1893981e-04,9.2129940e-03,2.6966690e-02,9.1539243e-03,4.5380825e-04,1.2244415e-03,-7.5130250e-04,-4.6225492e-02,-2.0562809e-01,1.0157047e-01
1.8199291e+00,-1.8626951e-04,-1.7089428e-04,-8.1331709e-05,2.4096686e-03,1.1750755e-02,2.4005821e-03,4.3200487e-04,2.5328162e-04,-2.1483940e-04,-2.1803397e-03,-9.7116081e-02,5.3646362e-02
1.8299291e+00,-2.6983614e-04,-5.9271278e-04,-3.9638756e-04,-8.4097943e-03,-4.2209217e-02,-8.1631571e-03,1.0254279e-03,4.3510711e-03,-1.1822018e-03,5.9342356e-02,4.0977934e-01,-9.6736329e-02
1.8399291e+00,-2.7202187e-04,-5.8292215e-04,-4.1794822e-04,-2.1787134e-04,9.7833848e-04,-2.2248977e-04,9.9293880e-04,4.2763669e-03,-1.2370946e-03,-3.2489095e-03,-7.4704305e-03,-5.4892868e-03
1.8499291e+00,-3.2833123e-04,-6.2972191e-04,-4.4923034e-04,-5.6444655e-03,-4.6983783e-03,-5.6020071e-03,1.2670058e-03,4.5496872e-03,-1.3503278e-03,2.7406726e-02,2.7332058e-02,-1.1323332e-02
1.8599291e+00,-7.8960824e-05,-1.8455304e-04,-1.4256799e-04,2.4968441e-02,4.4535734e-02,2.4872007e-02,8.9305323e-04,1.6497245e-03,3.3557333e-04,-3.7395293e-02,-2.8999655e-01,1.6859027e-01
1.8699291e+00,-1.2216349e-04,-2.9804200e-04,-1.9664849e-04,-4.3299399e-03,-1.1355429e-02,-4.2933697e-03,8.0163017e-04,2.3193789e-03,-1.3271470e-04,-9.1423146e-03,6.6965506e-02,-4.6828847e-02
1.8799291e+00,-1.0210533e-04,-2.5909279e-04,-2.2960514e-04,2.0094099e-03,3.8970251e-03,1.9981273e-03,7.6654807e-04,1.8179107e-03,-3.0299588e-04,-3.5082128e-03,-5.0146865e-02,-1.7028134e-02
1.8899291e+00,-1.7655253e-04,-4.3109298e-04,-3.5630168e-04,-7.4732944e-03,-1.7214023e-02,-7.3835236e-03,1.1599710e-03,3.0547201e-03,-1.1586527e-03,3.9342328e-02,1.2368105e-01,-8.5565759e-02
1.8999290e+00,-2.9544264e-04,-8.2978411e-04,-4.6290213e-04,-1.1976740e-02,-3.9921217e-02,-1.1623296e-02,1.5739359e-03,6.0312140e-03,-2.1033871e-03,4.1396536e-02,2.9764968e-01,-9.4473534e-02
1.9099290e+00,-2.1423785e-04,-7.0136478e-04,-3.5585373e-04,8.1481074e-03,1.2874510e-02,8.0408638e-03,1.0792155e-03,5.1198473e-03,-1.6966818e-03,-4.9472088e-02,-9.1136757e-02,4.0670566e-02
1.9199290e+00,-2.3022977e-04,-7.4599906e-04,-4.5947688e-04,-1.6065612e-03,-4.4706059e-03,-1.5715292e-03,9.6529995e-04,5.5056214e-03,-1.9154723e-03,-1.1391570e-02,3.8577438e-02,-2.1879066e-02
1.9299290e+00,-4.7992918e-05,-2.0424765e-03,-1.2470127e-04,1.7718055e-02,-1.2950288e-01,1.9693929e-02,3.9572643e-03,1.1399857e-02,-4.1410175e-04,2.9919672e-01,5.8942413e-01,1.5013720e-01
1.9399290e+00,-2.3482859e-04,-1.7152103e-03,-4.4865680e-04,-1.8621630e-02,3.2580534e-02,-1.8998158e-02,3.0598939e-03,1.0792291e-02,-2.0505477e-03,-8.9737128e-02,-6.0756653e-02,-1.6364476e-01
1.9499290e+00,-1.0127117e-05,-2.8788171e-04,-1.0468094e-04,2.2403311e-02,1.4278287e-01,2.2218658e-02,-4.0108953e-04,1.8288299e-03,4.2743984e-04,-3.4609867e-01,-8.9634697e-01,2.4779899e-01
1.9599292e+00,-3.0812538e-04,-6.1960287e-04,-3.9722909e-04,-2.9867039e-02,-3.3278980e-02,-2.9610578e-02,8.3335299e-04,4.4624960e-03,-1.3520297e-03,1.2344143e-01,2.6336058e-01,-1.7794288e-01
1.9699292e+00,-2.2535063e-04,-4.0798094e-04,-2.7132941e-04,8.2938539e-03,2.1179653e-02,8.2162634e-03,5.7835618e-04,2.6963038e-03,-4.9952646e-04,-2.5499705e-02,-1.7661938e-01,8.5250409e-02
1.9799292e+00,-2.8209788e-04,-5.3211861e-04,-3.4775274e-04,-5.6926702e-03,-1.2429230e-02,-5.6227027e-03,9.5309263e-04,3.6958046e-03,-1.0774397e-03,3.7473681e-02,9.9950178e-02,-5.7791375e-02
1.9899292e+00,-3.9155508e-04,-8.4986523e-04,-5.4867583e-04,-1.1016778e-02,-3.1825338e-02,-1.0725091e-02,1.4665191e-03,6.1656887e-03,-2.2372310e-03,5.1342695e-02,2.4698864e-01,-1.1597924e-01
1.9999292e+00,-3.4137872e-04,-7.0907018e-04,-4.5984346e-04,5.0448871e-03,1.4098677e-02,4.9358608e-03,1.3258959e-03,5.1933345e-03,-1.7118192e-03,-1.4062333e-02,-9.7235509e-02,5.2541229e-02
2.0099292e+00,-1.6761921e-04,-4.2329240e-04,-2.3753405e-04,1.7411169e-02,2.8610252e-02,1.7287109e-02,9.7569090e-04,2.8517107e-03,-4.2171349e-04,-3.5020533e-02,-2.3416261e-01,1.2901069e-01
2.0199292e+00,-1.7374653e-04,-4.5422064e-04,-3.2580703e-04,-6.1610799e-04,-3.0940711e-03,-6.0298882e-04,9.7725747e-04,3.0352527e-03,-5.7670403e-04,1.5665710e-04,1.8354214e-02,-1.5499068e-02
2.0299292e+00,-2.5857770e-04,-6.2770476e-04,-4.1221816e-04,-8.5133674e-03,-1.7381865e-02,-8.3838027e-03,1.0387076e-03,5.0143728e-03,-1.4422799e-03,6.1450181e-03,1.9791220e-01,-8.6557669e-02
2.0399292e+00,-3.1006944e-04,-7.0898560e-04,-4.4057425e-04,-5.1682745e-03,-8.1514892e-03,-5.0927518e-03,1.1561235e-03,5.7379671e-03,-1.8859742e-03,1.1741603e-02,7.2359505e-02,-4.4369472e-02
2.0499291e+00,-2.0944618e-04,-5.3997881e-04,-2.8063598e-04,1.0092635e-02,1.6927704e-02,9.9863020e-03,1.1858492e-03,3.8879025e-03,-1.0206542e-03,2.9725673e-03,-1.8500664e-01,8.6532080e-02
2.0599291e+00,1.0991534e-05,-1.2703685e-04,-1.0095664e-04,2.2065483e-02,4.1297021e-02,2.2016858e-02,7.2427111e-04,8.5145109e-04,3.7246423e-04,-4.6157848e-02,-3.0364543e-01,1.3931198e-01
2.0699291e+00,-1.0858518e-04,-3.1371694e-04,-2.6220279e-04,-1.1976181e-02,-1.8687015e-02,-1.1909415e-02,6.6081223e-04,2.2542037e-03,-5.1569515e-04,-6.3458946e-03,1.4027539e-01,-8.8816023e-02
2.0799291e+00,-2.0826013e-04,-4.7639645e-04,-3.7309461e-04,-9.9946157e-03,-1.6296462e-02,-9.8935329e-03,9.1164770e-04,3.7875496e-03,-1.2332841e-03,2.5083571e-02,1.5333473e-01,-7.1758960e-02
2.0899291e+00,-3.3685559e-04,-9.1662611e-04,-5.2048215e-04,-1.2952519e-02,-4.4090190e-02,-1.2531925e-02,1.4074771e-03,6.7289752e-03,-2.4145709e-03,4.9582986e-02,2.9414285e-01,-1.1812879e-01
2.0999291e+00,-2.5408966e-04,-8.2134487e-04,-4.8306687e-04,8.3058251e-03,9.5657152e-03,8.2036533e-03,1.3466008e-03,5.9203150e-03,-1.9836269e-03,-6.0876338e-03,-8.0866103e-02,4.3094439e-02
2.1099291e+00,-1.3357414e-04,-2.8035908e-04,-1.7536514e-04,1.2083320e-02,5.4104645e-02,1.1992619e-02,4.0993486e-04,9.1198407e-04,-7.9529901e-04,-9.3666684e-02,-5.0083357e-01,1.1883290e-01
2.1199291e+00,-2.4359445e-04,-4.5415383e-04,-2.7103001e-04,-1.1023834e-02,-1.7399069e-02,-1.0949157e-02,4.4700583e-04,2.2333643e-03,-1.2755868e-03,3.7071002e-03,1.3213815e-01,-4.8028822e-02
2.1299291e+00,-2.1215024e-04,-3.4904296e-04,-1.5848773e-04,3.1538627e-03,1.0514726e-02,3.1227654e-03,5.9131537e-04,1.7528019e-03,-1.0257355e-03,1.4430968e-02,-4.8056287e-02,2.4985148e-02
2.1399291e+00,-2.6753821e-04,-7.3258678e-04,-3.9875420e-04,-5.6038944e-03,-3.8374347e-02,-5.3314107e-03,1.4512463e-03,5.1575283e-03,-1.7050633e-03,8.5993176e-02,3.4047296e-01,-6.7932846e-02
2.1499290e+00,-3.0138019e-04,-6.7598291e-04,-4.1956889e-04,-3.3815718e-03,5.6490869e-03,-3.4056518e-03,1.4395575e-03,4.7672503e-03,-1.6332514e-03,-1.1688809e-03,-3.9027839e-02,7.1812035e-03
2.1599290e+00,-1.5870040e-04,-3.1538204e-04,-2.5845268e-04,1.4304628e-02,3.6082019e-02,1.4175652e-02,8.6178732e-04,2.4057089e-03,-3.9006929e-04,-5.7777074e-02,-2.3615437e-01,1.2431833e-01
2.1699290e+00,-1.4004763e-04,-2.1510388e-04,-2.0046749e-04,1.8721556e-03,1.0029201e-02,1.8509365e-03,6.9631349e-04,1.4407392e-03,5.6308704e-05,-1.6547399e-02,-9.6497059e-02,4.4637842e-02
2.1799290e+00,-1.3675353e-04,-2.3049173e-04,-2.0767680e-04,3.2779310e-04,-1.5386112e-03,3.3183150e-04,1.0244926e-03,1.5471916e-03,1.2298507e-04,3.2817937e-02,1.0645247e-02,6.6676428e-03
2.1899290e+00,-1.4504227e-04,-2.2682753e-04,-2.4917194e-04,-8.2859265e-04,3.6570561e-04,-8.2947332e-04,1.0556859e-03,1.9161970e-03,-1.2604417e-04,3.1193392e-03,3.6900575e-02,-2.4902947e-02
2.1999290e+00,-3.1371233e-04,-6.4005093e-04,-4.3015113e-04,-1.6936063e-02,-4.1383365e-02,-1.6646885e-02,1.1108875e-03,4.7624229e-03,-1.3732666e-03,5.5201591e-03,2.8462286e-01,-1.2472236e-01
2.2099292e+00,-1.4128616e-04,-1.7635102e-04,-7.3322997e-05,1.7263298e-02,4.6370726e-02,1.7216286e-02,3.6462875e-04,4.6936973e-04,-2.4181637e-04,-7.4624163e-02,-4.2929549e-01,1.1314243e-01
2.2199292e+00,-3.8679860e-05,-1.3445461e-04,-1.5734376e-05,1.0262416e-02,4.1867160e-03,1.0260059e-02,3.3269751e-04,4.7289690e-05,-3.7303865e-05,-3.1931274e-03,-4.2208044e-02,2.0451270e-02
2.2299292e+00,-1.1882012e-04,-2.3034366e-04,-9.9434179e-05,-8.0251030e-03,-9.5891868e-03,-8.0026218e-03,6.1037206e-04,6.4526114e-04,-6.5137136e-04,2.7767482e-02,5.9797202e-02,-6.1406808e-02
2.2399292e+00,-3.4220182e-04,-8.5960336e-04,-5.3503530e-04,-2.2475649e-02,-6.3035175e-02,-2.1888050e-02,1.3261987e-03,6.2856622e-03,-2.4214567e-03,7.1582731e-02,5.6404064e-01,-1.7700870e-01
2.2499292e+00,-4.2148305e-04,-9.9481707e-04,-6.2731658e-04,-7.9702869e-03,-1.3565859e-02,-7.8089910e-03,1.4879714e-03,7.1634452e-03,-2.7845363e-03,1.6177291e-02,8.7778389e-02,-3.6307994e-02
2.2599292e+00,-2.3530439e-04,-6.9336515e-04,-3.8879553e-04,1.8679699e-02,3.0216790e-02,1.8439087e-02,1.0621810e-03,4.9348816e-03,-1.6022398e-03,-4.2579087e-02,-2.2285657e-01,1.1822977e-01
2.2699292e+00,9.0522766e-05,-9.7125922e-04,1.0004127e-05,3.2511588e-02,-2.7659335e-02,3.2764023e-02,2.0628063e-03,6.0357546e-03,4.2239690e-04,1.0006263e-01,1.1008740e-01,2.0246386e-01
2.2799292e+00,-3.1253809e-04,-7.8782149e-04,-4.7142154e-04,-4.0367992e-02,1.8162879e-02,-4.0326132e-02,1.2615651e-03,5.7542618e-03,-2.1121402e-03,-8.0124195e-02,-2.8149308e-02,-2.5345395e-01
2.2899292e+00,-3.3250972e-04,-8.4300040e-04,-5.0381928e-04,-2.0092840e-03,-5.5271279e-03,-1.9591200e-03,1.3706608e-03,6.0602725e-03,-2.2846792e-03,1.0909582e-02,3.0601098e-02,-1.7253918e-02
2.2999291e+00,-2.2077950e-04,-6.1595077e-04,-3.7286658e-04,1.1213308e-02,2.2741344e-02,1.1058148e-02,1.0843982e-03,4.3652717e-03,-1.4027110e-03,-2.8626286e-02,-1.6950024e-01,8.8196900e-02
2.3099291e+00,-5.8699886e-05,3.1648600e-05,-3.5169855e-06,1.6202325e-02,6.4742404e-02,1.6283743e-02,-3.4842831e-05,-1.1176625e-03,2.0951432e-04,-1.1192421e-01,-5.4829395e-01,1.6122269e-01
2.3199291e+00,-7.9333676e-05,2.0732989e-05,-3.9661598e-05,-2.0636727e-03,-1.0894447e-03,-2.0642081e-03,4.3972329e-06,-1.0217086e-03,-1.3910237e-04,3.9240101e-03,9.5954050e-03,-3.4861702e-02
2.3299291e+00,1.5270375e-05,-4.4948990e-04,-2.7795118e-04,9.4347221e-03,-4.6993206e-02,9.6292951e-03,7.2745450e-04,3.7730320e-03,-9.0069722e-04,7.2305795e-02,4.7947452e-01,-7.6159557e-02
2.3399291e+00,1.2047552e-04,-6.2764360e-04,-3.9874477e-04,1.0514748e-02,-1.7769623e-02,1.0603369e-02,1.0560557e-03,5.3871778e-03,-1.2406266e-03,3.2860154e-02,1.6141473e-01,-3.3992973e-02
2.3499291e+00,2.0576452e-04,-8.1846991e-04,-5.3043880e-04,8.5163426e-03,-1.9033931e-02,8.6494753e-03,1.3438282e-03,7.0096982e-03,-1.5354640e-03,2.8777271e-02,1.6225220e-01,-2.9483768e-02
2.3599291e+00,5.8329638e-04,-4.2856330e-04,-1.7997815e-04,3.7766517e-02,3.9102784e-02,3.7623777e-02,8.5217819e-04,3.8270222e-03,5.2747318e-04,-4.9165043e-02,-3.1826791e-01,2.0629392e-01
2.3699291e+00,6.3913650e-04,-3.2108397e-04,-1.2371062e-04,5.5891980e-03,1.0759096e-02,5.5572927e-03,1.0094148e-03,3.0132293e-03,1.0139899e-03,1.5723672e-02,-8.1379363e-02,4.8651722e-02
2.3799291e+00,2.8593555e-04,-4.4088052e-04,-2.2821960e-04,-3.5346210e-02,-1.2082904e-02,-3.5258818e-02,9.1570607e-04,3.8429186e-03,-4.2836197e-04,-9.3708775e-03,8.2969004e-02,-1.4423533e-01
2.3899291e+00,-2.3455775e-04,-9.3393147e-04,-6.5631663e-04,-5.2267805e-02,-4.9572471e-02,-5.1574408e-02,1.4817409e-03,6.6585366e-03,-2.7979115e-03,5.6603539e-02,2.8156208e-01,-2.3695518e-01
2.3999290e+00,-2.8425526e-04,-7.6846117e-04,-4.0331656e-04,-4.9554229e-03,1.6526417e-02,-5.0520288e-03,1.2360938e-03,5.3435111e-03,-1.2332170e-03,-2.4564737e-02,-1.3150268e-01,1.5646960e-01
2.4099290e+00,-4.9870204e-04,-7.2315460e-04,-4.0881988e-04,-2.1453120e-02,4.4513491e-03,-2.1452884e-02,1.2810652e-03,4.9800630e-03,-6.6439590e-04,4.4971426e-03,-3.6344840e-02,5.6882164e-02
2.4199290e+00,-7.0038026e-04,-2.3552439e-03,-1.1692200e-04,-2.0859451e-02,-1.6338548e-01,-1.7909680e-02,4.2386908e-03,1.3831996e-02,2.4937779e-08,2.9576284e-01,8.8519410e-01,6.6442147e-02
2.4299290e+00,-7.3112267e-04,-1.3369972e-03,3.1441287e-04,-2.7619110e-03,1.0181036e-01,-3.7691956e-03,2.9769357e-03,6.7440059e-03,2.9864609e-03,-1.2617562e-01,-7.0879965e-01,2.9864389e-01
2.4399290e+00,-1.7402765e-03,-1.5665603e-03,4.4956127e-04,-1.0090951e-01,-2.3130581e-02,-1.0088165e-01,4.3368386e-03,6.0635540e-03,1.0357804e-03,1.3599042e-01,-6.8045251e-02,-1.9506824e-01
2.4499290e+00,-2.3517273e-03,-1.5632969e-03,-3.8640967e-05,-6.1162416e-02,3.0353383e-05,-6.1128714e-02,3.5726770e-03,8.4156242e-03,-3.0810783e-04,-7.6416232e-02,2.3520724e-01,-1.3438895e-01
2.4599292e+00,-2.7898312e-03,-1.6047718e-03,-1.5250033e-04,-4.3858497e-02,-4.4135906e-03,-4.3734181e-02,3.4027005e-03,9.4913688e-03,-8.0491363e-04,-1.6997265e-02,1.0757200e-01,-4.9679442e-02
2.4699292e+00,-3.3444994e-03,-1.4483096e-03,-6.8943593e-04,-5.5581110e-02,1.5182811e-02,-5.5481311e-02,2.7279006e-03,1.1095999e-02,-2.8367279e-03,-6.7480051e-02,1.6046319e-01,-2.0318162e-01
2.4799292e+00,-3.6691142e-03,-1.2723374e-03,-7.1616078e-04,-3.2482914e-02,1.7378057e-02,-3.2558041e-02,2.8047571e-03,9.5510151e-03,-2.1860561e-03,7.6856591e-03,-1.5449855e-01,6.5067238e-02
2.4899292e+00,-3.7963478e-03,-9.0134967e-04,-3.6466127e-04,-1.2574606e-02,3.7068206e-02,-1.2958271e-02,4.3544039e-03,6.6733300e-03,-1.0145754e-03,1.5496482e-01,-2.8776878e-01,1.1714818e-01
2.4999292e+00,-3.0737291e-03,1.2586789e-03,4.0191024e-04,7.2659297e-02,2.1497574e-01,7.4879630e-02,4.2516787e-03,-9.7265815e-03,7.1750496e-03,-1.0272525e-02,-1.6399927e+00,8.1896329e-01
2.5099292e+00,-3.8934574e-03,1.0131059e-03,4.4755285e-04,-8.1612990e-02,-2.3630696e-02,-8.2601988e-02,3.0994723e-03,-8.1502721e-03,5.3004226e-03,-1.1522076e-01,1.5763110e-01,-1.8746288e-01
2.5199292e+00,-4.7273446e-03,7.4409564e-04,4.5362355e-04,-8.3092033e-02,-2.6105498e-02,-8.3936091e-02,2.9880910e-03,-6.5147339e-03,4.5081548e-03,-1.1138139e-02,1.6355397e-01,-7.9226854e-02
2.5299292e+00,-6.0007524e-03,-4.7934718e-04,2.9748779e-04,-1.2774344e-01,-1.2192531e-01,-1.2733968e-01,3.8544756e-03,5.7033202e-04,5.3453512e-04,8.6638550e-02,7.0850727e-01,-3.9736235e-01
2.5399292e+00,-6.1666517e-03,-1.2992472e-03,5.8802662e-04,-1.7017948e-02,-8.1955891e-02,-1.6323198e-02,5.6942030e-03,3.7391877e-03,2.3235331e-03,1.8397291e-01,3.1688587e-01,1.7889996e-01
2.5499291e+00,-5.9019195e-03,-4.3231031e-04,9.8417171e-04,2.6724977e-02,8.6512432e-02,2.6811369e-02,4.7265524e-03,-2.0673400e-03,5.9401805e-03,-9.6765158e-02,-5.8065333e-01,3.6166509e-01
2.5599291e+00,-6.2106169e-03,-2.2004859e-05,9.3420586e-04,-3.0549631e-02,4.1241634e-02,-3.0906982e-02,3.0672758e-03,-3.7618084e-03,6.2694380e-03,-1.6592781e-01,-1.6944700e-01,3.2925778e-02
2.5699291e+00,-6.8020658e-03,2.0940549e-04,8.9650135e-04,-5.8705412e-02,2.3693018e-02,-5.9363906e-02,3.3122120e-03,-5.9929450e-03,6.1114468e-03,2.4493638e-02,-2.2311388e-01,-1.5799130e-02
2.5799291e+00,-7.8341371e-03,3.2994644e-04,1.1824986e-03,-1.0271142e-01,1.3430494e-02,-1.0353141e-01,4.4056946e-03,-8.8986152e-03,4.2706724e-03,1.0934837e-01,-2.9056730e-01,-1.8407761e-01
2.5899291e+00,-8.5431499e-03,1.1340836e-04,1.3165031e-03,-7.0672831e-02,-2.0587324e-02,-7.1445104e-02,5.8330667e-03,-9.1459933e-03,4.9750545e-03,1.4273734e-01,-2.4737828e-02,7.0438274e-02
2.5999291e+00,-9.8054675e-03,-1.8535961e-03,5.6533775e-04,-1.2770717e-01,-1.9629404e-01,-1.2537800e-01,7.6763651e-03,4.5159108e-03,2.4493835e-04,1.8433002e-01,1.3661917e+00,-4.7301207e-01
2.6099291e+00,-9.8574054e-03,-1.5433083e-03,7.7304837e-04,-4.9481650e-03,3.1056430e-02,-5.2679703e-03,7.4793253e-03,1.9761740e-03,2.5804410e-03,-1.9703998e-02,-2.5397392e-01,2.3355048e-01
2.6199291e+00,-9.5225630e-03,-7.1514799e-05,1.1752700e-03,3.4110961e-02,1.4678869e-01,3.4550231e-02,5.6521879e-03,-5.8376671e-03,6.0931696e-03,-1.8271391e-01,-7.8138485e-01,3.5127320e-01
2.6299291e+00,-1.0127524e-02,6.1627576e-04,9.9730749e-04,-5.9837525e-02,6.9665120e-02,-6.0136412e-02,4.5228438e-03,-1.0135631e-02,5.7192262e-03,-1.1293453e-01,-4.2979684e-01,-3.7394380e-02
2.6399291e+00,-1.0610214e-02,3.4418423e-04,1.1041909e-03,-4.8095384e-02,-2.6648156e-02,-4.8752943e-02,4.2350470e-03,-7.3241932e-03,5.9581938e-03,-2.8779705e-02,2.8114409e-01,2.3896785e-02
2.6499290e+00,-1.1527266e-02,-4.2767972e-05,1.0062013e-03,-9.1346469e-02,-3.7846291e-02,-9.2414798e-02,4.3287722e-03,-4.8919446e-03,5.7127378e-03,9.3725266e-03,2.4322509e-01,-2.4545617e-02
2.6599290e+00,-1.2650038e-02,-1.1494343e-03,9.4229379e-04,-1.1252971e-01,-1.1024119e-01,-1.1244321e-01,5.9026132e-03,2.1242971e-03,3.5465103e-03,1.5738425e-01,7.0162484e-01,-2.1662296e-01
2.6699290e+00,-1.3071955e-02,-1.0175373e-03,1.2052575e-03,-4.1920917e-02,1.3412386e-02,-4.2391024e-02,5.1976708e-03,-8.3902804e-05,4.7691652e-03,-7.0494305e-02,-2.2082020e-01,1.2226560e-01
2.6799290e+00,-1.3852322e-02,-1.8209977e-03,1.2560144e-03,-7.8039226e-02,-8.0238682e-02,-7.8144773e-02,5.4239185e-03,4.0482356e-03,5.5228444e-03,2.2624796e-02,4.1321423e-01,7.5367991e-02
2.6899290e+00,-1.4422473e-02,-1.6056856e-03,1.2956266e-03,-5.6619386e-02,2.1622366e-02,-5.7373971e-02,4.7946828e-03,3.1738191e-03,5.1066662e-03,-6.2923637e-02,-8.7441734e-02,-4.1617859e-02
2.6999290e+00,-1.4971684e-02,-1.2663493e-03,1.3771912e-03,-5.4481364e-02,3.4156550e-02,-5.5220148e-02,4.5124499e-03,4.4562690e-04,5.1954361e-03,-2.8223312e-02,-2.7281948e-01,8.8769953e-03
2.7099292e+00,-1.5648910e-02,-1.2234537e-03,1.8478474e-03,-6.7262626e-02,5.0060868e-03,-6.8127498e-02,6.1431111e-03,-4.4129938e-03,6.3411155e-03,1.6306238e-01,-4.8585095e-01,1.1456532e-01
2.7199292e+00,-1.6517812e-02,-2.5145087e-03,1.5342708e-03,-8.7374854e-02,-1.2878457e-01,-8.6880881e-02,7.5303372e-03,3.8667330e-03,5.5683863e-03,1.3872275e-01,8.2797347e-01,-7.7272994e-02
2.7299292e+00,-1.7662454e-02,-3.2661874e-03,1.2374049e-03,-1.1466248e-01,-7.5348391e-02,-1.1414681e-01,7.8756514e-03,9.4692798e-03,3.4033993e-03,3.4531453e-02,5.6025522e-01,-2.1649890e-01
2.7399292e+00,-1.8416118e-02,-3.2338799e-03,1.2320695e-03,-7.5065652e-02,3.1270116e-03,-7.5670456e-02,7.9412864e-03,9.2809272e-03,3.6129707e-03,6.5634979e-03,-1.8835276e-02,2.0957153e-02
2.7499292e+00,-1.9043894e-02,-1.9736714e-03,1.7883597e-03,-6.1673187e-02,1.2633432e-01,-6.3240897e-02,5.5288514e-03,5.0317363e-04,6.4589314e-03,-2.4124373e-01,-8.7777620e-01,2.8459635e-01
2.7599292e+00,-2.0114816e-02,-1.5476224e-03,1.8174997e-03,-1.0626567e-01,4.3078742e-02,-1.0772439e-01,3.5960728e-03,-8.2574526e-04,6.2624662e-03,-1.9327804e-01,-1.3289202e-01,-1.9646537e-02
2.7699292e+00,-2.1545407e-02,-1.7759436e-03,1.7271443e-03,-1.4244931e-01,-2.2612174e-02,-1.4370136e-01,3.6413205e-03,2.0950203e-03,4.8263684e-03,4.5247801e-03,2.9207683e-01,-1.4360992e-01
2.7799292e+00,-2.3164390e-02,-3.4319638e-03,1.3736156e-03,-1.6286302e-01,-1.6585454e-01,-1.6066806e-01,8.5882759e-03,1.0209074e-02,2.7861685e-03,4.9469600e-01,8.1140616e-01,-2.0402019e-01
2.7899292e+00,-2.4375691e-02,-4.1896201e-03,1.0355502e-03,-1.2155000e-01,-7.6652946e-02,-1.2014737e-01,8.9202792e-03,1.6318605e-02,2.0714119e-03,3.3200370e-02,6.1095364e-01,-7.1475731e-02
2.7999291e+00,-2.4813851e-02,-2.2913182e-03,1.9884835e-03,-4.2623007e-02,1.8990155e-01,-4.4675957e-02,5.0981988e-03,3.3757942e-03,5.1149945e-03,-3.8220841e-01,-1.2942823e+00,3.0435856e-01
2.8099291e+00,-2.5685488e-02,-1.6586659e-03,2.0107838e-03,-8.6290122e-02,6.3787306e-02,-8.7651410e-02,4.5990735e-03,-1.3890091e-03,6.6534395e-03,-4.9912574e-02,-4.7648079e-01,1.5384464e-01
2.8199291e+00,-2.7321149e-02,-2.6446509e-03,1.9582487e-03,-1.6329790e-01,-9.8157749e-02,-1.6409856e-01,6.2073337e-03,3.5085820e-03,5.3484734e-03,1.6082618e-01,4.8975958e-01,-1.3049673e-01
2.8299291e+00,-2.8504871e-02,-1.6657448e-03,2.1770900e-03,-1.1741204e-01,9.8855424e-02,-1.1852682e-01,4.5858322e-03,-3.5628001e-03,4.3000528e-03,-1.6215031e-01,-7.0713889e-01,-1.0484217e-01
2.8399291e+00,-2.9688236e-02,-2.5586504e-03,1.7102173e-03,-1.1853174e-01,-8.9053869e-02,-1.1831988e-01,5.9026045e-03,3.9096468e-03,2.7841078e-03,1.3167735e-01,7.4724540e-01,-1.5159464e-01
2.8499291e+00,-3.0938275e-02,-4.1414858e-03,1.5956278e-03,-1.2613453e-01,-1.5851197e-01,-1.2357081e-01,9.6381191e-03,1.1571013e-02,3.1083571e-03,3.7355182e-01,7.6613738e-01,3.2424968e-02
2.8599291e+00,-3.2153319e-02,-4.2082034e-03,1.8151370e-03,-1.2116881e-01,-6.6851076e-03,-1.2183871e-01,9.3289986e-03,9.4128618e-03,3.2270408e-03,-3.0912076e-02,-2.1581536e-01,1.1868377e-02
2.8699291e+00,-3.2813849e-02,-2.8634754e-03,2.2395002e-03,-6.4723779e-02,1.3488854e-01,-6.6519872e-02,6.9510181e-03,6.0582135e-04,5.9317928e-03,-2.3779828e-01,-8.8070489e-01,2.7047546e-01
2.8799291e+00,-3.4008315e-02,-3.2114970e-03,2.1232427e-03,-1.1916920e-01,-3.4224703e-02,-1.1988997e-01,7.0123319e-03,2.1759849e-03,4.3325807e-03,6.1313878e-03,1.5701650e-01,-1.5992137e-01
2.8899291e+00,-3.5337111e-02,-3.5899258e-03,2.6083665e-03,-1.3250817e-01,-3.6835180e-02,-1.3353227e-01,8.9417313e-03,1.3621704e-03,5.2884500e-03,1.9294012e-01,-8.1381521e-02,9.5587021e-02
2.8999290e+00,-3.6456169e-02,-3.9545438e-03,2.2956941e-03,-1.1170340e-01,-3.6008301e-02,-1.1225458e-01,8.9245920e-03,4.8656957e-03,4.6668568e-03,-1.7139269e-03,3.5035286e-01,-6.2159377e-02
2.9099290e+00,-3.7087003e-02,-3.2049031e-03,2.4432132e-03,-6.2057408e-02,7.5325623e-02,-6.3667844e-02,7.6666459e-03,1.8861020e-03,7.1000792e-03,-1.2579473e-01,-2.9795966e-01,2.4332247e-01
2.9199290e+00,-3.8854686e-02,-4.3534493e-03,2.5463687e-03,-1.7684628e-01,-1.1393179e-01,-1.7728722e-01,1.0714163e-02,5.5041989e-03,6.4431159e-03,3.0475204e-01,3.6181004e-01,-6.5696392e-02
2.9299290e+00,-4.0556380e-02,-4.9853595e-03,2.4635011e-03,-1.6994072e-01,-6.2549938e-02,-1.7063447e-01,1.1143411e-02,7.3685454e-03,5.4059297e-03,4.2924807e-02,1.8643482e-01,-1.0371872e-01
2.9399290e+00,-4.1525485e-02,-3.7863581e-03,2.6348120e-03,-9.5396768e-02,1.2048062e-01,-9.7689621e-02,8.3513521e-03,2.3041360e-03,5.2397603e-03,-2.7920616e-01,-5.0644142e-01,-1.6616961e-02
2.9499290e+00,-4.2800118e-02,-4.6202684e-03,2.3007624e-03,-1.2779578e-01,-8.3099630e-02,-1.2732099e-01,1.0181245e-02,7.9167234e-03,3.9938014e-03,1.8298948e-01,5.6125928e-01,-1.2459601e-01
2.9599292e+00,-4.3683284e-02,-4.3781716e-03,2.9035809e-03,-8.7484896e-02,2.4835050e-02,-8.8964144e-02,1.0338859e-02,3.2143747e-03,6.4860043e-03,1.5761048e-02,-4.7022411e-01,2.4921459e-01
2.9699292e+00,-4.4582175e-02,-4.0309172e-03,3.0140468e-03,-8.8775571e-02,3.5644912e-02,-9.0632876e-02,1.0184853e-02,-6.3372043e-05,8.3673189e-03,-1.5400666e-02,-3.2777498e-01,1.8813164e-01
2.9799292e+00,-4.6250045e-02,-4.9174945e-03,3.0287619e-03,-1.6628570e-01,-8.7065414e-02,-1.6812147e-01,1.1379220e-02,1.8502199e-03,8.9505704e-03,1.1943681e-01,1.9135938e-01,5.8325210e-02
2.9899292e+00,-4.8277984e-02,-6.0190794e-03,2.7083971e-03,-2.0291756e-01,-1.0911961e-01,-2.0323177e-01,1.2986125e-02,7.8746052e-03,6.3404190e-03,1.6069063e-01,6.0243910e-01,-2.6101539e-01
2.9999292e+00,-4.9607365e-02,-5.5783872e-03,2.9630477e-03,-1.3130277e-01,4.5329154e-02,-1.3413463e-01,1.3948688e-02,4.4023740e-03,7.5529833e-03,9.6256489e-02,-3.4722345e-01,1.2125654e-01
3.0099292e+00,-5.1470966e-02,-4.6948207e-03,3.3624751e-03,-1.8412743e-01,9.0611376e-02,-1.8749375e-01,1.0803263e-02,-1.3144886e-03,6.7784239e-03,-3.1454287e-01,-5.7168681e-01,-7.7456009e-02
3.0199292e+00,-5.3463389e-02,-4.9329389e-03,2.8514058e-03,-1.9831058e-01,-2.1719611e-02,-2.0040780e-01,1.0342992e-02,-1.5086860e-04,5.8426363e-03,-4.6027072e-02,1.1636211e-01,-9.3578852e-02
3.0299292e+00,-5.5817575e-02,-5.9515711e-03,2.3756488e-03,-2.3600779e-01,-1.0050474e-01,-2.3541306e-01,1.1894116e-02,6.1456916e-03,2.5705398e-03,1.5511253e-01,6.2965662e-01,-3.2720996e-01
3.0399292e+00,-5.7310352e-02,-7.2125128e-03,2.8039182e-03,-1.5062637e-01,-1.2536881e-01,-1.4853240e-01,1.5946847e-02,1.1197142e-02,4.2994724e-03,4.0527350e-01,5.0514554e-01,1.7289343e-01
3.0499291e+00,-5.8803962e-02,-5.7840613e-03,3.3828100e-03,-1.4647380e-01,1.4435939e-01,-1.5075832e-01,1.2093203e-02,1.8699574e-03,7.6638788e-03,-3.8536477e-01,-9.3271937e-01,3.3644096e-01
3.0599291e+00,-6.0846905e-02,-5.3373529e-03,3.2469531e-03,-2.0230852e-01,4.7478140e-02,-2.0563338e-01,1.1357904e-02,-2.3814200e-03,7.1479321e-03,-7.3530014e-02,-4.2513815e-01,-5.1594718e-02
3.0699291e+00,-6.3559883e-02,-7.2345835e-03,2.0732946e-03,-2.7356992e-01,-1.8911510e-01,-2.6943483e-01,1.3913607e-02,1.1772083e-02,1.2579552e-03,2.5557053e-01,1.4153516e+00,-5.8899825e-01
3.0799291e+00,-6.5097433e-02,-6.4330152e-03,2.7859978e-03,-1.5196697e-01,8.1759949e-02,-1.5468604e-01,1.3549221e-02,3.0589514e-03,4.4650065e-03,-3.6438660e-02,-8.7131395e-01,3.2070543e-01
3.0899291e+00,-6.6959667e-02,-6.1496652e-03,3.3568189e-03,-1.8455059e-01,3.0907499e-02,-1.8747553e-01,1.1935883e-02,-1.8762357e-03,7.0712228e-03,-1.6133390e-01,-4.9351918e-01,2.6062188e-01
3.0999291e+00,-6.9067743e-02,-6.1246564e-03,3.6775181e-03,-2.0929286e-01,6.3224961e-03,-2.1223259e-01,1.3113751e-02,-4.9820541e-03,6.9211100e-03,1.1778694e-01,-3.1058213e-01,-1.5011291e-02
3.1099291e+00,-7.0988594e-02,-7.1562801e-03,3.8091855e-03,-1.9200982e-01,-1.0023073e-01,-1.9370598e-01,1.5654106e-02,4.5270122e-04,8.6395482e-03,2.5403566e-01,5.4347605e-01,1.7184398e-01
3.1199279e+00,-7.3383053e-02,-6.6046852e-03,3.9879826e-03,-2.3668691e-01,5.9720149e-02,-2.4114814e-01,1.3623884e-02,-5.3735361e-03,8.3754811e-03,-2.0304661e-01,-5.8269375e-01,-2.6409880e-02
3.1299279e+00,-7.6130242e-02,-7.6651275e-03,3.6000946e-03,-2.7482017e-01,-1.0238979e-01,-2.7600143e-01,1.5253872e-02,1.9853533e-03,5.3891480e-03,1.6299904e-01,7.3588964e-01,-2.9863359e-01
3.1399279e+00,-7.8656910e-02,-8.3042506e-03,3.1744538e-03,-2.5283669e-01,-6.0679202e-02,-2.5329384e-01,1.7554310e-02,4.7816354e-03,3.6083765e-03,2.3004396e-01,2.7962847e-01,-1.7807732e-01
3.1499279e+00,-8.0585363e-02,-8.0378281e-03,3.6156492e-03,-1.9104075e-01,3.0023027e-02,-1.9414067e-01,1.8142018e-02,5.8349834e-04,6.6653817e-03,5.8770847e-02,-4.1981410e-01,3.0570081e-01
3.1599278e+00,-8.3067657e-02,-9.1345973e-03,3.6373446e-03,-2.4906263e-01,-1.0646227e-01,-2.4879406e-01,1.8963742e-02,6.0696647e-03,4.8308439e-03,8.2172533e-02,5.4861716e-01,-1.8345396e-01
