time, x, y, z, vx, vy, vz, yaw, pitch, roll, yaw_rate, pitch_rate, roll_rate
0.0000000e+00,0.0000000e+00,0.0000000e+00,0.0000000e+00,0.0000000e+00,0.0000000e+00,0.0000000e+00,0.0000000e+00,0.0000000e+00,0.0000000e+00,0.0000000e+00,0.0000000e+00,0.0000000e+00
9.9999905e-03,-1.2433181e-05,2.0419132e-06,4.5222563e-05,-1.2431072e-03,2.0366577e-04,-1.2436175e-03,-1.9200419e-04,2.3079747e-04,2.0202756e-04,-1.9200437e-02,2.3079769e-02,2.0202775e-02
1.9999981e-02,-1.2086956e-04,-1.0036798e-03,-7.1822029e-04,-1.0992304e-02,-1.0065411e-01,-9.8929699e-03,1.2746336e-03,9.2431494e-03,-1.8897428e-03,1.4666392e-01,9.0123606e-01,-2.0917724e-01
2.9999971e-02,1.4946455e-04,-3.0452561e-04,-2.3726400e-04,2.7135813e-02,6.9944115e-02,2.6856237e-02,1.4995423e-03,2.5696570e-03,9.0039562e-05,2.2490889e-02,-6.6734988e-01,1.9797843e-01
4.0000200e-02,2.2982148e-05,-3.8252317e-04,-4.1492895e-04,-1.2660818e-02,-7.8344759e-03,-1.2613461e-02,1.0960774e-03,3.8616258e-03,-3.4206836e-04,-4.0345570e-02,1.2919393e-01,-4.3209803e-02
5.0000191e-02,1.1408665e-04,-1.2900801e-05,-1.4724624e-04,9.1486164e-03,3.6955602e-02,9.0992709e-03,1.1262424e-03,3.9691277e-04,3.8026565e-04,3.0165090e-03,-3.4647164e-01,7.2233470e-02
6.0000181e-02,1.3911491e-04,2.6299933e-05,-1.3668776e-04,2.5058718e-03,3.9181661e-03,2.5027760e-03,9.8152715e-04,2.1870238e-04,3.2089411e-04,-1.4471541e-02,-1.7821056e-02,-5.9371597e-03
7.0000172e-02,1.0551601e-04,-4.5059376e-04,-4.7369221e-04,-3.4088774e-03,-4.7701028e-02,-3.1383921e-03,9.7751988e-04,4.5938608e-03,-7.0517328e-04,-4.0072756e-04,4.3751626e-01,-1.0260684e-01
8.0000162e-02,1.8965783e-04,1.9463691e-05,-6.4608373e-04,8.3864981e-03,4.7037241e-02,8.2647460e-03,-9.2356490e-04,2.8446522e-03,-1.8705714e-03,-1.9010866e-01,-1.7492102e-01,-1.1653992e-01
9.0000153e-02,1.8100000e-04,6.7749166e-04,-2.9897241e-04,-1.0151875e-03,6.5802446e-02,-7.2318646e-04,-2.2491418e-03,-2.1420050e-03,-1.6260167e-03,-1.3255782e-01,-4.9866620e-01,2.4455491e-02
1.0000014e-01,7.5526200e-05,6.2533939e-05,-1.9360291e-05,-1.0526564e-02,-6.1498284e-02,-1.0553894e-02,-3.7246912e-04,-1.3948893e-04,-1.9714307e-04,1.8766745e-01,2.0025180e-01,1.4288750e-01
1.1000013e-01,7.3901215e-04,2.0133422e-03,-4.6268981e-05,6.5228004e-02,1.9490919e-01,6.7945595e-02,-5.7132515e-03,-8.1563575e-03,7.5817517e-05,-5.3407875e-01,-8.0168762e-01,2.7296084e-02
1.2000012e-01,6.1767716e-04,2.2668441e-03,-1.9319853e-04,-1.2347568e-02,2.5298202e-02,-1.2025649e-02,-8.2527668e-03,-4.0557993e-03,-4.3387461e-04,-2.5395177e-01,4.1005621e-01,-5.0969262e-02
1.3000011e-01,1.3565397e-05,-2.7317222e-04,-8.4640965e-04,-6.0276356e-02,-2.5438713e-01,-5.8906153e-02,-1.1678718e-03,5.2851211e-03,-2.6819819e-03,7.0849018e-01,9.3409293e-01,-2.2481094e-01
1.4000010e-01,1.0381145e-04,-2.6598439e-05,-6.6189378e-04,9.0209258e-03,2.4685219e-02,8.9519614e-03,-6.4429558e-04,2.4501890e-03,-1.3528494e-03,5.2357674e-02,-2.8349347e-01,1.3291337e-01
1.5000010e-01,2.3885885e-05,-4.1040884e-04,-3.9872425e-04,-8.0353743e-03,-3.8403925e-02,-7.8383983e-03,1.1181343e-03,4.0185879e-03,1.2478319e-05,1.7624315e-01,1.5684003e-01,1.3653290e-01
1.6000009e-01,-8.8586147e-06,-4.2418637e-04,-3.6688888e-04,-3.2755871e-03,-1.3888147e-03,-3.2686413e-03,1.0471561e-03,4.4288154e-03,9.3708683e-05,-7.0978216e-03,4.1022787e-02,8.1230441e-03
1.7000008e-01,-6.4968660e-07,-3.8551664e-04,-3.3781242e-04,8.2485823e-04,3.8693417e-03,8.0563147e-04,1.0400387e-03,3.9607426e-03,6.9087880e-05,-7.1173769e-04,-4.6807318e-02,-2.4620827e-03
1.8000007e-01,2.4102738e-05,-5.1774676e-04,-3.1320131e-04,2.4616541e-03,-1.3214763e-02,2.5322612e-03,1.0629484e-03,4.3478775e-03,-1.8832267e-04,2.2909704e-03,3.8713527e-02,-2.5741080e-02
1.9000006e-01,7.4611338e-06,-6.4826067e-04,-3.2776449e-04,-1.6906725e-03,-1.3056258e-02,-1.5980411e-03,1.8889051e-03,4.9210296e-03,-1.1187013e-03,8.2595747e-02,5.7315261e-02,-9.3037954e-02
2.0000005e-01,-2.5927046e-05,-7.1243514e-06,-3.0588557e-05,-3.3300988e-03,6.4114378e-02,-3.3343755e-03,1.5007652e-04,-5.5343655e-05,-2.6948105e-04,-1.7388302e-01,-4.9763780e-01,8.4922109e-02
2.1000004e-01,3.9605811e-05,1.7701871e-05,-6.0863638e-05,6.5561629e-03,2.4785662e-03,6.5519564e-03,9.2589955e-05,-5.2685450e-04,-4.0310981e-04,-5.7486617e-03,-4.7151130e-02,-1.3362889e-02
2.2000003e-01,8.8020660e-05,4.8569271e-04,-3.8059341e-04,4.7748356e-03,4.6799396e-02,4.9046936e-03,-1.5936429e-03,-1.5175908e-03,-1.6399264e-03,-1.6862345e-01,-9.9073728e-02,-1.2368177e-01
2.3000002e-01,1.5834396e-04,-2.6630530e-05,-6.9007317e-04,7.0810330e-03,-5.1206435e-02,7.1710212e-03,-7.1755512e-04,2.9424510e-03,-1.6987551e-03,8.7608863e-02,4.4600461e-01,-5.8828798e-03
2.4000001e-01,1.8689079e-04,5.4688552e-05,-6.1732355e-04,2.8502359e-03,8.1425478e-03,2.8287081e-03,-1.0284468e-03,2.7116052e-03,-1.3723275e-03,-3.1089195e-02,-2.3084601e-02,3.2642787e-02
2.5000000e-01,2.2999334e-04,2.9818656e-04,-6.4828013e-04,4.2863394e-03,2.4363274e-02,4.2577887e-03,-1.2142781e-03,1.9233519e-03,-1.3118476e-03,-1.8583151e-02,-7.8825399e-02,6.0480000e-03
2.5999999e-01,1.3856330e-04,-2.7759670e-04,-4.5453726e-04,-9.1773694e-03,-5.7606463e-02,-8.9291973e-03,5.1293750e-04,3.6286436e-03,-5.2769846e-04,1.7272172e-01,1.7052933e-01,7.8414989e-02
2.6999998e-01,1.0899531e-04,-5.1045505e-04,-4.1399214e-04,-2.9791399e-03,-2.3295298e-02,-2.8583816e-03,8.8455169e-04,4.1506552e-03,-5.8914512e-04,3.7161454e-02,5.2201208e-02,-6.1446719e-03
2.7999997e-01,-9.7201945e-05,-7.8151878e-04,-5.5032053e-04,-2.0673696e-02,-2.7226207e-02,-2.0406777e-02,7.2054116e-04,6.5706761e-03,-1.6709178e-03,-1.6401068e-02,2.4200233e-01,-1.0817737e-01
2.9000020e-01,-2.8143914e-05,-7.3597996e-05,2.7476507e-05,6.9071684e-03,7.0791249e-02,6.8960092e-03,2.5150496e-05,1.3974851e-04,3.7222105e-05,-6.9537475e-02,-6.4307804e-01,1.7081008e-01
3.0000019e-01,-1.9543143e-05,5.3411287e-06,6.0490475e-06,8.6051992e-04,7.8936906e-03,8.6173966e-04,6.1905414e-05,-2.0458461e-04,5.4324065e-05,3.6754953e-03,-3.4433344e-02,1.7101977e-03
3.1000018e-01,6.0302404e-04,1.9908378e-03,-1.4671094e-04,6.1119849e-02,1.9845730e-01,6.3662557e-02,-5.8387570e-03,-7.1911136e-03,-3.7609871e-04,-5.9006680e-01,-6.9865357e-01,-4.3042318e-02
3.2000017e-01,5.0782548e-04,2.3386640e-03,-1.9140502e-04,-9.8074298e-03,3.4747356e-02,-9.3554349e-03,-8.1494543e-03,-4.6038488e-03,-4.6487275e-04,-2.3106996e-01,2.5872673e-01,-8.8774125e-03
3.3000016e-01,7.3339593e-04,1.9350284e-03,-2.3035119e-04,2.2874229e-02,-4.0174756e-02,2.2574787e-02,-7.7714622e-03,5.4610776e-04,-1.8458721e-04,3.7799254e-02,5.1499615e-01,2.8028580e-02
3.4000015e-01,6.4314191e-05,-5.3829646e-04,-3.8501108e-04,-6.7219327e-02,-2.4752886e-01,-6.5862933e-02,1.1388625e-03,4.1056623e-03,-4.4033697e-04,8.9103331e-01,3.5595580e-01,-2.5575001e-02
3.5000014e-01,5.2991729e-05,-4.3678790e-04,-4.0654284e-04,-1.1205310e-03,1.0147537e-02,-1.1730086e-03,1.1892280e-03,4.0506679e-03,-3.1465133e-04,5.0365599e-03,-5.4994449e-03,1.2568576e-02
3.6000013e-01,5.8321363e-05,-3.4694390e-04,-4.0283430e-04,5.4063855e-04,8.9859963e-03,4.9727658e-04,8.3905840e-04,3.9564921e-03,-2.5587663e-04,-3.5016997e-02,-9.4175898e-03,5.8774755e-03
3.7000012e-01,8.4706343e-05,-3.2190702e-04,-4.2574307e-04,2.6413446e-03,2.5121701e-03,2.6275716e-03,6.9281467e-04,3.9160676e-03,-4.2082033e-04,-1.4624387e-02,-4.0424539e-03,-1.6494385e-02
3.8000011e-01,1.5679886e-04,-3.7449593e-04,-4.0459891e-04,7.2108677e-03,-5.2345038e-03,7.2253823e-03,5.2984464e-04,3.9099355e-03,-6.1006769e-04,-1.6297018e-02,-6.1321033e-04,-1.8924755e-02
3.9000010e-01,1.3622270e-04,-1.4571108e-05,-7.0441594e-04,-2.0880903e-03,3.5985068e-02,-2.1548916e-03,-7.4010594e-04,2.8110862e-03,-1.8654802e-03,-1.2699518e-01,-1.0988503e-01,-1.2554137e-01
4.0000010e-01,3.7496449e-05,2.0800518e-05,-6.0218256e-05,-9.8761476e-03,3.5364142e-03,-9.8693893e-03,-1.2858802e-04,-5.2464162e-05,-3.0984018e-04,6.1151850e-02,-2.8635531e-01,1.5556415e-01
4.1000009e-01,3.0339477e-05,-4.7700606e-05,-5.0298396e-05,-7.1575027e-04,-6.8502528e-03,-7.1436348e-04,-2.9055192e-05,1.5810543e-04,-3.5129553e-04,9.9532921e-03,2.1056979e-02,-4.1455381e-03
4.2000008e-01,6.2236005e-05,-1.8828713e-05,-1.4052245e-05,3.1903472e-03,2.8879075e-03,3.1883165e-03,-6.1984636e-05,1.6236988e-04,-2.7287648e-04,-3.2929475e-03,4.2644524e-04,7.8419123e-03
4.3000007e-01,3.2492815e-05,5.3518151e-07,-3.8943830e-05,-2.9755175e-03,1.9365047e-03,-2.9730518e-03,-9.3106196e-05,-1.3130948e-04,-3.4143762e-04,-3.1121590e-03,-2.9367963e-02,-6.8561210e-03
4.4000006e-01,-9.6415696e-05,-8.2088527e-04,-5.6404575e-04,-1.2963898e-02,-8.2222176e-02,-1.2293424e-02,6.1299224e-04,6.9924083e-03,-1.7613033e-03,7.0609911e-02,7.1237246e-01,-1.4198671e-01
4.5000005e-01,4.6127227e-05,-5.1182778e-04,-3.1913597e-04,1.4281015e-02,3.0952690e-02,1.4125197e-02,8.5084496e-04,4.1615825e-03,-2.9355200e-05,2.3785295e-02,-2.8308285e-01,1.7319498e-01
4.6000004e-01,6.3061781e-05,-5.2412799e-04,-3.4638770e-04,1.6926248e-03,-1.2236718e-03,1.6988806e-03,8.1688752e-04,4.5593619e-03,-1.0227641e-04,-3.3957473e-03,3.9777970e-02,-7.2921276e-03
4.7000003e-01,8.5657752e-05,-5.3157719e-04,-3.5625045e-04,2.2592787e-03,-7.3582352e-04,2.2628983e-03,7.8552813e-04,4.8083454e-03,-1.1739706e-04,-3.1359419e-03,2.4898374e-02,-1.5120668e-03
4.8000002e-01,7.7498896e-05,-5.4461709e-04,-3.6640208e-04,-8.1718912e-04,-1.3069986e-03,-8.0974787e-04,9.3544593e-04,4.6394456e-03,-1.0213185e-04,1.4991794e-02,-1.6889991e-02,1.5265221e-03
4.9000001e-01,7.8897837e-05,-5.2650514e-04,-3.7173902e-04,1.4166896e-04,1.8116571e-03,1.3193121e-04,9.6356282e-04,4.3795474e-03,-2.1191942e-04,2.8116918e-03,-2.5989846e-02,-1.0978767e-02
5.0000000e-01,7.4726209e-05,-5.4795529e-04,-3.9370982e-04,-4.1967366e-04,-2.1464071e-03,-4.0738088e-04,1.0949528e-03,4.4835060e-03,-3.8848562e-04,1.3139011e-02,1.0395871e-02,-1.7656637e-02
5.0999999e-01,1.4945232e-05,5.6091850e-04,-3.5714594e-04,-6.1488886e-03,1.1089262e-01,-5.7032342e-03,-1.4552518e-03,-2.3914471e-03,-1.5774250e-03,-2.5502070e-01,-6.8749596e-01,-1.1889405e-01
5.1999998e-01,4.5863003e-05,5.6163869e-04,-3.1607861e-04,3.0964396e-03,7.0641436e-05,3.0871452e-03,-1.6100732e-03,-2.0587989e-03,-1.5470935e-03,-1.5482155e-02,3.3264849e-02,3.0331492e-03
5.2999997e-01,3.4873098e-05,5.9007799e-04,-3.0703738e-04,-1.1049333e-03,2.8447526e-03,-1.0908811e-03,-1.5312127e-03,-2.2906520e-03,-1.4463398e-03,7.8860547e-03,-2.3185333e-02,1.0075379e-02
5.4000020e-01,-7.2805917e-05,-7.5521990e-04,-5.3807749e-04,-1.0876490e-02,-1.3458915e-01,-9.8378198e-03,6.6915933e-04,6.7691913e-03,-1.7491197e-03,2.2003217e-01,9.0596360e-01,-3.0277296e-02
5.5000019e-01,6.7572369e-05,-5.8050858e-04,-4.1480711e-04,1.4064763e-02,1.7519373e-02,1.3950523e-02,1.0853623e-03,4.5367656e-03,-5.6766347e-04,4.1620338e-02,-2.2324279e-01,1.1814574e-01
5.6000018e-01,7.3246656e-05,-5.4961804e-04,-3.8798324e-04,5.7074024e-04,3.0907863e-03,5.5454166e-04,1.0076364e-03,4.1065397e-03,-3.5018943e-04,-7.7726003e-03,-4.3022627e-02,2.1747425e-02
5.7000017e-01,9.1037712e-05,-7.9127134e-05,-6.6499352e-04,1.7530680e-03,4.7055088e-02,1.6422896e-03,-6.1181394e-04,2.8502421e-03,-1.5448460e-03,-1.6194519e-01,-1.2562989e-01,-1.1946577e-01
5.8000016e-01,1.2329508e-04,-5.7898734e-05,-6.6688433e-04,3.2294506e-03,2.1330670e-03,3.2152654e-03,-5.6330391e-04,2.6128584e-03,-1.5222752e-03,4.8510080e-03,-2.3738390e-02,2.2570817e-03
5.9000015e-01,-1.1168264e-05,-3.2802929e-04,-8.5055228e-04,-1.3457623e-02,-2.7099287e-02,-1.3260321e-02,-1.0322906e-03,5.4253062e-03,-2.9171296e-03,-4.6898711e-02,2.8124505e-01,-1.3948558e-01
6.0000014e-01,-2.9826826e-06,-8.8813284e-04,-5.2225453e-04,7.8020222e-04,-5.6003747e-02,1.2155435e-03,7.0763919e-04,7.1098087e-03,-1.5632755e-03,1.7399314e-01,1.6845040e-01,1.3538554e-01
6.1000013e-01,7.5934707e-05,-4.7117056e-05,-3.2142637e-05,7.8929017e-03,8.4099805e-02,7.9103292e-03,1.9645574e-07,-2.3450004e-04,-1.4430066e-04,-7.0744341e-02,-7.3443157e-01,1.4189762e-01
6.2000012e-01,4.3914131e-05,-9.3377245e-05,-5.2772837e-05,-3.2039931e-03,-4.6247485e-03,-3.2019691e-03,2.3783188e-04,-1.6028842e-04,-2.5997618e-04,2.3763565e-02,7.4211691e-03,-1.1567563e-02
6.3000011e-01,2.0130540e-05,-6.3127986e-05,-5.4399469e-05,-2.3782059e-03,3.0262003e-03,-2.3768988e-03,2.2612758e-04,-3.0863592e-04,-2.2231949e-04,-1.1704304e-03,-1.4834764e-02,3.7656724e-03
6.4000010e-01,-8.8443271e-06,-1.3458275e-04,-9.3028591e-05,-2.9010143e-03,-7.1447637e-03,-2.8957374e-03,2.9689223e-04,4.8550303e-05,-4.8450815e-04,7.0764719e-03,3.5718656e-02,-2.6218891e-02
6.5000010e-01,-1.8443502e-05,-4.6239341e-05,-2.4149344e-05,-9.5724839e-04,8.8350619e-03,-9.5602261e-04,3.2659438e-04,-4.1665888e-04,-2.2429447e-04,2.9702176e-03,-4.6520963e-02,2.6021393e-02
6.6000009e-01,9.4932570e-05,2.3955410e-04,1.6174126e-04,1.1343110e-02,2.8535574e-02,1.1441964e-02,6.6691170e-04,-3.1790387e-03,1.1957926e-03,3.4031764e-02,-2.7623825e-01,1.4200884e-01
6.7000008e-01,5.4245483e-04,2.6289928e-03,-6.3858289e-04,4.2803679e-02,2.3917486e-01,4.5420765e-02,-8.3523633e-03,-2.9888959e-03,-1.0887051e-03,-9.0192836e-01,1.9014299e-02,-2.2844999e-01
6.8000007e-01,7.0251615e-04,2.3251700e-03,-3.0183703e-04,1.6216616e-02,-3.0305683e-02,1.5939428e-02,-7.1459204e-03,-2.4113675e-03,3.8916550e-04,1.2064441e-01,5.7752902e-02,1.4778720e-01
6.9000006e-01,1.5119854e-04,5.4451547e-04,-3.6279605e-04,-5.5112490e-02,-1.7797056e-01,-5.5457104e-02,-2.3888861e-04,-1.9575841e-03,-4.2119681e-04,6.9070384e-01,4.5378380e-02,-8.1036309e-02
7.0000005e-01,2.1532925e-04,4.7873571e-04,-3.9148557e-04,6.4182479e-03,-6.5869776e-03,6.3986546e-03,-2.2885171e-04,-1.6337783e-03,-5.7181165e-04,1.0036908e-03,3.2380609e-02,-1.5061498e-02
7.1000004e-01,1.1927778e-04,-6.6255032e-05,-6.8806226e-04,-9.5958286e-03,-5.4527324e-02,-9.4532400e-03,-4.6009854e-04,2.4980275e-03,-1.6410230e-03,-2.3124705e-02,4.1318097e-01,-1.0692123e-01
7.2000003e-01,7.8932956e-05,-7.0209229e-05,-7.8304957e-05,-4.0364967e-03,-3.9392835e-04,-4.0326217e-03,2.0664704e-05,-3.4924414e-04,-4.9629649e-04,4.8076370e-02,-2.8472743e-01,1.1447276e-01
7.3000002e-01,2.5006960e-04,7.7465804e-04,-2.2569954e-04,1.6954390e-02,8.4463466e-02,1.7385289e-02,-2.1040115e-03,-3.4315795e-03,-1.0820845e-03,-2.1246782e-01,-3.0823383e-01,-5.8578860e-02
7.4000001e-01,2.5210313e-04,8.0768381e-04,-2.1163018e-04,1.9641456e-04,3.3022743e-03,2.1481976e-04,-2.1661454e-03,-3.5348840e-03,-1.0602157e-03,-6.2133993e-03,-1.0330462e-02,2.1868811e-03
7.5000000e-01,4.3300085e-05,-4.6460214e-05,-5.9352321e-05,-2.0868172e-02,-8.5425035e-02,-2.0849288e-02,-2.1407507e-04,2.9157290e-04,-2.9378753e-04,1.9520722e-01,3.8264606e-01,7.6642894e-02
7.5999999e-01,6.2908166e-05,5.1372461e-04,-3.2714040e-04,1.8705166e-03,5.6017712e-02,2.0695451e-03,-1.6601938e-03,-1.9871764e-03,-1.3834643e-03,-1.4461201e-01,-2.2787515e-01,-1.0896778e-01
7.6999998e-01,2.4240551e-04,8.2522985e-04,-8.5719983e-05,1.7907255e-02,3.1083452e-02,1.8107828e-02,-1.2513806e-03,-4.9660106e-03,1.9503903e-04,4.0881360e-02,-2.9788370e-01,1.5785048e-01
7.7999997e-01,5.4912020e-05,4.6710866e-05,-6.4458767e-04,-1.8762211e-02,-7.7892507e-02,-1.8567285e-02,-1.2841080e-04,2.0446557e-03,-1.2190068e-03,1.1229709e-01,7.0106730e-01,-1.4140471e-01
7.9000020e-01,1.7304204e-05,-4.7507923e-04,-3.9233195e-04,-3.8368801e-03,-5.2186360e-02,-3.5598172e-03,1.4510727e-03,3.8404782e-03,-1.2626624e-04,1.5794473e-01,1.7957814e-01,1.0927155e-01
8.0000019e-01,2.9838768e-05,8.5819150e-05,-6.6476821e-04,1.2489879e-03,5.6092209e-02,1.1499482e-03,-1.0680909e-04,1.8183540e-03,-1.2143495e-03,-1.5578833e-01,-2.0221262e-01,-1.0880843e-01
8.1000018e-01,6.2823157e-05,-5.5686385e-04,-3.6505310e-04,3.2311828e-03,-6.4256069e-02,3.5914848e-03,1.0605863e-03,4.5737703e-03,-2.7433133e-04,1.1673965e-01,2.7554190e-01,9.4001909e-02
8.2000017e-01,1.7988670e-05,-7.2479243e-04,-4.0713219e-04,-4.5161029e-03,-1.6811101e-02,-4.3812134e-03,1.6256631e-03,5.7650981e-03,-1.1953935e-03,5.6507729e-02,1.1913289e-01,-9.2106305e-02
8.3000016e-01,-5.8682298e-05,-2.3699091e-05,-2.8441726e-05,-7.6546330e-03,7.0112342e-02,-7.6526592e-03,1.7394810e-04,-2.0995347e-04,3.5949691e-05,-1.4517164e-01,-5.9750573e-01,1.2313444e-01
8.4000015e-01,-5.4512027e-05,-1.2229079e-04,-1.6319368e-05,4.1228144e-04,-9.8593653e-03,4.1735546e-04,4.8372462e-04,3.5579485e-05,-5.5406971e-05,3.0977681e-02,2.4553319e-02,-9.1356749e-03
8.5000014e-01,-2.7066580e-05,-9.3598120e-05,-6.8578078e-05,2.7463453e-03,2.8685859e-03,2.7434637e-03,3.2302997e-04,7.3826743e-05,-3.1750009e-04,-1.6069480e-02,3.8247294e-03,-2.6209337e-02
8.6000013e-01,2.0134219e-04,1.3594382e-04,1.4947857e-04,2.2835629e-02,2.2880003e-02,2.2920490e-02,7.3555108e-04,-2.5077090e-03,9.6918349e-04,4.1252150e-02,-2.5815382e-01,1.2866848e-01
8.7000012e-01,2.0814202e-04,3.7719262e-04,-3.6933972e-04,6.7699225e-04,2.4124145e-02,7.0925106e-04,-1.4365373e-04,-1.2327715e-03,-6.9806102e-04,-8.7920565e-02,1.2749387e-01,-1.6672461e-01
8.8000011e-01,2.0190032e-04,-3.6757624e-05,-1.4317924e-04,-6.6623059e-04,-4.1394659e-02,-6.0727405e-04,1.0210424e-03,4.1344771e-04,3.2830801e-04,1.1646973e-01,1.6462207e-01,1.0263700e-01
8.9000010e-01,1.0167796e-04,4.7089709e-05,-6.4287272e-04,-1.0039605e-02,8.3532078e-03,-1.0031200e-02,-5.3256780e-04,2.6141763e-03,-1.2874286e-03,-1.5536117e-01,2.2007307e-01,-1.6157382e-01
9.0000010e-01,1.0883976e-04,-1.3740815e-05,-6.3979378e-04,7.2175559e-04,-6.0806637e-03,7.3076944e-04,-7.4224721e-04,2.5746160e-03,-1.4816900e-03,-2.0967961e-02,-3.9560344e-03,-1.9426156e-02
9.1000009e-01,1.0992690e-05,-3.4160110e-05,-3.2728225e-05,-9.7859591e-03,-2.0392223e-03,-9.7840380e-03,1.1584646e-05,-2.6531591e-04,-1.2462490e-04,7.5383257e-02,-2.8399347e-01,1.3570664e-01
9.2000008e-01,7.4032899e-06,-6.5714797e-05,-3.6015485e-05,-3.5950291e-04,-3.1553132e-03,-3.5976940e-04,1.6069304e-04,-2.8037239e-04,-1.5469602e-04,1.4910854e-02,-1.5056490e-03,-3.0071156e-03
9.3000007e-01,1.8181724e-05,-7.3097407e-05,-7.4676933e-05,1.0781900e-03,-7.3815960e-04,1.0775688e-03,5.8169189e-05,1.5294254e-04,-3.6045622e-04,-1.0252395e-02,4.3331534e-02,-2.0576040e-02
9.4000006e-01,6.8921857e-05,-5.3435389e-05,-3.5493479e-05,5.0752530e-03,1.9653884e-03,5.0730989e-03,3.6572200e-05,-1.2413708e-04,-2.2922339e-04,-2.1597010e-03,-2.7707989e-02,1.3123296e-02
9.5000005e-01,1.4086740e-05,-6.9804140e-05,-8.5662832e-05,-5.4854401e-03,-1.6350832e-03,-5.4821285e-03,2.2966157e-04,-9.7430714e-05,-2.8221774e-04,1.9308955e-02,2.6706395e-03,-5.2994399e-03
9.6000004e-01,7.3143845e-05,-6.0073922e-04,-3.7676211e-04,5.8414311e-03,-5.3074588e-02,6.1356909e-03,1.2342113e-03,4.3552241e-03,-2.1135340e-04,1.0045507e-01,4.4526591e-01,7.0864408e-03
9.7000003e-01,-1.8418374e-05,-8.5630547e-04,-5.8814726e-04,-9.2195533e-03,-2.5601076e-02,-8.9666153e-03,2.2508066e-03,7.1866282e-03,-6.3614130e-04,1.0165963e-01,2.8314067e-01,-4.2478831e-02
9.8000002e-01,5.4114208e-05,-6.2463679e-05,-9.0626420e-05,7.3470597e-03,7.9378734e-02,7.2192034e-03,1.2506040e-03,4.9901793e-04,7.5495329e-04,-1.0002035e-01,-6.6876166e-01,1.3910959e-01
9.9000001e-01,5.9684588e-05,-1.5673598e-04,-4.8485152e-05,5.4094887e-04,-9.4279248e-03,5.6128366e-04,1.6607311e-03,4.0568827e-04,7.7664631e-04,4.1012746e-02,-9.3329746e-03,2.1693043e-03
1.0000000e+00,1.2838493e-04,-2.7368423e-04,-1.8387960e-04,6.8389304e-03,-1.1699549e-02,6.8930171e-03,2.3774101e-03,1.6832911e-03,4.7843480e-04,7.1667969e-02,1.2776040e-01,-2.9821179e-02
1.0100000e+00,-6.6397571e-05,-1.2187641e-04,2.9351261e-06,-1.9470074e-02,1.5198783e-02,-1.9472434e-02,6.1718422e-04,-3.0645649e-04,-6.0493971e-05,-1.7602276e-01,-1.9897495e-01,-5.3892929e-02
1.0200000e+00,-1.1554198e-05,-1.6571981e-04,-6.0830636e-05,5.4838144e-03,-4.3892483e-03,5.4809467e-03,6.3608282e-04,-2.5847850e-04,-4.1248497e-04,1.8898614e-03,4.7978042e-03,-3.5199133e-02
1.0300000e+00,5.3430339e-05,-7.5595799e-05,-1.0581044e-04,6.5046120e-03,9.0071650e-03,6.4995763e-03,3.1761291e-04,-4.8948644e-04,-5.0641606e-04,-3.1847021e-02,-2.3100816e-02,-9.3931177e-03
1.0400002e+00,1.1091416e-04,-1.7518484e-04,-6.0289678e-05,5.7467889e-03,-9.9587540e-03,5.7495780e-03,3.4628186e-04,3.3271355e-04,-3.4573653e-04,2.8668291e-03,8.2218117e-02,1.6067584e-02
1.0500002e+00,2.0110811e-04,4.6129387e-04,-3.5039852e-04,8.9291375e-03,6.3649649e-02,9.0967722e-03,-1.6403452e-03,-1.4354755e-03,-1.5700924e-03,-1.9866290e-01,-1.7681908e-01,-1.2243570e-01
1.0600002e+00,2.2770918e-04,-1.2462595e-04,-6.6695472e-04,2.7026256e-03,-5.8581626e-02,2.8404427e-03,-6.5092259e-04,3.1540314e-03,-1.6472876e-03,9.8942360e-02,4.5895113e-01,-7.7195334e-03
1.0700002e+00,1.4508562e-04,-5.9924499e-05,-6.9546617e-04,-8.2766546e-03,6.4454398e-03,-8.2673731e-03,-2.8432842e-04,2.7076721e-03,-1.5081554e-03,3.6659452e-02,-4.4635974e-02,1.3913242e-02
1.0800002e+00,7.2392070e-05,3.2767911e-05,-6.5031322e-04,-7.2806605e-03,9.2546596e-03,-7.2766404e-03,-2.3909524e-04,1.7681780e-03,-1.2502173e-03,4.5233221e-03,-9.3949501e-02,2.5793829e-02
1.0900002e+00,8.2917091e-05,-1.8704144e-04,-1.2218893e-04,1.0155369e-03,-2.1982637e-02,1.0537080e-03,1.6571176e-03,3.1118895e-05,5.1271136e-04,1.8962147e-01,-1.7370607e-01,1.7629304e-01
1.1000001e+00,1.2696349e-04,2.2804728e-04,2.1342441e-04,4.4340983e-03,4.1490365e-02,4.5475213e-03,8.7916042e-04,-3.2722991e-03,1.5963805e-03,-7.7795792e-02,-3.3034212e-01,1.0836701e-01
1.1100001e+00,-9.5366099e-05,-8.9440570e-04,-5.0306282e-04,-2.2382077e-02,-1.1237941e-01,-2.1390472e-02,1.0312115e-03,7.2031530e-03,-1.5016194e-03,1.5205125e-02,1.0475462e+00,-3.0980028e-01
1.1199992e+00,-1.0954292e-05,-8.1217067e-04,-3.7141862e-04,8.4674255e-03,8.2571969e-03,8.3842090e-03,2.0104069e-03,5.9331610e-03,-1.0565409e-03,9.7928966e-02,-1.2701144e-01,4.4512135e-02
1.1299992e+00,-1.9765587e-04,-1.3074460e-03,-7.8016605e-04,-1.8825172e-02,-4.9672727e-02,-1.8120847e-02,2.3094649e-03,1.0252871e-02,-2.1803957e-03,2.9905837e-02,4.3197140e-01,-1.1238559e-01
1.1399992e+00,-7.4633235e-05,-2.1153932e-04,-5.7618181e-05,1.2408665e-02,1.0957630e-01,1.2324282e-02,9.4880682e-04,-2.2304641e-04,-1.9624772e-04,-1.3606594e-01,-1.0475927e+00,1.9841499e-01
1.1499677e+00,-4.8535636e-05,-1.2159701e-04,-1.4907288e-05,2.6239195e-03,9.0200975e-03,2.6208206e-03,6.4779384e-04,-3.2069351e-04,-2.8133683e-05,-3.0196359e-02,-9.7955473e-03,1.6864494e-02
1.1599677e+00,5.6209726e-05,-6.8385162e-04,-3.5322978e-04,1.0391550e-02,-5.6192112e-02,1.0733261e-02,1.5009230e-03,4.6269050e-03,-1.3422977e-04,8.5313001e-02,4.9476033e-01,-1.0609619e-02
1.1699677e+00,5.8904215e-05,4.1558443e-05,-6.4607840e-04,2.4857041e-04,7.2541556e-02,1.1702699e-04,-2.9181635e-04,2.0974890e-03,-1.0765141e-03,-1.7927411e-01,-2.5294184e-01,-9.4228519e-02
1.1799676e+00,6.7929679e-05,4.5085063e-05,-6.0909245e-04,9.0348017e-04,3.5478429e-04,9.0078060e-04,-3.0165547e-04,2.0525957e-03,-1.1521783e-03,-9.8391281e-04,-4.4893358e-03,-7.5664270e-03
1.1899676e+00,1.7873980e-04,4.3812079e-04,-3.6209040e-04,1.1078182e-02,3.9289203e-02,1.1134823e-02,-2.6057248e-04,-1.5573642e-03,-6.6820842e-04,4.1083028e-03,-3.6099634e-01,4.8397029e-02
1.1999676e+00,1.6904564e-04,4.1792299e-04,-4.1459478e-04,-9.6960158e-04,-2.0187876e-03,-9.7130012e-04,-2.6940324e-04,-1.2941319e-03,-7.5273490e-04,-8.8307601e-04,2.6323260e-02,-8.4526563e-03
1.2099676e+00,7.9219582e-05,-1.2320736e-04,-6.8843115e-04,-8.9759857e-03,-5.4144496e-02,-8.7980739e-03,-4.1498033e-04,3.1169849e-03,-1.7635960e-03,-1.4557723e-02,4.4111210e-01,-1.0108621e-01
1.2199676e+00,-4.0084457e-05,-3.8298286e-04,-8.5754996e-04,-1.1943303e-02,-2.6059685e-02,-1.1736880e-02,-9.1546523e-04,6.0259943e-03,-3.0787581e-03,-5.0048537e-02,2.9090122e-01,-1.3151634e-01
1.2299676e+00,7.3194449e-06,-9.1711088e-05,-3.6535880e-05,4.7427564e-03,2.9129891e-02,4.7214942e-03,3.5517844e-05,6.0328741e-04,-2.7998804e-04,9.5098398e-02,-5.4227121e-01,2.7987728e-01
1.2399676e+00,-7.5747115e-05,-2.0335405e-04,-1.4890981e-05,-8.3151216e-03,-1.1159677e-02,-8.3044231e-03,7.1248479e-04,1.5546967e-04,-6.0844400e-05,6.7696759e-02,-4.4781817e-02,2.1914385e-02
1.2499676e+00,-1.2519552e-04,-1.5535712e-04,-2.5692221e-05,-4.9408096e-03,4.8062148e-03,-4.9425474e-03,7.8158639e-04,-5.3692696e-04,5.7131733e-05,6.9101658e-03,-6.9239728e-02,1.1797624e-02
1.2599676e+00,-7.6820817e-05,-1.2988831e-04,-5.9880028e-06,4.8389058e-03,2.5375142e-03,4.8409661e-03,8.3230214e-04,-1.1039719e-03,1.4200524e-04,5.0715802e-03,-5.6704548e-02,8.4873593e-03
1.2699676e+00,5.9801289e-05,-5.8956122e-04,-3.5246114e-04,1.3605992e-02,-4.5929529e-02,1.3844276e-02,1.2500042e-03,3.9881956e-03,-9.0673630e-05,4.1770243e-02,5.0921723e-01,-2.3267910e-02
1.2799675e+00,1.8206268e-05,-5.7485356e-04,-3.1379503e-04,-4.1560099e-03,1.4599500e-03,-4.1668051e-03,1.5834658e-03,4.1793067e-03,2.7933323e-04,3.3346193e-02,1.9111131e-02,3.7000721e-02
1.2899678e+00,1.2094474e-04,-4.0549828e-04,-2.1510086e-04,1.0310692e-02,1.6934886e-02,1.0236819e-02,2.4871560e-03,2.4712901e-03,4.8743322e-04,9.0366949e-02,-1.7079775e-01,2.0809522e-02
1.2999678e+00,1.4943236e-06,-5.9130258e-04,-3.9627237e-04,-1.1976839e-02,-1.8615606e-02,-1.1858168e-02,1.6265759e-03,4.5890103e-03,-1.3222084e-04,-8.6058083e-02,2.1177222e-01,-6.1965465e-02
1.3099678e+00,1.5591329e-04,3.4393150e-04,-4.2022537e-04,1.5458856e-02,9.3507182e-02,1.5523546e-02,4.9542445e-05,-1.0047571e-03,-7.9761360e-04,-1.5770350e-01,-5.5937727e-01,-6.6539340e-02
1.3199677e+00,2.2470289e-04,7.2252817e-04,-1.7271310e-04,6.8442019e-03,3.7836479e-02,7.0395457e-03,-9.7915382e-04,-4.3030174e-03,-3.3566820e-04,-1.0286972e-01,-3.2982635e-01,4.6194584e-02
1.3299677e+00,5.5002376e-05,4.5832715e-04,-3.4861321e-04,-1.6971391e-02,-2.6393310e-02,-1.7010426e-02,-1.0068915e-03,-2.5853962e-03,-1.6474018e-03,-2.7737701e-03,1.7176229e-01,-1.3117348e-01
1.3399677e+00,5.0013750e-05,-7.9479575e-05,-6.2883219e-05,-5.2286638e-04,-5.3780200e-02,-5.2984059e-04,4.4130237e-04,-5.8125879e-04,-5.4097573e-04,1.4481952e-01,2.0041393e-01,1.1064271e-01
1.3499677e+00,7.4088154e-05,-4.6089364e-05,-4.0217958e-05,2.4085603e-03,3.3386022e-03,2.4069103e-03,9.4930112e-05,-8.0414613e-05,-3.3259433e-04,-3.4637259e-02,5.0084465e-02,2.0838159e-02
1.3599677e+00,3.7069308e-05,-1.4791687e-04,-6.1104337e-05,-3.7074963e-03,-1.0180805e-02,-3.7016546e-03,4.2256932e-04,-1.0549421e-04,-3.5274895e-04,3.2763952e-02,-2.5079621e-03,-2.0154637e-03
1.3699677e+00,-5.6140424e-06,-1.6788003e-04,-1.9310556e-05,-4.2692989e-03,-1.9953525e-03,-4.2678307e-03,3.4849158e-04,1.2232737e-04,-6.1934323e-05,-7.4077813e-03,2.2782179e-02,2.9081490e-02
1.3799677e+00,6.0571409e-05,-7.1243407e-04,-3.8986277e-04,6.5469980e-03,-5.4430796e-02,6.8871150e-03,1.3401865e-03,4.9585440e-03,-2.1653499e-04,9.9169584e-02,4.8362212e-01,-1.5460082e-02
1.3899677e+00,4.6696712e-05,-8.0099963e-05,-6.8548496e-04,-1.3966715e-03,6.3229049e-02,-1.5680006e-03,-1.1831017e-04,2.8824420e-03,-1.2399337e-03,-1.4584980e-01,-2.0761040e-01,-1.0233996e-01
1.3999677e+00,3.1769422e-05,-9.5217180e-05,-6.6668299e-04,-1.4945634e-03,-1.5158863e-03,-1.4866620e-03,6.5365007e-06,2.8029296e-03,-1.2220761e-03,1.2484679e-02,-7.9512462e-03,1.7857554e-03
1.4099677e+00,1.4984349e-05,-6.0815012e-04,-3.7694353e-04,-1.7663671e-03,-5.1296877e-02,-1.4670244e-03,1.7102115e-03,4.1201758e-03,-8.2323022e-05,1.7036766e-01,1.3172474e-01,1.1397542e-01
1.4199677e+00,1.4469978e-04,1.8072095e-04,2.5427431e-04,1.3006812e-02,7.8837858e-02,1.3233483e-02,6.9941804e-04,-3.0682664e-03,1.5341267e-03,-1.0107944e-01,-7.1884491e-01,1.6164512e-01
1.4299676e+00,1.1378678e-05,-1.3006903e-04,-1.0801774e-05,-1.3354621e-02,-3.1064475e-02,-1.3343520e-02,6.2552395e-04,-4.6546443e-04,-2.2949012e-04,-7.3894161e-03,2.6028045e-01,-1.7636185e-01
1.4399676e+00,4.4573789e-05,-4.4653953e-05,-4.9784471e-05,3.3226188e-03,8.5392757e-03,3.3221710e-03,2.0632082e-04,-4.6842531e-04,-4.0446674e-04,-4.1920354e-02,-2.9608864e-04,-1.7497679e-02
1.4499676e+00,1.9586834e-05,-4.4758842e-05,-5.6671474e-05,-2.4994879e-03,-9.7607237e-06,-2.4979106e-03,1.6699289e-04,-1.2446921e-04,-3.1552910e-04,-3.9327964e-03,3.4395643e-02,8.8937724e-03
1.4599676e+00,9.0680887e-06,-1.6909694e-04,-2.9376733e-05,-1.0597686e-03,-1.2433241e-02,-1.0508149e-03,6.1969684e-04,7.0059606e-05,-1.7885915e-04,4.5270438e-02,1.9452900e-02,1.3667008e-02
1.4699676e+00,-9.4453509e-05,-9.6639092e-04,-6.1187536e-04,-1.0465544e-02,-7.9792577e-02,-9.7334964e-03,1.1777606e-03,7.5102279e-03,-1.8834416e-03,5.5806433e-02,7.4401754e-01,-1.7045841e-01
1.4799676e+00,6.1436547e-05,-2.6696319e-05,-7.3219583e-04,1.5607527e-02,9.4006860e-02,1.5343624e-02,-4.5331308e-05,2.3684065e-03,-1.4614522e-03,-1.2230931e-01,-5.1418262e-01,4.2198982e-02
1.4899676e+00,5.0805257e-05,-4.3261270e-05,-6.4944499e-04,-1.0646754e-03,-1.6585688e-03,-1.0583421e-03,1.4377385e-04,2.0988849e-03,-1.2303936e-03,1.8910533e-02,-2.6952185e-02,2.3105888e-02
1.4999676e+00,1.0841469e-04,-9.4618559e-05,-7.1059911e-05,5.7482603e-03,-5.1451941e-03,5.7651800e-03,1.6013132e-03,-4.1935854e-05,7.7336061e-04,1.4575408e-01,-2.1408228e-01,2.0037561e-01
1.5099676e+00,8.2988155e-05,-9.5869368e-05,-6.3662054e-05,-2.5407290e-03,-1.2020921e-04,-2.5448158e-03,1.6516758e-03,-2.6407257e-04,8.3730251e-04,5.0362647e-03,-2.2213692e-02,6.3941961e-03
1.5199676e+00,6.8856179e-05,1.9193021e-04,1.1949590e-04,-1.3811447e-03,2.8786047e-02,-1.3182297e-03,1.0522625e-03,-3.3594840e-03,1.2513175e-03,-5.9941387e-02,-3.0954144e-01,4.1401538e-02
1.5299675e+00,-1.5076128e-05,-1.8029940e-04,-1.5175735e-05,-8.4121711e-03,-3.7219473e-02,-8.3899098e-03,4.6900897e-04,4.9705386e-05,-1.7581124e-04,-5.8325412e-02,3.4091926e-01,-1.4271301e-01
1.5399678e+00,4.2958280e-06,-2.0292832e-04,-7.8505940e-05,1.9365830e-03,-2.2636259e-03,1.9368008e-03,5.9544310e-04,1.8946414e-04,-4.0249626e-04,1.2643124e-02,1.3975556e-02,-2.2667982e-02
1.5499678e+00,5.3635368e-06,-1.7772475e-04,-1.3358537e-04,1.0757717e-04,2.5203997e-03,1.0500334e-04,2.9342504e-04,6.7469580e-04,-6.2450172e-04,-3.0201835e-02,4.8523212e-02,-2.2200568e-02
1.5599678e+00,5.6742376e-05,-1.2593758e-04,-1.2220850e-04,5.1418889e-03,5.1798506e-03,5.1327461e-03,1.5827273e-04,3.7841363e-04,-6.1920878e-04,-1.3515244e-02,-2.9628245e-02,5.2929531e-04
1.5699677e+00,1.5579599e-04,5.0110492e-04,-3.5144109e-04,9.8226080e-03,6.2699299e-02,1.0018859e-02,-1.5725229e-03,-2.0604151e-03,-1.6017019e-03,-1.7307973e-01,-2.4388310e-01,-9.8249407e-02
1.5799677e+00,3.5520816e-04,8.4579037e-04,-1.1414885e-04,1.9891124e-02,3.4399249e-02,2.0110282e-02,-1.3811693e-03,-4.8353682e-03,1.2462600e-04,1.9135374e-02,-2.7749558e-01,1.7263296e-01
1.5899677e+00,1.1041719e-04,6.9667092e-06,-6.3320924e-04,-2.4490705e-02,-8.3938902e-02,-2.4273144e-02,-1.8987517e-04,2.1266286e-03,-1.1245150e-03,1.1912953e-01,6.9620035e-01,-1.2491422e-01
1.5999677e+00,3.9785361e-05,-2.0913708e-05,-6.2180514e-04,-7.0707557e-03,-2.8028923e-03,-7.0497293e-03,1.7916242e-05,2.1232234e-03,-1.0647565e-03,2.0779161e-02,-3.4052520e-04,5.9758611e-03
1.6099677e+00,6.8682452e-05,-1.3973623e-04,-1.7087379e-04,2.8696204e-03,-1.1886840e-02,2.8909098e-03,1.6169003e-03,2.7662268e-05,3.0284176e-04,1.5989856e-01,-2.0955631e-01,1.3675995e-01
1.6199677e+00,6.7521835e-05,-1.6383963e-04,-1.3275321e-04,-1.2037377e-04,-2.4101383e-03,-1.1590902e-04,1.8100059e-03,8.5135588e-05,4.3545987e-04,1.9310575e-02,5.7473375e-03,1.3261824e-02
1.6299677e+00,1.1914954e-04,-3.8472135e-04,-2.1773814e-04,5.0996736e-03,-2.2091824e-02,5.2097425e-03,2.7407057e-03,2.0116756e-03,4.9297093e-04,9.3070072e-02,1.9265419e-01,5.7511110e-03
1.6399677e+00,-1.9973188e-04,-1.2685318e-03,-7.1492136e-04,-3.2134830e-02,-8.8632376e-02,-3.0928779e-02,2.0900183e-03,1.0137471e-02,-1.9464832e-03,-6.5068800e-02,8.1258027e-01,-2.4394565e-01
1.6499677e+00,5.6640516e-04,1.8978053e-03,-4.4379908e-05,7.5026075e-02,3.1636589e-01,7.9247409e-02,-5.0217570e-03,-8.3263211e-03,-4.3294198e-05,-7.1117821e-01,-1.8463809e+00,1.9031909e-01
1.6599677e+00,6.6849318e-04,2.0435742e-03,-6.8223540e-05,1.0132459e-02,1.4536013e-02,1.0342304e-02,-5.3157266e-03,-9.2406599e-03,-1.2525047e-04,-2.9396980e-02,-9.1433965e-02,-8.1956349e-03
1.6699677e+00,6.4503143e-04,2.0327918e-03,-4.2832083e-06,-2.3379762e-03,-1.0860004e-03,-2.3507801e-03,-7.2449883e-03,-3.9218168e-03,1.3947636e-04,-1.9292636e-01,5.3188482e-01,2.6472708e-02
1.6799676e+00,7.0808489e-04,1.6382752e-03,-2.6540896e-04,6.6171695e-03,-3.9386784e-02,6.3910571e-03,-7.8768162e-03,2.2092216e-03,-2.0022536e-04,-6.3182850e-02,6.1310442e-01,-3.3970204e-02
1.6899676e+00,2.2251806e-04,2.7621838e-04,-3.8373396e-04,-4.8535389e-02,-1.3618481e-01,-4.8636894e-02,-4.5634477e-04,-8.8811444e-04,-8.4103333e-04,7.4204785e-01,-3.0973390e-01,-6.4080858e-02
1.6999676e+00,9.1846888e-05,-4.9228727e-05,-6.4796960e-04,-1.3073150e-02,-3.2590393e-02,-1.2946775e-02,-4.0287361e-04,3.1075190e-03,-1.4652773e-03,5.3471204e-03,3.9956373e-01,-6.2424455e-02
1.7099676e+00,2.6968814e-04,6.5436268e-04,-2.9225273e-04,1.7727848e-02,7.0341272e-02,1.7910843e-02,-8.9431019e-04,-1.8948111e-03,-3.7320469e-04,-4.9143705e-02,-5.0023349e-01,1.0920736e-01
1.7199676e+00,7.0228859e-04,1.9668544e-03,-2.7569891e-04,4.2267904e-02,1.3155509e-01,4.3312021e-02,-7.3804323e-03,-2.2887579e-04,5.1619231e-04,-6.4861283e-01,1.6659369e-01,8.8939785e-02
1.7299676e+00,1.2870444e-04,-8.6428016e-05,-6.5165818e-04,-5.7339586e-02,-2.0551858e-01,-5.6692506e-02,-5.0347060e-04,2.8304885e-03,-1.4742917e-03,6.8769682e-01,3.0593672e-01,-1.9904859e-01
1.7399676e+00,1.4029807e-05,-1.4797159e-04,-3.1798409e-05,-1.1471024e-02,-6.1555129e-03,-1.1463307e-02,2.3617544e-04,3.3649480e-04,-1.8279402e-04,7.3964675e-02,-2.4939961e-01,1.2914989e-01
1.7499676e+00,6.9630407e-04,1.9623748e-03,-5.4310531e-05,6.7109816e-02,2.1078889e-01,7.0071411e-02,-5.3105355e-03,-8.7536970e-03,-5.8472890e-05,-5.5467163e-01,-9.0902005e-01,1.2432125e-02
1.7599676e+00,6.9694680e-04,2.0372556e-03,-7.7934837e-05,2.4492398e-05,7.4874160e-03,1.3317055e-04,-5.3122487e-03,-9.2011741e-03,1.3078497e-05,-1.7131886e-04,-4.4747751e-02,7.1551455e-03
1.7699542e+00,5.8690601e-04,1.8829443e-03,-5.5019949e-05,-1.0943463e-02,-1.5410197e-02,-1.1151305e-02,-4.8645146e-03,-8.5692623e-03,3.8591843e-06,4.4833315e-02,6.3275719e-02,-9.2316468e-04
1.7799542e+00,-9.7976737e-05,-1.6482504e-04,-9.3125382e-06,-6.8628132e-02,-2.0472343e-01,-6.8508939e-02,6.8656470e-04,-9.6770998e-05,1.1462771e-05,5.5510846e-01,8.4724994e-01,7.6035942e-04
1.7899544e+00,-3.3449065e-05,-8.3502238e-04,-5.8892283e-04,6.3103876e-03,-6.6985408e-02,6.9170718e-03,2.1873121e-03,6.9950105e-03,-6.7796210e-04,1.5007131e-01,7.0916192e-01,-6.8940909e-02
1.7999544e+00,-7.4126938e-05,-8.3609095e-04,-5.6236221e-04,-4.0704334e-03,-1.2595586e-04,-4.0646002e-03,2.2856643e-03,6.9856544e-03,-5.9230631e-04,9.8352288e-03,-9.3560831e-04,8.5655865e-03
1.8099544e+00,3.1782289e-05,-1.4290653e-04,-4.0926687e-05,1.0692434e-02,6.9306383e-02,1.0568271e-02,1.5969179e-03,4.6074355e-04,8.6651189e-04,-6.8874706e-02,-6.5249171e-01,1.4588196e-01
1.8199544e+00,1.0318752e-04,-6.3006674e-05,-1.4074226e-04,7.1489781e-03,7.9788878e-03,7.1444933e-03,1.3923508e-03,-1.6174478e-04,3.7380516e-04,-2.0456729e-02,-6.2248892e-02,-4.9270721e-02
1.8299544e+00,1.9037382e-04,-5.9165269e-05,-1.7711867e-04,8.7178673e-03,3.7413916e-04,8.7198454e-03,1.2498577e-03,1.0271246e-04,1.4278227e-04,-1.4249324e-02,2.6445749e-02,-2.3102311e-02
1.8399544e+00,1.0333651e-04,4.6577750e-04,-3.7547172e-04,-8.7867376e-03,5.2500895e-02,-8.5798524e-03,-1.2908908e-03,-2.0669975e-03,-1.7526153e-03,-2.5407510e-01,-2.1697120e-01,-1.8953994e-01
1.8499544e+00,7.1534043e-04,1.9421543e-03,-4.9268834e-05,6.0442863e-02,1.4741250e-01,6.2483060e-02,-5.2331914e-03,-8.7908451e-03,-2.5925295e-04,-3.9423043e-01,-6.7238540e-01,1.4933638e-01
1.8599544e+00,7.5964064e-04,1.9471026e-03,-7.2905664e-05,4.4282479e-03,4.8155830e-04,4.4332630e-03,-5.4487670e-03,-8.4394972e-03,-2.2227460e-04,-2.1557580e-02,3.5134827e-02,3.6978388e-03
1.8699543e+00,7.9367679e-04,1.9328137e-03,-7.1424765e-05,3.4120505e-03,-1.4364127e-03,3.3919886e-03,-5.6005690e-03,-7.8310779e-03,-1.4207066e-04,-1.5180217e-02,6.0841988e-02,8.0204014e-03
1.8799543e+00,4.8142051e-05,-7.9747063e-05,-2.1167574e-06,-7.4544130e-02,-2.0128672e-01,-7.4480699e-02,-6.5231258e-05,3.4347185e-04,-4.9815584e-05,5.5353430e-01,8.1745575e-01,9.2255166e-03
1.8899543e+00,-1.1321799e-04,-9.1464668e-04,-5.0180487e-04,-1.6244707e-02,-8.3583984e-02,-1.5529210e-02,1.0228006e-03,6.9838029e-03,-1.4451451e-03,1.0880329e-01,6.6403374e-01,-1.3953308e-01
1.8999543e+00,-9.3287211e-06,-5.8661134e-04,-3.9979353e-04,1.0445274e-02,3.2826460e-02,1.0259323e-02,1.6617540e-03,3.8944754e-03,-1.7711880e-04,6.3895407e-02,-3.0893304e-01,1.2680275e-01
1.9099543e+00,7.0640515e-06,-6.1694898e-04,-3.9089550e-04,1.6343250e-03,-3.0297164e-03,1.6516686e-03,1.7540132e-03,4.2063513e-03,-2.2570729e-04,9.2259297e-03,3.1187627e-02,-4.8588531e-03
1.9199543e+00,-2.1956112e-06,-6.1635862e-04,-3.7255023e-04,-9.2592882e-04,5.6946779e-05,-9.2613631e-04,1.8483843e-03,4.1044071e-03,-7.8163109e-05,9.4371136e-03,-1.0194435e-02,1.4754432e-02
1.9299543e+00,1.2804551e-04,-3.5166163e-04,-1.5380694e-04,1.3082858e-02,2.6459763e-02,1.2985439e-02,2.5959471e-03,1.8400634e-03,7.6260794e-04,7.4756350e-02,-2.2643459e-01,8.4077185e-02
1.9399543e+00,-4.3135028e-05,-8.2785414e-04,-3.9154292e-04,-1.7236289e-02,-4.7679950e-02,-1.6828152e-02,2.0849056e-03,5.6855338e-03,-1.1090662e-03,-5.1104197e-02,3.8454741e-01,-1.8716759e-01
1.9499543e+00,-5.9931918e-05,-1.6192607e-04,-5.0216192e-05,-1.6380308e-03,6.6593676e-02,-1.6888443e-03,6.3078135e-04,1.4252279e-04,-2.0602834e-04,-1.4541256e-01,-5.5430163e-01,9.0303868e-02
1.9599543e+00,6.6640623e-04,2.0313738e-03,-7.0766657e-05,7.1500149e-02,2.1903966e-01,7.4608668e-02,-5.2332333e-03,-9.0694436e-03,-2.0736157e-04,-5.8640202e-01,-9.2119752e-01,-1.3332311e-04
1.9699543e+00,7.0156732e-04,2.0078141e-03,-3.9211389e-05,3.5287011e-03,-2.3694103e-03,3.4943995e-03,-5.2409823e-03,-9.1025375e-03,-8.2309434e-05,-7.7490499e-04,-3.3093869e-03,1.2505226e-02
1.9799542e+00,1.1311015e-05,-1.3142608e-04,4.3373581e-05,-6.9126594e-02,-2.1388348e-01,-6.9050973e-02,5.0272615e-04,-8.7089697e-05,9.6179499e-05,5.7437139e-01,9.0154564e-01,1.7848910e-02
1.9899542e+00,1.3001519e-04,-7.4954061e-05,-6.7082050e-04,1.1888389e-02,5.6805248e-03,1.1836509e-02,-3.9636631e-04,2.4159640e-03,-1.7031343e-03,-8.9909332e-02,2.5030561e-01,-1.7993155e-01
1.9999542e+00,1.3197340e-04,2.1313158e-05,-6.8167085e-04,1.9288022e-04,9.6272529e-03,1.7158433e-04,-3.3511364e-04,2.4883288e-03,-1.4591013e-03,6.1252723e-03,7.2364887e-03,2.4403323e-02
2.0099542e+00,8.7731083e-05,6.9907332e-05,-7.1784874e-04,-4.4335109e-03,4.8473414e-03,-4.4282011e-03,-4.4294327e-04,2.2883404e-03,-1.6113885e-03,-1.0782973e-02,-1.9998868e-02,-1.5228732e-02
2.0199542e+00,6.7036367e-05,-5.3099171e-04,-4.2627881e-04,-2.1454344e-03,-6.0095985e-02,-1.7996190e-03,1.2518122e-03,4.4779217e-03,-3.5820589e-04,1.6947571e-01,2.1895834e-01,1.2531838e-01
2.0299528e+00,6.9524223e-05,-3.5777132e-05,-6.5766118e-04,2.3830723e-04,4.9529152e-02,1.0675962e-04,-2.1865551e-04,2.8621576e-03,-1.2688551e-03,-1.4706795e-01,-1.6159968e-01,-9.1078040e-02
2.0399530e+00,1.0241651e-04,-6.1432928e-04,-3.2665704e-04,3.2282979e-03,-5.7841274e-02,3.5601713e-03,1.0639371e-03,4.6967353e-03,-2.1248887e-04,1.2825633e-01,1.8345357e-01,1.0563421e-01
2.0499530e+00,-1.6025652e-05,-1.6520546e-04,4.7928402e-05,-1.1819935e-02,4.4918810e-02,-1.1844284e-02,5.0708397e-04,-3.2451753e-05,1.2807208e-04,-5.5685366e-02,-4.7291916e-01,3.4056128e-02
2.0599530e+00,-4.8250158e-05,-1.4316176e-04,2.4979786e-05,-3.2205207e-03,2.2099370e-03,-3.2205740e-03,7.7576609e-04,-9.5160714e-04,6.8879769e-05,2.6868237e-02,-9.1915626e-02,-5.9192371e-03
2.0699530e+00,6.4553671e-04,2.0075665e-03,-7.5370972e-05,6.8279258e-02,2.1476287e-01,7.1400849e-02,-5.1577729e-03,-9.4499076e-03,-1.5454122e-04,-5.9335446e-01,-8.4983086e-01,-2.2342121e-02
2.0799530e+00,5.3536721e-04,2.2033029e-03,-1.8223681e-04,-1.1175045e-02,1.9534669e-02,-1.0926576e-02,-7.7960776e-03,-4.3297548e-03,-5.2869861e-04,-2.6383072e-01,5.1201577e-01,-3.7415774e-02
2.0899529e+00,5.4838934e-04,2.2241536e-03,-1.8680364e-04,1.2865566e-03,2.0893080e-03,1.3109524e-03,-7.7700766e-03,-4.4514181e-03,-4.4732040e-04,2.6001084e-03,-1.2166349e-02,8.1378289e-03
2.0999529e+00,6.9691365e-04,1.8219782e-03,-3.7778132e-04,1.5137531e-02,-4.0071992e-02,1.4957754e-02,-7.3029908e-03,2.4177730e-03,5.5351686e-04,4.6708618e-02,6.8691977e-01,1.0008382e-01
2.1099529e+00,6.3318386e-04,2.0477540e-03,-3.2101849e-04,-6.5358024e-03,2.2534526e-02,-6.3605609e-03,-7.3737815e-03,-7.1028248e-04,5.4756933e-04,-7.0790766e-03,-3.1280585e-01,-5.9475343e-04
2.1199529e+00,6.6642986e-04,2.0150429e-03,-2.7568292e-04,3.3469638e-03,-3.2477579e-03,3.3250684e-03,-7.4179682e-03,-4.1907978e-04,5.4524808e-04,-4.4186662e-03,2.9120298e-02,-2.3212544e-04
2.1299529e+00,7.0562324e-04,2.2910609e-03,-2.1873638e-04,3.7174172e-03,2.7615635e-02,4.0175270e-03,-7.2648965e-03,-3.5099197e-03,3.3131776e-04,1.5307182e-02,-3.0908428e-01,-2.1393052e-02
2.1399529e+00,6.8713064e-04,2.0012743e-03,-3.2484173e-04,-1.6347679e-03,-2.8990643e-02,-1.8638602e-03,-7.3768873e-03,-4.8301704e-04,3.6395984e-04,-1.1199095e-02,3.0269055e-01,3.2642109e-03
2.1499529e+00,6.6093942e-04,1.7054629e-03,-2.6184951e-04,-2.3874659e-03,-2.9605529e-02,-2.5646512e-03,-7.8426641e-03,1.8273864e-03,-1.5812380e-04,-4.6577725e-02,2.3104056e-01,-5.2208413e-02
2.1599529e+00,5.0164415e-05,-1.1304490e-04,6.0201111e-05,-6.1131781e-02,-1.8181644e-01,-6.1126054e-02,3.4772495e-04,-2.1712888e-04,1.4747687e-04,8.1903969e-01,-2.0445172e-01,3.0560096e-02
2.1699529e+00,9.0933231e-05,1.5038528e-05,-3.4640276e-05,4.0763245e-03,1.2807693e-02,4.0795257e-03,-1.3410346e-04,-2.9643093e-04,-2.8376302e-04,-4.8182887e-02,-7.9302122e-03,-4.3124030e-02
2.1799529e+00,5.3970951e-05,-4.6113018e-05,-8.2392388e-05,-3.6984255e-03,-6.1139813e-03,-3.6959876e-03,5.9424244e-05,-2.5964950e-04,-4.9536519e-04,1.9352789e-02,3.6781466e-03,-2.1160237e-02
2.1899529e+00,7.0930330e-06,-2.1658537e-04,-7.1966981e-05,-4.6988393e-03,-1.7046087e-02,-4.6809700e-03,5.2949121e-04,2.8184597e-04,-4.3042983e-04,4.7006742e-02,5.4149598e-02,6.4935413e-03
2.1999528e+00,8.2904445e-05,-6.7243366e-04,-3.7161932e-04,7.5211832e-03,-4.5561503e-02,7.7787858e-03,1.3727627e-03,4.3932085e-03,-3.4552351e-04,8.4327231e-02,4.1113664e-01,8.4906408e-03
2.2099528e+00,8.0412425e-05,-4.3925220e-05,-6.7504887e-04,-2.6560955e-04,6.2849840e-02,-4.3293600e-04,-2.5595459e-04,2.9287814e-03,-1.2859794e-03,-1.6287189e-01,-1.4644285e-01,-9.4045684e-02
2.2199528e+00,5.4515027e-05,-5.9027777e-04,-3.4419374e-04,-2.6680490e-03,-5.4643186e-02,-2.3311136e-03,1.4351361e-03,4.7354186e-03,3.8462992e-05,1.6910923e-01,1.8066389e-01,1.3244437e-01
2.2299218e+00,-6.6737216e-06,-5.7354444e-04,-3.6039950e-04,-6.1352809e-03,1.6615899e-03,-6.1451349e-03,1.5182787e-03,4.2764513e-03,1.1125435e-05,8.3401215e-03,-4.6039474e-02,-2.7422578e-03
2.2399218e+00,2.0872495e-05,-5.2380020e-04,-3.5540484e-04,2.7626339e-03,4.9793674e-03,2.7376278e-03,1.6489947e-03,3.4548287e-03,6.8762859e-05,1.3071605e-02,-8.2162335e-02,5.7637479e-03
2.2499218e+00,7.3610922e-05,-4.6667943e-05,-6.6659122e-04,5.2645705e-03,4.7725872e-02,5.1680399e-03,-3.6459828e-04,2.0473966e-03,-1.5407241e-03,-2.0135949e-01,-1.4074335e-01,-1.6094885e-01
2.2599218e+00,-9.4078980e-06,-1.5114538e-05,-3.3249152e-05,-8.3035425e-03,3.1620103e-03,-8.2976995e-03,1.8232286e-04,-6.2097547e-04,-2.6840825e-04,5.4692166e-02,-2.6683746e-01,1.2723171e-01
2.2699218e+00,-1.8048946e-05,-4.2066336e-05,-3.2959262e-05,-8.6495874e-04,-2.6946975e-03,-8.6476386e-04,2.1955459e-04,-3.4133562e-04,-3.0252594e-04,3.7231760e-03,2.7964012e-02,-3.4117722e-03
2.2799218e+00,6.7646548e-04,1.9558330e-03,-1.8661309e-04,6.8365825e-02,1.9964040e-01,7.0943252e-02,-5.7236473e-03,-7.7523359e-03,-8.4951608e-04,-5.9432075e-01,-7.4110074e-01,-5.4699067e-02
2.2899220e+00,9.0888446e-04,1.6433097e-03,-2.6558160e-04,2.3500095e-02,-3.1003296e-02,2.3313662e-02,-8.0344048e-03,2.6030959e-03,-3.6121227e-04,-2.3107047e-01,1.0355195e+00,4.8829264e-02
2.2999220e+00,4.6418988e-04,-2.5106309e-04,-7.2027884e-04,-4.4582910e-02,-1.8956592e-01,-4.3803555e-02,1.9638643e-04,3.1110812e-03,-1.7151900e-03,8.2307991e-01,5.0798577e-02,-1.3539790e-01
2.3099220e+00,5.8707680e-04,-2.3263685e-04,-6.5919180e-04,1.2305116e-02,1.8804353e-03,1.2266532e-02,1.0990609e-04,3.1916799e-03,-1.3200097e-03,-8.6480431e-03,8.0598830e-03,3.9518069e-02
2.3199220e+00,6.0892498e-04,-1.8890778e-04,-5.7806117e-04,2.1869861e-03,4.3789803e-03,2.1704519e-03,4.4563883e-05,2.8327337e-03,-9.0246189e-04,-6.5342266e-03,-3.5894658e-02,4.1754818e-02
2.3299220e+00,6.5842581e-04,-5.2522589e-05,-4.8111030e-04,4.9490339e-03,1.3650007e-02,4.9194168e-03,-2.6529803e-04,2.0597871e-03,-5.1835878e-04,-3.0986221e-02,-7.7294734e-02,3.8410348e-02
2.3399220e+00,5.7052513e-04,-1.3474688e-04,-4.8500719e-04,-8.7952630e-03,-8.2441803e-03,-8.7644834e-03,-7.1245934e-05,2.4067177e-03,-6.5698089e-04,1.9405228e-02,3.4693092e-02,-1.3862224e-02
2.3499219e+00,3.3471108e-04,-6.6560744e-04,-3.1481082e-04,-2.3670459e-02,-5.3138290e-02,-2.3373781e-02,1.7543877e-03,3.9879668e-03,1.7238455e-04,1.8256354e-01,1.5812506e-01,8.2936623e-02
2.3599219e+00,-5.4763972e-05,-2.8328663e-04,-8.3338493e-05,-3.8908905e-02,3.8293387e-02,-3.8925962e-02,1.2954068e-03,-2.7868720e-04,-2.8044831e-04,-4.5898137e-02,-4.2666581e-01,-4.5283329e-02
2.3699219e+00,-2.6171649e-04,-2.9532429e-04,-9.9304096e-05,-2.0705529e-02,-1.1759794e-03,-2.0686607e-02,1.2036666e-03,-1.3906727e-04,-4.2644122e-04,-9.1740294e-03,1.3962006e-02,-1.4599306e-02
2.3799219e+00,-4.0762552e-04,-3.0915004e-04,-5.7822442e-05,-1.4595767e-02,-1.3742039e-03,-1.4586856e-02,8.5038760e-04,2.7674557e-04,-2.5222567e-04,-3.5327932e-02,4.1581324e-02,1.7421572e-02
2.3899219e+00,-5.4657747e-04,-2.1730355e-04,-6.7089102e-06,-1.3884711e-02,9.1859863e-03,-1.3904819e-02,5.6258306e-04,4.6658933e-04,3.8333161e-04,-2.8780481e-02,1.8984394e-02,6.3555788e-02
2.3999219e+00,-8.0841270e-04,-2.5820742e-04,5.7201678e-05,-2.6162697e-02,-4.0842677e-03,-2.6205339e-02,8.3050685e-04,5.9616924e-04,9.2534102e-04,2.6792404e-02,1.2958003e-02,5.4200993e-02
2.4099219e+00,-1.1052728e-03,-7.6002464e-05,1.2302497e-04,-2.9633015e-02,1.8297755e-02,-2.9691499e-02,1.0842410e-03,-1.5170952e-03,1.1193473e-03,2.5373442e-02,-2.1132665e-01,1.9400647e-02
2.4199219e+00,-1.4745289e-03,-3.2704749e-04,-8.8687800e-05,-3.6956028e-02,-2.5063835e-02,-3.6922894e-02,1.7745802e-03,6.7356368e-04,3.8204152e-04,6.9033988e-02,2.1906610e-01,-7.3730650e-02
2.4299219e+00,-1.8479845e-03,-1.0093212e-04,8.6761111e-05,-3.7243903e-02,2.2725859e-02,-3.7377753e-02,2.0951184e-03,-9.6571821e-04,1.4512132e-03,3.2053841e-02,-1.6392835e-01,1.0691727e-01
2.4399219e+00,-2.3657075e-03,-2.3690787e-04,1.5601680e-04,-5.1706476e-02,-1.3452985e-02,-5.1875860e-02,2.4346304e-03,-3.5694670e-04,1.9070714e-03,3.3951238e-02,6.0877210e-02,4.5585860e-02
2.4499218e+00,-2.9875195e-03,-9.8673783e-04,-3.2318966e-04,-6.2391553e-02,-7.5235143e-02,-6.1663966e-02,3.1688987e-03,7.2574148e-03,4.3417048e-04,7.3426900e-02,7.6143688e-01,-1.4729023e-01
2.4599218e+00,-3.4227845e-03,-8.7538391e-04,-3.1158520e-04,-4.3456029e-02,1.0987653e-02,-4.3634414e-02,3.3475671e-03,6.7296747e-03,7.5772175e-04,1.7866855e-02,-5.2774067e-02,3.2355158e-02
2.4699063e+00,-3.1420649e-03,1.7052747e-03,-2.9021974e-04,2.6469814e-02,2.5870114e-01,2.7550870e-02,-6.2290473e-03,2.3111529e-03,1.2512711e-03,-9.5914877e-01,-4.4253841e-01,4.9431584e-02
2.4799063e+00,-4.0401526e-03,1.3780131e-03,-4.3226743e-05,-8.9688112e-02,-3.1944580e-02,-9.0210036e-02,-1.2553550e-03,-9.9314574e-03,8.8580901e-04,4.9736970e-01,-1.2242622e+00,-3.6546241e-02
2.4899063e+00,-4.0720058e-03,2.0684892e-03,9.1322056e-05,-3.6127182e-03,6.9045053e-02,-2.7574657e-03,-6.2498873e-03,-6.2645038e-03,1.2787784e-03,-4.9945371e-01,3.6669571e-01,3.9296978e-02
2.4999063e+00,-4.9949847e-03,9.0930675e-04,-1.5737523e-04,-9.2165260e-02,-1.1531577e-01,-9.3181202e-02,-1.1466410e-03,-7.6379918e-03,-2.8487720e-06,5.1032511e-01,-1.3734894e-01,-1.2816284e-01
2.5099063e+00,-5.1189273e-03,2.0203694e-03,5.5284059e-05,-1.3122115e-02,1.1110226e-01,-1.1660165e-02,-6.6855599e-03,-6.7498893e-03,1.1841423e-03,-5.5389242e-01,8.8810336e-02,1.1869922e-01
2.5199063e+00,-6.4170162e-03,3.0999636e-05,-5.8076779e-04,-1.3011143e-01,-1.9864667e-01,-1.2995104e-01,2.1585067e-04,-2.0229375e-03,-2.0009627e-03,6.9014171e-01,4.7269563e-01,-3.1851080e-01
2.5299063e+00,-6.3621321e-03,1.6783216e-03,5.8400659e-05,4.4456942e-03,1.6474503e-01,6.0251297e-03,-6.2853956e-03,-3.2222056e-03,1.3131210e-03,-6.5012525e-01,-1.1992693e-01,3.3140868e-01
2.5399065e+00,-7.6006312e-03,-7.7220676e-05,-2.8410807e-04,-1.2397628e-01,-1.7533520e-01,-1.2402227e-01,3.0725577e-04,-1.4281498e-03,-6.0791700e-04,6.5925005e-01,1.7940147e-01,-1.9209940e-01
2.5499065e+00,-7.4646565e-03,1.6845001e-03,5.0475156e-05,1.2482933e-02,1.7620997e-01,1.4165703e-02,-6.2198803e-03,-3.1277499e-03,1.3615699e-03,-6.5271423e-01,-1.6996017e-01,1.9694888e-01
2.5599065e+00,-8.6317492e-03,-2.4436353e-04,-5.0056023e-04,-1.1698942e-01,-1.9263528e-01,-1.1684393e-01,1.0802859e-03,-1.0713694e-03,-6.1478705e-04,7.3001731e-01,2.0563825e-01,-1.9763589e-01
2.5699065e+00,-8.4225905e-03,1.9787679e-03,1.3330497e-04,1.9526359e-02,2.2229163e-01,2.2435026e-02,-6.0228928e-03,-6.6210073e-03,2.3968642e-03,-7.1031854e-01,-5.5496431e-01,3.0116541e-01
2.5799065e+00,-9.4322851e-03,1.1708412e-03,1.6469993e-05,-1.0069950e-01,-7.9904003e-02,-1.0194179e-01,-1.4205955e-03,-1.0165047e-02,1.5356644e-03,4.6023017e-01,-3.5440434e-01,-8.6120055e-02
2.5899065e+00,-9.7978717e-03,1.5124009e-03,1.9286957e-04,-3.6687789e-02,3.4061523e-02,-3.6517509e-02,-5.7442800e-03,-3.1741769e-03,1.8175531e-03,-4.3236887e-01,6.9908770e-01,2.8188892e-02
2.5999064e+00,-1.1427696e-02,2.8731923e-04,-4.2243875e-04,-1.6340046e-01,-1.2112873e-01,-1.6359424e-01,1.3122012e-03,-7.1438024e-03,-1.5794189e-03,7.0564879e-01,-3.9696292e-01,-3.3969752e-01
2.6099064e+00,-1.1072226e-02,1.3110073e-03,1.3695957e-04,3.4997189e-02,1.0248152e-01,3.5767519e-02,-4.3614254e-03,-1.1607213e-03,2.8953014e-03,-5.6736320e-01,5.9830868e-01,4.4747245e-01
2.6199064e+00,-1.2610435e-02,-4.2272676e-04,-6.5005470e-04,-1.5438411e-01,-1.7264440e-01,-1.5407677e-01,3.3287915e-03,-1.4041292e-03,8.5541415e-05,7.6902243e-01,-2.4340813e-02,-2.8097626e-01
2.6299064e+00,-1.2321839e-02,1.2869999e-03,9.7397015e-05,2.7959224e-02,1.7104448e-01,2.9317608e-02,-4.7967228e-03,-2.2249417e-03,2.7647797e-03,-8.1255221e-01,-8.2081329e-02,2.6792408e-01
2.6399064e+00,-1.3137344e-02,6.1034635e-04,1.1317719e-04,-8.1376764e-02,-6.6976019e-02,-8.2289817e-02,6.6477213e-04,-7.7431585e-03,2.6782767e-03,5.4615002e-01,-5.5182221e-01,-8.6503111e-03
2.6499064e+00,-1.3631217e-02,2.1793409e-04,1.4546064e-04,-4.9245495e-02,-3.9038620e-02,-4.9688723e-02,4.5410514e-04,-3.6320125e-03,3.2282527e-03,-2.1066720e-02,4.1111499e-01,5.4997660e-02
2.6599064e+00,-1.3973485e-02,1.1388385e-03,1.9673173e-04,-3.4488759e-02,9.2036734e-02,-3.4108443e-02,-4.0958676e-03,-2.5466846e-03,3.3540668e-03,-4.5499771e-01,1.0853289e-01,1.2581418e-02
2.6699064e+00,-1.5315234e-02,-2.8193528e-04,-8.8105537e-05,-1.3424099e-01,-1.4148015e-01,-1.3473916e-01,1.4802525e-03,-2.9628903e-03,1.0744419e-03,5.5761255e-01,-4.1620605e-02,-2.2796271e-01
2.6799064e+00,-1.6043994e-02,-5.0590092e-04,-2.1474321e-04,-7.2869005e-02,-2.2083229e-02,-7.2978533e-02,1.9228683e-03,-2.3739250e-03,6.8472253e-04,4.4261620e-02,5.8896577e-02,-3.8971974e-02
2.6899064e+00,-1.6470459e-02,1.1015861e-04,-9.8121138e-05,-4.2478312e-02,6.2041404e-02,-4.2180791e-02,1.4936434e-03,-8.7572677e-03,1.7852196e-03,-4.2922533e-02,-6.3833488e-01,1.1004981e-01
2.6999063e+00,-1.7356042e-02,-7.1366615e-04,-2.8459088e-04,-8.8671211e-02,-8.1922839e-02,-8.8871393e-02,1.7738292e-03,-3.4091314e-03,3.7443561e-04,2.8018609e-02,5.3481415e-01,-1.4107853e-01
2.7099063e+00,-1.7855449e-02,-2.1518661e-04,-8.2508405e-05,-4.9786260e-02,5.0248822e-02,-4.9692638e-02,9.3228185e-04,-7.1040408e-03,2.1595386e-03,-8.4154814e-02,-3.6949129e-01,1.7851047e-01
2.7199063e+00,-1.8370900e-02,5.5493610e-04,-1.5042049e-04,-5.1231409e-02,7.7631553e-02,-5.0925506e-02,9.7368328e-04,-1.1080929e-02,4.6223727e-03,4.1401467e-03,-3.9768920e-01,2.4628365e-01
2.7299063e+00,-1.9475893e-02,-4.5101540e-04,-2.7660385e-04,-1.1052391e-01,-9.9492731e-02,-1.1146876e-01,4.0963586e-03,-5.8377463e-03,3.4925831e-03,3.1226782e-01,5.2431877e-01,-1.1297907e-01
2.7399063e+00,-2.0545808e-02,-3.2386119e-04,4.2433892e-05,-1.0663294e-01,1.3943481e-02,-1.0719641e-01,3.8572461e-03,-7.6033799e-03,2.8819948e-03,-2.3911269e-02,-1.7656353e-01,-6.1058884e-02
2.7499063e+00,-2.2025765e-02,-1.0119075e-03,-2.9083362e-04,-1.4807411e-01,-6.7715250e-02,-1.4841948e-01,3.6279591e-03,-3.7228666e-03,1.1507290e-03,-2.2928716e-02,3.8805170e-01,-1.7312675e-01
2.7599063e+00,-2.2982867e-02,-1.3092495e-03,-3.6532854e-04,-9.5831505e-02,-2.9148814e-02,-9.5769157e-02,4.0850097e-03,-2.0283160e-03,-5.2332554e-06,4.5705100e-02,1.6945522e-01,-1.1559634e-01
2.7699063e+00,-2.3655469e-02,-1.8313931e-03,-5.0427578e-04,-6.7528570e-02,-5.2036766e-02,-6.7128803e-02,4.9879303e-03,2.3589693e-03,-1.3055728e-04,9.0292148e-02,4.3872895e-01,-1.2532415e-02
2.7799063e+00,-2.4283234e-02,-1.4744657e-03,-8.8157861e-05,-6.2524782e-02,3.5998011e-02,-6.2853657e-02,3.9577801e-03,-9.0771978e-04,1.7523865e-03,-1.0301512e-01,-3.2666922e-01,1.8829456e-01
2.7899065e+00,-2.4481312e-02,-3.0150848e-04,4.7047965e-04,-1.9966478e-02,1.1724571e-01,-1.9927372e-02,-2.0839753e-03,2.9149849e-04,4.2928202e-03,-6.0416171e-01,1.1991908e-01,2.5403756e-01
2.7999065e+00,-2.6107750e-02,-1.0897214e-03,1.4698001e-05,-1.6258196e-01,-7.7501936e-02,-1.6333847e-01,3.0496336e-03,-5.0450454e-03,1.8525260e-03,5.1336137e-01,-5.3365490e-01,-2.4402965e-01
2.8099065e+00,-2.7085305e-02,-1.3571742e-04,3.5538531e-04,-9.7221658e-02,9.6927331e-02,-9.6781291e-02,2.4645997e-03,-1.3202904e-02,3.0493453e-03,-5.8503443e-02,-8.1578668e-01,1.1968205e-01
2.8199065e+00,-2.8698881e-02,-2.2826683e-03,-3.6924542e-05,-1.6241434e-01,-2.1419136e-01,-1.6096700e-01,5.2227707e-03,2.1199495e-03,3.8743464e-04,2.7581736e-01,1.5322869e+00,-2.6619132e-01
2.8299065e+00,-3.0019542e-02,-2.6287387e-03,1.1545851e-05,-1.3227068e-01,-3.4164934e-02,-1.3197662e-01,6.6328837e-03,3.2915636e-03,1.6764342e-04,1.4101144e-01,1.1716152e-01,-2.1979143e-02
2.8399065e+00,-3.0979069e-02,-1.7874977e-03,-2.4075989e-07,-9.5537309e-02,8.4605475e-02,-9.5944325e-02,4.7429855e-03,-2.8278086e-04,1.6114414e-04,-1.8899000e-01,-3.5743479e-01,-6.4992874e-04
2.8499064e+00,-3.1789845e-02,-1.9350509e-03,1.1584240e-04,-8.1033742e-02,-1.4322245e-02,-8.1199036e-02,5.0458976e-03,-2.9308576e-04,1.4455785e-03,3.0291237e-02,-1.0304910e-03,1.2844356e-01
2.8599064e+00,-3.2441873e-02,-1.7643127e-03,2.6820638e-04,-6.4894174e-02,1.7445997e-02,-6.5411978e-02,4.5464964e-03,-1.1599633e-03,3.5272573e-03,-4.9940167e-02,-8.6687838e-02,2.0816808e-01
2.8698242e+00,-3.3106263e-02,-1.3975908e-03,2.2268911e-04,-6.6639631e-02,3.7088954e-02,-6.7276840e-02,2.3084573e-03,6.2374164e-04,3.9473335e-03,-2.2566028e-01,1.7985001e-01,4.2356048e-02
2.8798242e+00,-3.4003790e-02,-4.1286536e-04,6.5965790e-04,-8.9114318e-02,9.9698536e-02,-8.9032804e-02,2.0833518e-03,-1.1596188e-02,4.8145771e-03,-2.2510572e-02,-1.2219941e+00,8.6724450e-02
2.8898242e+00,-3.5734985e-02,-4.2214972e-04,5.5591699e-04,-1.7244368e-01,1.6377105e-03,-1.7378776e-01,1.8550225e-03,-1.2917660e-02,3.9052642e-03,-2.2832958e-02,-1.3214733e-01,-9.0931374e-02
2.8998241e+00,-3.7254647e-02,-2.3480926e-04,3.9611252e-04,-1.5138455e-01,2.1423792e-02,-1.5219142e-01,2.8615315e-03,-1.4801649e-02,3.4654242e-03,1.0065100e-01,-1.8839905e-01,-4.3984051e-02
2.9098241e+00,-3.8672932e-02,-5.0355251e-04,5.2944849e-04,-1.4151707e-01,-2.4453459e-02,-1.4257604e-01,3.4386507e-03,-1.3574138e-02,2.8387014e-03,5.7711978e-02,1.2275116e-01,-6.2672332e-02
2.9198241e+00,-4.0468676e-02,-2.3209572e-03,9.7990243e-04,-1.8051650e-01,-1.7871166e-01,-1.8165803e-01,8.9909534e-03,-7.7757738e-03,3.8061472e-03,5.5523079e-01,5.7983702e-01,9.6744665e-02
2.9298241e+00,-4.1641805e-02,-2.9886193e-03,1.3646450e-04,-1.1777080e-01,-6.5735713e-02,-1.1743628e-01,9.5418593e-03,7.8197253e-04,1.4816618e-03,5.5090643e-02,8.5577544e-01,-2.3244876e-01
2.9398241e+00,-4.2406363e-02,-1.8558047e-03,7.8467989e-04,-7.5217923e-02,1.1446129e-01,-7.5924772e-02,7.9281266e-03,-7.5584634e-03,4.4031686e-03,-1.6137342e-01,-8.3404439e-01,2.9215096e-01
2.9498241e+00,-4.3727193e-02,-2.1175084e-03,6.0595350e-04,-1.3174655e-01,-2.4689629e-02,-1.3270303e-01,6.9647816e-03,-4.2232506e-03,3.8967487e-03,-9.6334589e-02,3.3352159e-01,-5.0642037e-02
2.9598241e+00,-4.5257737e-02,-2.8323782e-03,7.0362819e-04,-1.5309019e-01,-7.0054798e-02,-1.5367987e-01,8.4009997e-03,-9.3675604e-04,3.6489509e-03,1.4362194e-01,3.2864977e-01,-2.4779803e-02
2.9698241e+00,-4.7079781e-02,-3.0514321e-03,1.2709850e-03,-1.8149903e-01,-1.8640625e-02,-1.8326893e-01,1.0776422e-02,-7.0962270e-03,5.0968636e-03,2.3754250e-01,-6.1594768e-01,1.4479141e-01
2.9798241e+00,-4.9108324e-02,-3.9954753e-03,8.2330671e-04,-2.0334401e-01,-9.2190663e-02,-2.0338170e-01,1.1271887e-02,3.8719857e-04,2.7647112e-03,4.9546520e-02,7.4834327e-01,-2.3321547e-01
2.9898241e+00,-5.0741835e-02,-3.4703289e-03,1.2724985e-03,-1.6213939e-01,5.5074630e-02,-1.6371533e-01,1.0788673e-02,-4.8867315e-03,3.8851925e-03,-4.8321448e-02,-5.2739351e-01,1.1204823e-01
2.9998240e+00,-5.2323284e-02,-3.3720162e-03,1.0033407e-03,-1.5737824e-01,1.2325778e-02,-1.5873403e-01,1.0091682e-02,-5.6628047e-03,4.1614547e-03,-6.9699191e-02,-7.7607390e-02,2.7626245e-02
3.0098240e+00,-5.3983491e-02,-3.0597690e-03,1.3284374e-03,-1.6479694e-01,3.4682652e-02,-1.6655307e-01,1.0059766e-02,-1.0731838e-02,5.4149750e-03,-3.1915438e-03,-5.0690381e-01,1.2535216e-01
3.0198240e+00,-5.5994529e-02,-4.1500111e-03,9.3010896e-04,-2.0141327e-01,-1.0600630e-01,-2.0240387e-01,1.1281032e-02,-3.6717759e-03,4.5041458e-03,1.2212663e-01,7.0600687e-01,-9.1083006e-02
3.0298240e+00,-5.7892151e-02,-2.5898209e-03,8.1254272e-04,-1.8786274e-01,1.5946363e-01,-1.8878666e-01,7.4101059e-03,-1.0770812e-02,3.8829952e-03,-3.8709294e-01,-7.0990427e-01,-6.2115119e-02
3.0398242e+00,-6.0141760e-02,-2.4971163e-03,6.5810603e-04,-2.2402397e-01,1.3942433e-02,-2.2564351e-01,8.2132897e-03,-1.2514745e-02,3.7628364e-03,8.0316544e-02,-1.7438931e-01,-1.2015611e-02
3.0498242e+00,-6.2195234e-02,-2.6433276e-03,8.3606711e-04,-2.0475125e-01,-1.0353570e-02,-2.0620075e-01,8.2112309e-03,-1.2520928e-02,3.4489004e-03,-2.0588781e-04,-6.1830800e-04,-3.1393626e-02
3.0598242e+00,-6.4582539e-02,-3.1707592e-03,7.9788346e-04,-2.3871471e-01,-4.7759940e-02,-2.3979333e-01,9.1195154e-03,-1.1707331e-02,2.0381914e-03,9.0828537e-02,8.1359744e-02,-1.4107103e-01
3.0698242e+00,-6.6761038e-02,-3.6561121e-03,1.0841027e-03,-2.1762876e-01,-4.3570842e-02,-2.1911715e-01,1.0769520e-02,-1.1951400e-02,3.3517615e-03,1.6500062e-01,-2.4406890e-02,1.3135713e-01
3.0798242e+00,-6.8923094e-02,-3.3087225e-03,1.0071491e-03,-2.1542177e-01,3.9658406e-02,-2.1614211e-01,8.5866061e-03,-1.4159061e-02,2.2076350e-03,-2.1829160e-01,-2.2076635e-01,-1.1441276e-01
3.0898242e+00,-7.1429929e-02,-3.7368183e-03,9.8662914e-04,-2.5069266e-01,-3.7191639e-02,-2.5156975e-01,9.8947843e-03,-1.2475404e-02,1.6040178e-03,1.3081795e-01,1.6836591e-01,-6.0361772e-02
3.0998242e+00,-7.3754190e-02,-3.9262574e-03,1.1718379e-03,-2.3207718e-01,-1.3445619e-02,-2.3315711e-01,1.0070643e-02,-1.3544705e-02,2.2695561e-03,1.7585861e-02,-1.0693022e-01,6.6553886e-02
3.1098242e+00,-7.6013641e-02,-4.0912134e-03,1.3355264e-03,-2.2534771e-01,-1.0858705e-02,-2.2688149e-01,1.0509215e-02,-1.4380929e-02,3.3514858e-03,4.3857216e-02,-8.3622459e-02,1.0819308e-01
3.1198242e+00,-7.8796846e-02,-4.9934277e-03,8.9071620e-04,-2.7901410e-01,-8.4701050e-02,-2.7935930e-01,1.1286989e-02,-8.5068858e-03,1.1031023e-03,7.7777566e-02,5.8740486e-01,-2.2483857e-01
3.1298242e+00,-8.1379341e-02,-6.1932765e-03,1.1542280e-03,-2.5947132e-01,-1.1539689e-01,-2.5911484e-01,1.4054905e-02,-3.6565560e-03,1.6995602e-03,2.7679183e-01,4.8503344e-01,5.9645850e-02
3.1398242e+00,-8.4010307e-02,-6.1642424e-03,1.3251642e-03,-2.6241668e-01,7.8121637e-03,-2.6367540e-01,1.3551442e-02,-5.0960158e-03,2.3408741e-03,-5.0346352e-02,-1.4394611e-01,6.4131452e-02
3.1498241e+00,-8.6462436e-02,-5.7399590e-03,1.5872069e-03,-2.4397584e-01,4.7382609e-02,-2.4553998e-01,1.2189968e-02,-8.0101500e-03,2.8585914e-03,-1.3614751e-01,-2.9141370e-01,5.1771778e-02
3.1598241e+00,-8.9313577e-02,-7.4904829e-03,1.5080113e-03,-2.8724822e-01,-1.6952452e-01,-2.8631036e-01,1.6724632e-02,-2.5703327e-03,2.6401887e-03,4.5346684e-01,5.4398225e-01,-2.1840294e-02
