time, x, y, z, vx, vy, vz, yaw, pitch, roll, yaw_rate, pitch_rate, roll_rate
0.0000000e+00,0.0000000e+00,0.0000000e+00,0.0000000e+00,0.0000000e+00,0.0000000e+00,0.0000000e+00,0.0000000e+00,0.0000000e+00,0.0000000e+00,0.0000000e+00,0.0000000e+00,0.0000000e+00
9.9999905e-03,4.4759024e-05,2.7874105e-05,2.5616635e-05,4.4745442e-03,2.7883370e-03,4.4766933e-03,-1.6950530e-04,3.6908297e-05,1.9879074e-04,-1.6950546e-02,3.6908332e-03,1.9879093e-02
1.9999981e-02,7.2133983e-05,3.1530773e-05,-3.2064349e-05,2.7371914e-03,3.6809344e-04,2.7374805e-03,-5.5995603e-04,3.2637534e-04,3.7252954e-05,-3.9045110e-02,2.8946732e-02,-1.6153794e-02
2.9999971e-02,4.9875972e-05,2.8323417e-05,-6.4164943e-05,-2.2256436e-03,-3.2080476e-04,-2.2259530e-03,-2.2527315e-04,-1.9432246e-04,3.9243466e-05,3.3468320e-02,-5.2069830e-02,1.9905140e-04
3.9999962e-02,3.2714910e-05,5.9762245e-05,-3.3134817e-05,-1.7160269e-03,3.1448671e-03,-1.7143898e-03,3.2122424e-05,-5.3998397e-04,-1.1704933e-05,2.5739582e-02,-3.4566183e-02,-5.0948448e-03
4.9999952e-02,7.2162113e-05,6.0195004e-05,2.8363810e-05,3.9439136e-03,4.3416124e-05,3.9455329e-03,-2.0525543e-04,-1.6966881e-04,2.0317095e-04,-2.3737808e-02,3.7031551e-02,2.1487609e-02
5.9999943e-02,5.1411355e-05,2.7082157e-05,2.3600438e-05,-2.0745430e-03,-3.3113410e-03,-2.0755277e-03,-8.9220362e-05,-6.3577197e-05,1.1535095e-04,1.1603517e-02,1.0609172e-02,-8.7820085e-03
6.9999933e-02,4.3283907e-05,1.1566524e-04,6.5648693e-05,-8.0916195e-04,8.8593266e-03,-8.0528447e-04,4.0127883e-04,-8.4545601e-04,3.5563437e-05,4.9049966e-02,-7.8187956e-02,-7.9787591e-03
7.9999924e-02,1.3262868e-05,1.3391668e-04,3.0929725e-05,-3.0015038e-03,1.8304568e-03,-2.9994746e-03,5.9296426e-04,-1.1770272e-03,-1.5982982e-04,1.9168561e-02,-3.3157148e-02,-1.9539345e-02
8.9999914e-02,-3.9968617e-05,1.9749832e-05,-7.9186105e-05,-5.3254471e-03,-1.1415252e-02,-5.3239554e-03,8.2987554e-05,-1.8821912e-04,-2.5292087e-04,-5.0997719e-02,9.8880900e-02,-9.3091135e-03
9.9999905e-02,1.4219395e-05,5.9369243e-05,-4.7318896e-05,5.4186159e-03,3.9604662e-03,5.4200776e-03,-7.7864468e-05,-3.5071560e-04,-2.1795322e-05,-1.6085218e-02,-1.6249664e-02,2.3112577e-02
1.0999990e-01,4.7524763e-05,1.1283888e-04,3.6775829e-05,3.3335921e-03,5.3407977e-03,3.3373810e-03,5.7358960e-04,-1.2776991e-03,4.2972369e-06,6.5145469e-02,-9.2698434e-02,2.6092584e-03
1.1999989e-01,5.7243037e-05,7.9796815e-05,5.1900964e-05,9.7030501e-04,-3.3054810e-03,9.6902267e-04,4.5365569e-04,-8.5619879e-04,2.4911299e-05,-1.1993402e-02,4.2150067e-02,2.0614081e-03
1.2999988e-01,1.2610687e-05,1.1540414e-05,-1.0200632e-05,-4.4624294e-03,-6.8273634e-03,-4.4614229e-03,-1.8407746e-04,2.0063538e-04,-1.0008812e-04,-6.3773376e-02,1.0568352e-01,-1.2499954e-02
1.3999987e-01,3.2867435e-05,5.6987181e-05,1.0108017e-05,2.0244874e-03,4.5449702e-03,2.0262169e-03,-2.2051238e-04,-7.7675319e-05,9.2395059e-05,-3.6434957e-03,-2.7831097e-02,1.9248337e-02
1.4999986e-01,7.5704279e-05,7.6249896e-05,1.4410245e-05,4.2824913e-03,1.9251089e-03,4.2854086e-03,-1.4225016e-04,-4.1394503e-04,2.1547962e-04,7.8262302e-03,-3.3627003e-02,1.2308467e-02
1.5999985e-01,8.0812148e-05,5.6746580e-05,1.2337782e-05,5.1089769e-04,-1.9504736e-03,5.1014132e-04,-1.0916801e-04,-3.8386440e-04,2.0084253e-04,3.3082179e-03,3.0080656e-03,-1.4637096e-03
1.6999984e-01,6.4858096e-05,5.1828449e-05,-3.2847545e-05,-1.5951395e-03,-4.9201159e-04,-1.5956129e-03,-2.7821195e-04,-1.5402735e-04,8.1691105e-05,-1.6904410e-02,2.2983728e-02,-1.1915154e-02
1.7999983e-01,1.5574806e-05,-4.1629901e-05,-4.0991163e-05,-4.9260128e-03,-9.3519980e-03,-4.9189708e-03,-4.1262359e-04,8.3718615e-04,-3.1169714e-04,-1.3441176e-02,9.9121444e-02,-3.9338862e-02
1.8999982e-01,2.7799185e-05,2.6623588e-05,-2.1590309e-06,1.2208693e-03,6.8259227e-03,1.2208393e-03,-2.4170438e-04,2.2267361e-04,-6.5413149e-05,1.7091937e-02,-6.1451312e-02,2.4628422e-02
1.9999981e-01,4.2558823e-05,8.7409087e-05,-4.3666773e-05,1.4753111e-03,6.0777237e-03,1.4800397e-03,-8.5152820e-05,-6.4792440e-04,9.2398647e-05,1.5655171e-02,-8.7059884e-02,1.5781195e-02
2.0997000e-01,6.4378626e-05,1.3617539e-04,-3.6729195e-05,2.1881207e-03,4.8881171e-03,2.1957907e-03,8.7620515e-05,-1.3239480e-03,3.7121933e-04,1.7328994e-02,-6.7804495e-02,2.7965438e-02
2.1996999e-01,4.7259861e-05,9.9135850e-05,-7.8004296e-06,-1.7114061e-03,-3.7020602e-03,-1.7164478e-03,5.0657068e-05,-1.0559355e-03,3.8529670e-04,-3.6963482e-03,2.6801275e-02,1.4077385e-03
2.2996998e-01,1.1101051e-05,4.5079070e-05,1.0446683e-05,-3.6160115e-03,-5.4034219e-03,-3.6191357e-03,1.1352251e-04,-5.1157656e-04,1.3455547e-04,6.2865498e-03,5.4435944e-02,-2.5074147e-02
2.3996997e-01,7.5804648e-06,8.2677276e-05,-7.7729860e-06,-3.5169798e-04,3.7600394e-03,-3.5011630e-04,8.1792949e-05,-5.3088226e-04,1.5185175e-04,-3.1729588e-03,-1.9305724e-03,1.7296301e-03
2.4997020e-01,-1.2173945e-05,5.3419432e-05,-3.5778640e-05,-1.9750034e-03,-2.9257713e-03,-1.9757083e-03,-1.2911652e-04,-1.0185234e-04,7.3796781e-06,-2.1090464e-02,4.2902011e-02,-1.4446877e-02
2.5997019e-01,6.8506135e-05,1.6996444e-04,5.0571753e-05,8.0722054e-03,1.1638820e-02,8.0864549e-03,4.4938813e-04,-1.4935167e-03,1.2974675e-04,5.7850520e-02,-1.3916657e-01,1.2236719e-02
2.6997018e-01,3.8957140e-05,7.0995671e-05,-1.0509148e-05,-2.9556281e-03,-9.8946990e-03,-2.9614927e-03,1.1106194e-04,-6.2825090e-04,1.2633058e-04,-3.3832651e-02,8.6526666e-02,-3.4161683e-04
2.7997017e-01,-5.7601328e-06,9.2439349e-05,-1.2804441e-05,-4.4714701e-03,2.1463017e-03,-4.4710661e-03,-7.7158550e-05,-5.0918615e-04,9.5459868e-05,-1.8822067e-02,1.1906486e-02,-3.0870744e-03
2.8997016e-01,5.3353064e-05,1.1443237e-04,2.1696906e-05,5.9081297e-03,2.1982307e-03,5.9149184e-03,-2.4399049e-04,-4.2543734e-04,4.4968282e-04,-1.6683210e-02,8.3748895e-03,3.5422329e-02
2.9997015e-01,4.8319833e-05,1.0274594e-04,2.6432548e-05,-5.0305499e-04,-1.1685378e-03,-5.0384043e-04,-1.2119987e-04,-3.3374743e-04,2.5213362e-04,1.2279074e-02,9.1689993e-03,-1.9754939e-02
3.0997014e-01,4.2169602e-05,7.7323507e-05,-2.6085481e-06,-6.1513241e-04,-2.5417682e-03,-6.1688470e-04,8.2841608e-05,-6.9203443e-04,1.6562239e-04,2.0404167e-02,-3.5828734e-02,-8.6511318e-03
3.1997013e-01,2.5593805e-05,8.7201542e-05,-4.7376197e-05,-1.6575501e-03,9.8884262e-04,-1.6569935e-03,-2.0273921e-05,-6.4668829e-04,3.0950843e-05,-1.0311563e-02,4.5346177e-03,-1.3467167e-02
3.2997012e-01,4.7280526e-05,8.9639379e-05,-2.4794720e-05,2.1683012e-03,2.4324049e-04,2.1691082e-03,-2.1697942e-04,-4.6750014e-04,1.4757597e-04,-1.9670569e-02,1.7918832e-02,1.1662523e-02
3.3997011e-01,6.9908259e-05,8.2856497e-05,2.3601400e-06,2.2622278e-03,-6.7891042e-04,2.2631367e-03,-1.7578765e-04,-4.5040316e-04,2.9467225e-04,4.1191807e-03,1.7096997e-03,1.4709643e-02
3.4997010e-01,8.4883226e-05,8.0558403e-05,-1.0787973e-06,1.4971141e-03,-2.3056732e-04,1.4977656e-03,-6.3933830e-05,-5.6973139e-04,2.6621189e-04,1.1185393e-02,-1.1932834e-02,-2.8460386e-03
3.5997009e-01,3.6493558e-05,3.8586089e-05,-4.8667013e-05,-4.8387656e-03,-4.1956421e-03,-4.8405586e-03,-7.5899876e-05,-4.0509178e-04,-2.3315524e-05,-1.1966058e-03,1.6463977e-02,-2.8952769e-02
3.6997008e-01,8.0196572e-06,2.4299380e-05,-5.0128083e-05,-2.8474362e-03,-1.4286482e-03,-2.8473615e-03,-1.5463231e-04,-1.6306904e-04,-9.2837908e-05,-7.8732504e-03,2.4202297e-02,-6.9522450e-03
3.7997007e-01,1.0266285e-05,8.3019988e-05,-1.3066419e-06,2.2546682e-04,5.8719072e-03,2.2799288e-04,1.4095030e-04,-5.6300157e-04,1.0617385e-04,2.9558288e-02,-3.9993291e-02,1.9901194e-02
3.8997006e-01,4.1414631e-05,1.4781418e-04,-1.5213219e-06,3.1147074e-03,6.4753756e-03,3.1233773e-03,1.7700482e-04,-1.1213178e-03,4.0987056e-04,3.6054561e-03,-5.5831672e-02,3.0369700e-02
3.9997005e-01,8.0067269e-05,1.6365792e-04,1.6387490e-05,3.8627658e-03,1.5782187e-03,3.8702837e-03,9.1891022e-05,-1.4994409e-03,6.8463212e-04,-8.5113883e-03,-3.7812353e-02,2.7476183e-02
4.0997005e-01,6.9833228e-05,5.6325154e-05,-1.3841006e-05,-1.0228759e-03,-1.0732797e-02,-1.0290516e-03,-2.7352062e-05,-5.0414380e-04,2.3021217e-04,-1.1924320e-02,9.9529808e-02,-4.5442038e-02
4.1997004e-01,3.9313512e-05,5.5677327e-05,-1.3448376e-05,-3.0516187e-03,-6.3207541e-05,-3.0523633e-03,7.5741419e-05,-4.4033203e-04,1.1817216e-04,1.0309358e-02,6.3811828e-03,-1.1204012e-02
4.2997003e-01,-1.5888978e-05,1.3490626e-04,2.3618140e-05,-5.5157443e-03,7.9333915e-03,-5.5096856e-03,6.8849066e-04,-1.2135121e-03,-1.7142353e-04,6.1274983e-02,-7.7318076e-02,-2.8959597e-02
4.3997002e-01,2.8549678e-05,1.3411613e-04,3.3671622e-05,4.4432367e-03,-8.6209825e-05,4.4443692e-03,4.7126195e-04,-1.1481694e-03,1.3398563e-04,-2.1722892e-02,6.5342739e-03,3.0540945e-02
4.4997001e-01,-3.4513757e-05,-2.5112735e-05,-5.3457862e-05,-6.3035979e-03,-1.5929381e-02,-6.2927245e-03,-2.8200744e-04,7.4632807e-04,-2.7579621e-04,-7.5327011e-02,1.8944993e-01,-4.0978223e-02
4.5997000e-01,3.0129638e-05,-1.2009339e-05,-3.3629905e-05,6.4645526e-03,1.3138250e-03,6.4634314e-03,-2.2929015e-04,3.0973470e-04,-7.8526531e-05,5.2717341e-03,-4.3659378e-02,1.9726987e-02
4.6996999e-01,-4.1012145e-05,-3.8264387e-05,-7.6731185e-05,-7.1175149e-03,-2.6274107e-03,-7.1101506e-03,-3.4516161e-05,2.3315455e-04,-4.8091253e-04,1.9477418e-02,-7.6580228e-03,-4.0238638e-02
4.7996998e-01,-2.3829401e-05,1.7979788e-05,-8.5924891e-05,1.7180295e-03,5.6242875e-03,1.7189657e-03,-8.2451966e-05,-1.6120660e-04,-1.2637081e-04,-4.7935850e-03,-3.9436152e-02,3.5454206e-02
4.8996997e-01,-6.8780631e-05,-6.0218330e-05,-1.2488667e-04,-4.4941127e-03,-7.8254631e-03,-4.4863115e-03,-4.2548942e-04,8.3125815e-04,-5.1468355e-04,-3.4303778e-02,9.9246569e-02,-3.8831311e-02
4.9997020e-01,-6.1802026e-05,-1.1951907e-04,-8.0006972e-05,7.0015783e-04,-5.9289236e-03,7.0412238e-04,-3.3308093e-04,1.1159997e-03,-4.8470662e-04,9.2406376e-03,2.8473500e-02,2.9976243e-03
5.0997019e-01,-1.7898631e-05,1.4094083e-05,-1.0761620e-05,4.3960355e-03,1.3358581e-02,4.3930074e-03,3.0036853e-04,-3.2521020e-04,-3.8243231e-04,6.3345006e-02,-1.4412112e-01,1.0227441e-02
5.1997018e-01,-5.6026351e-05,-8.9874452e-05,-9.3398729e-05,-3.8133998e-03,-1.0399447e-02,-3.8050978e-03,-1.1810104e-04,5.6023467e-04,-4.8586304e-04,-4.1846997e-02,8.8544572e-02,-1.0343082e-02
5.2997017e-01,-7.7227113e-05,-9.8416999e-05,-1.3638030e-04,-2.1213050e-03,-8.5585361e-04,-2.1182057e-03,-1.2655278e-04,6.2769415e-04,-6.2983774e-04,-8.4517408e-04,6.7459540e-03,-1.4397484e-02
5.3997016e-01,-1.0313776e-04,-1.0164826e-04,-1.2596808e-04,-2.5924841e-03,-3.2469011e-04,-2.5894533e-03,-8.2759035e-05,5.2111851e-04,-5.5744864e-04,4.3793784e-03,-1.0657574e-02,7.2389170e-03
5.4997015e-01,-6.4553620e-05,-2.3047524e-05,-5.4491229e-05,3.8634111e-03,7.8569155e-03,3.8598672e-03,4.1811504e-04,-4.0212459e-04,-4.4268208e-04,5.0087455e-02,-9.2324398e-02,1.1476667e-02
5.5997014e-01,-8.8101633e-05,-8.6404191e-05,-8.3618093e-05,-2.3559130e-03,-6.3365698e-03,-2.3512778e-03,1.7361767e-05,3.9865155e-04,-4.2451669e-04,-4.0075365e-02,8.0077690e-02,1.8165411e-03
5.6997013e-01,-1.0173843e-04,-6.8630143e-05,-7.4635840e-05,-1.3645612e-03,1.7767727e-03,-1.3636257e-03,-1.0601787e-04,3.5882868e-04,-5.0769313e-04,-1.2337976e-02,-3.9822904e-03,-8.3176519e-03
5.7997012e-01,-6.8933025e-05,6.5737115e-05,-1.9666384e-05,3.2885193e-03,1.3431897e-02,3.2923617e-03,4.7976149e-04,-9.9394232e-04,-4.6649162e-04,5.8577992e-02,-1.3527723e-01,4.1201547e-03
5.8997011e-01,-1.5604719e-04,-9.2223673e-05,-1.2960223e-04,-8.7173253e-03,-1.5801287e-02,-8.6960914e-03,-3.8589008e-05,5.5821915e-04,-7.4756430e-04,-5.1835099e-02,1.5521630e-01,-2.8107294e-02
5.9997010e-01,-1.1917455e-04,-1.2830406e-04,-1.1539537e-04,3.6897927e-03,-3.6045881e-03,3.6881194e-03,-7.0644150e-05,8.6635780e-04,-6.1597049e-04,-3.2055173e-03,3.0813894e-02,1.3159393e-02
6.0997009e-01,-6.7140270e-05,-1.2002189e-04,-8.9515349e-05,5.2046963e-03,8.3216906e-04,5.2015396e-03,-1.4586007e-04,6.1362318e-04,-2.6597188e-04,-7.5215995e-03,-2.5273486e-02,3.4999895e-02
6.1997008e-01,-7.6969710e-05,-1.5247156e-04,-7.4363702e-05,-9.8303844e-04,-3.2462043e-03,-9.7876761e-04,-1.4014199e-04,1.1180900e-03,-5.5797514e-04,5.7180912e-04,5.0446730e-02,-2.9200354e-02
6.2997007e-01,-1.0366197e-04,-1.4215195e-04,-1.0497325e-04,-2.6712925e-03,1.0281425e-03,-2.6686375e-03,-3.0250910e-04,1.1288615e-03,-6.5657655e-04,-1.6236726e-02,1.0771549e-03,-9.8601504e-03
6.3997006e-01,-1.1250054e-04,-1.2857522e-04,-1.4073189e-04,-8.8490701e-04,1.3564568e-03,-8.8467743e-04,-2.4541845e-04,1.1322831e-03,-8.1042338e-04,5.7090706e-03,3.4216096e-04,-1.5384698e-02
6.4997005e-01,-1.0145185e-04,-1.4486770e-04,-9.6418761e-05,1.1061944e-03,-1.6274678e-03,1.1061710e-03,-3.3580212e-04,1.2770334e-03,-7.0379019e-04,-9.0383756e-03,1.4475039e-02,1.0663329e-02
6.5997005e-01,-7.1271870e-05,-1.5125638e-04,-7.7749336e-05,3.0199742e-03,-6.3438279e-04,3.0169728e-03,-2.8167242e-04,1.2049517e-03,-5.9444276e-04,5.4129750e-03,-7.2081784e-03,1.0934753e-02
6.6997004e-01,-4.5051955e-05,-1.1442626e-04,-1.0223013e-04,2.6221885e-03,3.6857656e-03,2.6179318e-03,-2.5982786e-04,7.8990832e-04,-4.3926694e-04,2.1844580e-03,-4.1504376e-02,1.5517597e-02
6.7997003e-01,-4.7677293e-05,-4.9854278e-05,-1.1869212e-04,-2.6418188e-04,6.4570440e-03,-2.6480883e-04,-2.4097813e-04,3.6659172e-04,-3.4964755e-04,1.8849751e-03,-4.2331701e-02,8.9619478e-03
6.8997002e-01,-5.7666209e-05,-1.2889460e-05,-6.3896255e-05,-9.9857110e-04,3.6970268e-03,-9.9720856e-04,2.5311106e-04,-2.8939855e-04,-6.1513136e-04,4.9408965e-02,-6.5599089e-02,-2.6548406e-02
6.9997001e-01,-1.0026879e-04,-9.0942433e-05,-8.1450620e-05,-4.2626996e-03,-7.8086095e-03,-4.2517604e-03,-9.7063007e-05,6.7957699e-04,-7.5016521e-04,-3.5017440e-02,9.6897646e-02,-1.3503399e-02
7.0997000e-01,-9.8197404e-06,-1.2510687e-05,-2.1912100e-05,9.0449006e-03,7.8433155e-03,9.0448115e-03,-2.6394923e-05,-1.1648039e-05,-2.1421686e-05,7.0668152e-03,-6.9122569e-02,7.2874422e-02
7.1996999e-01,1.6167796e-05,3.9753039e-05,-5.0930793e-06,2.5976459e-03,5.2254264e-03,2.6017770e-03,-8.7003474e-05,-4.5267490e-04,2.5220593e-04,-6.0608609e-03,-4.4102728e-02,2.7362787e-02
7.2996998e-01,7.6117313e-05,1.4372625e-04,6.5442020e-05,5.9923044e-03,1.0388980e-02,6.0120638e-03,8.8494021e-05,-1.3023278e-03,5.9583346e-04,1.7549766e-02,-8.4965375e-02,3.4362786e-02
7.3996997e-01,1.0665151e-04,1.6725316e-04,7.7175291e-05,3.0518684e-03,2.3473920e-03,3.0590520e-03,1.8961550e-04,-1.5447463e-03,6.5494289e-04,1.0112158e-02,-2.4241872e-02,5.9109492e-03
7.4997020e-01,2.9587897e-05,4.1692218e-05,8.5377800e-07,-7.7051671e-03,-1.2552566e-02,-7.7124804e-03,-6.8681403e-05,-4.8905076e-04,2.0191453e-05,-2.5829099e-02,1.0556714e-01,-6.3473691e-02
7.5997019e-01,2.0237530e-05,2.1380224e-05,8.4432420e-06,-9.3436178e-04,-2.0314695e-03,-9.3513045e-04,-2.7027749e-04,1.6637468e-05,1.3556736e-04,-2.0159628e-02,5.0568871e-02,1.1537601e-02
7.6997018e-01,-2.4002157e-07,3.3917606e-05,2.8616941e-05,-2.0476400e-03,1.2538131e-03,-2.0478291e-03,-9.0435603e-05,-1.2642895e-04,1.1257032e-04,1.7984206e-02,-1.4306656e-02,-2.2997061e-03
7.7997017e-01,3.2184085e-05,8.8380421e-05,4.3903021e-05,3.2423848e-03,5.4436167e-03,3.2469233e-03,1.5109052e-04,-6.7181037e-04,2.6267240e-04,2.4152636e-02,-5.4538193e-02,1.5010223e-02
7.8997016e-01,2.5752515e-05,2.4825486e-05,9.5192037e-06,-6.4174724e-04,-6.3556527e-03,-6.4305283e-04,-2.2470732e-04,1.3693256e-05,-2.7641945e-05,-3.7579820e-02,6.8550428e-02,-2.9031463e-02
7.9997015e-01,5.0315698e-05,-2.6294705e-06,-2.2937065e-05,2.4580046e-03,-2.7433273e-03,2.4570616e-03,-5.8629660e-04,2.9729925e-04,-3.0403038e-05,-3.6158962e-02,2.8360626e-02,-2.7610954e-04
8.0997014e-01,4.6131346e-05,5.5700131e-07,-3.8874006e-05,-4.1855410e-04,3.1847471e-04,-4.1844843e-04,-3.3343399e-04,7.9415954e-05,-2.9557694e-05,2.5286285e-02,-2.1788350e-02,8.4534530e-05
8.1997013e-01,1.5222327e-05,9.7361785e-06,-1.0221967e-05,-3.0906778e-03,9.1905443e-04,-3.0907945e-03,1.0527173e-04,-2.6220605e-04,4.2200549e-05,4.3870614e-02,-3.4162233e-02,7.1758311e-03
8.2997012e-01,-2.6517638e-05,-4.5648082e-05,-2.6713689e-05,-4.1734851e-03,-5.5417333e-03,-4.1701312e-03,-2.2651477e-04,5.6492586e-04,-1.7713161e-04,-3.3178682e-02,8.2713270e-02,-2.1933237e-02
8.3992004e-01,-9.7631881e-07,-8.7671784e-05,-4.7224602e-05,2.5699614e-03,-4.2192706e-03,2.5709962e-03,-5.6429512e-04,1.0903426e-03,-2.3056583e-04,-3.3948039e-02,5.2806109e-02,-5.3703148e-03
8.4992003e-01,8.3725739e-06,-3.7206387e-05,-4.9052685e-05,9.3349940e-04,5.0472571e-03,9.3242994e-04,-3.1051016e-04,4.5257980e-04,-1.8858251e-04,2.5378521e-02,-6.3776336e-02,4.1983357e-03
8.5992002e-01,-7.2758463e-05,6.5016830e-06,-8.3874373e-05,-8.1161780e-03,4.3728962e-03,-8.1089196e-03,5.7765094e-05,-1.9931811e-04,-4.0918509e-04,3.6827560e-02,-6.5189854e-02,-2.2060279e-02
8.6992002e-01,-8.1826790e-05,4.0222760e-05,-5.5795542e-05,-9.0638891e-04,3.3727419e-03,-9.0492977e-04,1.6626579e-04,-5.3014725e-04,-1.2790143e-04,1.0850080e-02,-3.3082945e-02,2.8128393e-02
8.7992001e-01,-2.8591190e-05,5.6490296e-06,-7.7274962e-05,5.3245623e-03,-3.4563025e-03,5.3232653e-03,-2.4646090e-04,-4.4754829e-05,-2.7270778e-05,-4.1272708e-02,4.8539288e-02,1.0063074e-02
8.8992000e-01,-7.6012673e-05,-9.9330765e-05,-1.0814605e-04,-4.7428487e-03,-1.0500963e-02,-4.7348677e-03,-1.4955683e-04,4.7798697e-04,-4.7795881e-04,9.6904163e-03,5.2274230e-02,-4.5068846e-02
8.9991999e-01,-4.7333740e-05,-1.7271634e-05,-5.2616209e-05,2.8702987e-03,8.2048709e-03,2.8684966e-03,1.8149888e-04,-1.8462327e-04,-3.1855898e-04,3.3105602e-02,-6.6261087e-02,1.5939998e-02
9.0991998e-01,-3.3897850e-05,5.4539829e-05,1.1267315e-05,1.3472476e-03,7.1795316e-03,1.3485846e-03,4.4875226e-04,-7.5632495e-04,-3.2375220e-04,2.6725364e-02,-5.7170223e-02,-5.1932204e-04
9.1991997e-01,-4.0557592e-05,-2.4429137e-05,-1.2127681e-05,-6.6680819e-04,-7.8968183e-03,-6.6615890e-04,1.0132218e-04,-2.7545255e-05,-5.0034661e-05,-3.4743041e-02,7.2878039e-02,2.7371780e-02
9.2991996e-01,-5.0269500e-05,-7.0657383e-05,-2.6232829e-05,-9.7198109e-04,-4.6229416e-03,-9.6986484e-04,1.3814620e-04,2.5440677e-04,-1.5519651e-04,3.6824053e-03,2.8195230e-02,-1.0516194e-02
9.3991995e-01,2.3093554e-05,-1.6932770e-05,7.2173463e-06,7.3352591e-03,5.3669750e-03,7.3413833e-03,1.7130065e-04,-5.7693452e-04,2.6897551e-04,3.3154480e-03,-8.3134208e-02,4.2417242e-02
9.4991994e-01,7.6148488e-06,-2.1385314e-05,-3.8428266e-05,-1.5478513e-03,-4.4413517e-04,-1.5482144e-03,1.1603023e-04,-6.0721695e-04,4.6763178e-05,-5.5270470e-03,-3.0282460e-03,-2.2221254e-02
9.5991993e-01,9.4814140e-07,2.3410907e-07,-5.1314296e-05,-6.6698672e-04,2.1621697e-03,-6.6562425e-04,-1.2002095e-04,-4.5847095e-04,-8.3812467e-05,-2.3605140e-02,1.4874614e-02,-1.3057577e-02
9.6991992e-01,3.5251362e-05,5.4851646e-05,1.1436382e-05,3.4289613e-03,5.4595508e-03,3.4352007e-03,-7.8469514e-06,-6.5095252e-04,3.8508830e-04,1.1217410e-02,-1.9248176e-02,4.6890122e-02
9.7991991e-01,-4.5004149e-05,-3.0831372e-05,-2.4426828e-05,-8.0244562e-03,-8.5699972e-03,-8.0248597e-03,-1.7401569e-04,3.6241374e-05,-4.8414817e-05,-1.6616890e-02,6.8719455e-02,-4.3350353e-02
9.8991990e-01,-2.6877080e-05,-1.2418582e-05,-6.0889979e-05,1.8123327e-03,1.8419439e-03,1.8124108e-03,-3.2979868e-04,3.6047343e-05,-1.2769986e-04,-1.5578314e-02,-1.9403085e-05,-7.9285114e-03
9.9992013e-01,-2.9174707e-05,4.3598574e-05,-3.7103944e-05,-2.3040690e-04,5.6017291e-03,-2.2561283e-04,-1.2032856e-04,-7.4425968e-04,1.0656395e-04,2.0946533e-02,-7.8028917e-02,2.3425844e-02
1.0099201e+00,-2.2544495e-06,9.6390283e-05,2.7718353e-05,2.6921240e-03,5.2754416e-03,2.6992436e-03,1.6440527e-04,-1.2209745e-03,2.8677956e-04,2.8473410e-02,-4.7671522e-02,1.8021579e-02
1.0199201e+00,-2.0182665e-05,1.2609796e-04,3.7906359e-06,-1.7922418e-03,2.9729238e-03,-1.7898324e-03,1.0343693e-04,-1.0985882e-03,1.5291588e-04,-6.0968395e-03,1.2238633e-02,-1.3386381e-02
1.0299201e+00,-3.1468127e-05,9.4572177e-05,-6.0203243e-05,-1.1277909e-03,-3.1517704e-03,-1.1315636e-03,-1.6690614e-04,-8.8387973e-04,2.0394524e-04,-2.7034333e-02,2.1470872e-02,5.1029410e-03
1.0399201e+00,-2.3827372e-05,1.2479333e-04,4.7966559e-05,7.6585955e-04,3.0202939e-03,7.6948592e-04,6.5026612e-04,-1.7304182e-03,2.3780453e-04,8.1717303e-02,-8.4653930e-02,3.3859321e-03
1.0499201e+00,-1.7908913e-05,1.0382112e-04,5.6942798e-05,5.9029059e-04,-2.0986100e-03,5.8847561e-04,7.1072293e-04,-1.6375504e-03,1.1006530e-04,6.0456874e-03,9.2867957e-03,-1.2773935e-02
1.0599201e+00,-9.5363798e-05,-3.5459749e-05,-5.2059751e-05,-7.7459113e-03,-1.3930525e-02,-7.7407184e-03,-1.6723278e-04,1.4590469e-04,-3.5444231e-04,-8.7795655e-02,1.7834567e-01,-4.6450805e-02
1.0699201e+00,-1.2980758e-04,-5.2306689e-05,-1.0340580e-04,-3.4455874e-03,-1.6866811e-03,-3.4422024e-03,-2.2145542e-04,3.5516395e-04,-4.5864903e-04,-5.4222694e-03,2.0925946e-02,-1.0420683e-02
1.0799201e+00,-1.2735270e-04,-3.4330739e-06,-2.6175175e-05,2.4816590e-04,4.8870552e-03,2.4896308e-04,5.2607105e-04,-7.3318930e-04,-4.3553688e-04,7.4752718e-02,-1.0883543e-01,2.3112175e-03
1.0899200e+00,-6.6513413e-05,5.4222376e-05,6.7326826e-05,6.0887500e-03,5.7539964e-03,6.0900525e-03,7.3153491e-04,-1.1667965e-03,-9.8535092e-05,2.0546405e-02,-4.3360763e-02,3.3700211e-02
1.0999200e+00,-7.4494748e-05,-5.9373899e-05,-2.3408492e-05,-7.9871683e-04,-1.1359672e-02,-7.9707300e-04,4.6899962e-05,8.9039770e-05,-6.2376650e-05,-6.8463560e-02,1.2558375e-01,3.6158476e-03
1.1099200e+00,-6.6854297e-05,-2.2157004e-05,-7.1476765e-05,7.6287008e-04,3.7220563e-03,7.6345111e-04,-3.4491544e-04,1.3085010e-04,-1.4125442e-04,-3.9181578e-02,4.1810367e-03,-7.8877850e-03
1.1199200e+00,-8.9719949e-05,-2.2338373e-05,-4.3533061e-05,-2.2869738e-03,-1.7443371e-05,-2.2861664e-03,3.0670455e-05,-2.7268758e-04,-1.7750909e-04,3.7558626e-02,-4.0353806e-02,-3.6254698e-03
1.1299200e+00,-4.3040586e-05,-8.5896167e-06,-7.4787058e-06,4.6680076e-03,1.3723005e-03,4.6686320e-03,1.8470874e-04,-3.6718668e-04,4.0072827e-05,1.5403843e-02,-9.4499191e-03,2.1758212e-02
1.1399200e+00,-7.2070282e-05,-8.2978273e-05,-5.4562244e-05,-2.9045287e-03,-7.4395701e-03,-2.8996265e-03,1.0289846e-04,3.4337035e-04,-2.7252416e-04,-8.1810355e-03,7.1055771e-02,-3.1259729e-02
1.1499200e+00,-1.7615051e-05,-5.0587408e-05,-9.0855717e-05,5.4445564e-03,3.2426165e-03,5.4444008e-03,-3.2445403e-04,3.2328745e-04,-1.4581735e-05,-4.2735290e-02,-2.0082917e-03,2.5794267e-02
1.1599200e+00,1.8774225e-06,-1.2327898e-06,-5.2965304e-05,1.9481673e-03,4.9351896e-03,1.9510313e-03,-1.4463815e-04,-2.8653950e-04,1.8879676e-04,1.7981605e-02,-6.0982753e-02,2.0337869e-02
1.1699200e+00,-7.0591599e-05,-2.7043372e-05,-8.5390602e-05,-7.2494529e-03,-2.5761312e-03,-7.2461186e-03,2.3795039e-04,-4.4234311e-04,-2.6635077e-04,3.8258890e-02,-1.5580376e-02,-4.5514796e-02
1.1799200e+00,-9.6715972e-05,-1.9495653e-05,-1.0456731e-04,-2.6133180e-03,7.5606459e-04,-2.6111875e-03,1.3332780e-04,-3.6137621e-04,-3.7478230e-04,-1.0462268e-02,8.0966973e-03,-1.0843164e-02
1.1899199e+00,-4.1470901e-05,2.8316021e-05,-1.6433786e-05,5.5273941e-03,4.7732756e-03,5.5284567e-03,4.8502235e-04,-9.4390978e-04,-1.0198440e-04,3.5169489e-02,-5.8253412e-02,2.7279817e-02
1.1999199e+00,-8.5449153e-05,-4.6786812e-05,-5.5342908e-05,-4.3994115e-03,-7.5092758e-03,-4.3979797e-03,9.9278924e-05,-1.3143894e-04,-1.9022406e-04,-3.8574380e-02,8.1247161e-02,-8.8239743e-03
1.2099199e+00,-3.6980652e-05,5.2491887e-05,-6.1488222e-05,4.8504931e-03,9.9200213e-03,4.8592886e-03,4.3068354e-04,-1.1888109e-03,1.3140099e-04,3.3140493e-02,-1.0573729e-01,3.2162535e-02
1.2199199e+00,-6.6698424e-05,-2.6788534e-05,-1.0254271e-04,-2.9737473e-03,-7.9264196e-03,-2.9741595e-03,1.7157525e-04,-3.7680197e-04,-2.0428318e-04,-2.5910854e-02,8.1200966e-02,-3.3568449e-02
1.2299199e+00,2.7206698e-05,6.0682292e-05,-1.1010979e-05,9.3948956e-03,8.7306012e-03,9.4014847e-03,4.6324975e-04,-1.2919166e-03,-3.4432245e-05,2.9167478e-02,-9.1511555e-02,1.6985110e-02
1.2399199e+00,-2.0218717e-05,-6.4092626e-05,-5.4869989e-05,-4.7432455e-03,-1.2478144e-02,-4.7401615e-03,2.3915323e-06,1.3743521e-04,-1.4119845e-04,-4.6085865e-02,1.4293532e-01,-1.0676630e-02
1.2499201e+00,-6.2162423e-05,-6.1805699e-05,-5.4154393e-05,-4.1954383e-03,2.2737823e-04,-4.1931818e-03,6.5312798e-05,3.7755379e-04,-2.8104610e-04,6.2919825e-03,2.4011308e-02,-1.3984446e-02
1.2599201e+00,-1.8894446e-05,-1.2596032e-05,-4.8651836e-05,4.3265189e-03,4.9196966e-03,4.3285342e-03,5.8692435e-05,-2.3589802e-04,1.3212671e-04,-6.6203688e-04,-6.1345239e-02,4.1317321e-02
1.2699201e+00,-3.5819553e-05,-2.0039120e-06,-5.5065464e-05,-1.6923875e-03,1.0604021e-03,-1.6918924e-03,1.7423123e-04,-5.2846992e-04,-3.5308000e-05,1.1553891e-02,-2.9257217e-02,-1.6743487e-02
1.2799201e+00,1.6505168e-05,3.0068379e-05,-6.4236528e-05,5.2314768e-03,3.2036778e-03,5.2356538e-03,-3.6335061e-05,-7.1534348e-04,1.6888239e-04,-2.1056649e-02,-1.8687375e-02,2.0419058e-02
1.2899201e+00,-1.5661419e-05,-1.4240536e-05,-3.3449768e-05,-3.2165265e-03,-4.4311473e-03,-3.2164507e-03,-7.0334957e-05,7.8672608e-06,-5.4808392e-05,-3.3999928e-03,7.2321143e-02,-2.2369100e-02
1.2999201e+00,-9.3526386e-05,-7.0350815e-05,-8.7649171e-05,-7.7898008e-03,-5.6178554e-03,-7.7782832e-03,-1.2771253e-04,7.4903096e-04,-5.1556620e-04,-5.7377623e-03,7.4116440e-02,-4.6075825e-02
1.3099201e+00,-3.8788352e-05,-3.7544060e-05,-4.3648178e-05,5.4738920e-03,3.2824427e-03,5.4726675e-03,-1.0932152e-04,2.1298750e-04,-8.0768315e-05,1.8391020e-03,-5.3604397e-02,4.3479830e-02
1.3199201e+00,-1.7285895e-05,-5.8299796e-05,-1.0156651e-04,2.1507211e-03,-2.0754664e-03,2.1498796e-03,8.8770215e-06,5.9656852e-05,-2.2875531e-04,1.1819866e-02,-1.5333079e-02,-1.4798713e-02
1.3299201e+00,-5.4193031e-05,-7.0948833e-05,-8.8132648e-05,-3.6919887e-03,-1.2647120e-03,-3.6895111e-03,9.1985470e-06,-4.3082816e-05,-3.4145096e-04,3.2152584e-05,-1.0273977e-02,-1.1269577e-02
1.3399200e+00,3.7778405e-05,1.0211269e-04,4.6785016e-05,9.2044389e-03,1.7285703e-02,9.2282969e-03,5.7839441e-04,-1.6434489e-03,2.9588605e-04,5.6919641e-02,-1.6003677e-01,6.3733762e-02
1.3499200e+00,-7.1545974e-05,5.1128245e-06,-5.5541893e-05,-1.0935414e-02,-9.6950005e-03,-1.0933913e-02,1.1771135e-04,-3.3919726e-04,-1.6682701e-04,-4.6068350e-02,1.3042529e-01,-4.6271350e-02
1.3599200e+00,-2.4406805e-05,2.8141463e-05,-5.2542770e-05,4.7129079e-03,2.2982672e-03,4.7171781e-03,1.7113384e-04,-8.0405289e-04,2.9855210e-04,5.3422535e-03,-4.6485607e-02,4.6537955e-02
1.3699200e+00,1.2474644e-05,1.0220178e-04,4.3566992e-05,3.6915130e-03,7.3979264e-03,3.7010398e-03,5.9867532e-04,-1.5973642e-03,2.8967462e-04,4.2754189e-02,-7.9331210e-02,-8.8774857e-04
1.3799200e+00,-4.4728859e-05,2.2592050e-05,2.1023839e-05,-5.7265418e-03,-7.9523873e-03,-5.7261155e-03,5.9426818e-04,-9.0729600e-04,-2.5458584e-04,-4.4071469e-04,6.9006890e-02,-5.4426098e-02
1.3899200e+00,1.3308182e-06,4.7974487e-05,9.1747320e-06,4.6051333e-03,2.5331892e-03,4.6095934e-03,2.1570352e-04,-8.8171503e-04,3.0091175e-04,-3.7856502e-02,2.5580994e-03,5.5549811e-02
1.3999200e+00,-2.5408284e-05,4.3938756e-05,8.1035536e-06,-2.6742036e-03,-4.0073695e-04,-2.6740485e-03,2.8621585e-04,-7.7461372e-04,-6.5609287e-05,7.0512397e-03,1.0710141e-02,-3.6652138e-02
1.4099200e+00,-6.0318121e-06,4.7837678e-05,1.2317821e-05,1.9377507e-03,3.8776143e-04,1.9379749e-03,2.4801532e-04,-8.5179884e-04,-2.6223857e-06,-3.8200566e-03,-7.7185195e-03,6.2986961e-03
1.4199200e+00,-6.4670261e-05,-4.2376581e-05,-3.8747553e-06,-5.8656525e-03,-9.0204822e-03,-5.8635132e-03,1.2398117e-04,-3.8419543e-05,-1.1658577e-04,-1.2403427e-02,8.1338007e-02,-1.1396349e-02
1.4299200e+00,2.6506284e-05,4.6811752e-05,-5.2315951e-07,9.1157952e-03,8.9096770e-03,9.1284849e-03,1.0829391e-04,-8.9619787e-04,3.1075689e-04,-1.5687277e-03,-8.5777914e-02,4.2734306e-02
1.4399199e+00,-1.9992975e-05,-1.2213350e-06,-2.0742201e-05,-4.6493972e-03,-4.8027229e-03,-4.6510730e-03,-1.2147462e-04,-2.4840139e-04,-1.0844979e-05,-2.2976875e-02,6.4779710e-02,-3.2160217e-02
1.4499199e+00,-6.6188292e-05,2.3616166e-06,-6.7167519e-05,-4.6203994e-03,3.5883161e-04,-4.6186311e-03,-6.0126112e-05,-1.7621172e-04,-1.8221969e-04,6.1348567e-03,7.2189735e-03,-1.7137487e-02
1.4599199e+00,-7.2592189e-05,-5.6213182e-05,-2.5959275e-05,-6.4089927e-04,-5.8575382e-03,-6.3939842e-04,7.4761601e-05,1.5721522e-04,-1.1087146e-04,1.3488784e-02,3.3342726e-02,7.1348299e-03
1.4699199e+00,-4.0130056e-05,-7.5649626e-05,-3.5030769e-05,3.2469195e-03,-1.9422543e-03,3.2463465e-03,-5.4294595e-05,3.7452105e-04,-1.8408125e-04,-1.2905632e-02,2.1730603e-02,-7.3209860e-03
1.4799199e+00,-3.2184605e-05,-5.9749494e-05,-6.2348011e-05,7.9430630e-04,1.5903192e-03,7.9417609e-04,-2.4092702e-04,1.4224356e-04,-1.8071598e-04,-1.8663261e-02,-2.3227771e-02,3.3652677e-04
1.4899199e+00,-5.2670124e-06,4.0410885e-05,-5.3518854e-05,2.6915218e-03,1.0014098e-02,2.6992440e-03,-8.0989640e-06,-7.3122491e-04,5.9046630e-05,2.3282828e-02,-8.7346930e-02,2.3976284e-02
1.4999201e+00,-2.4748722e-05,7.0109303e-05,-3.9902319e-05,-1.9473362e-03,2.9719420e-03,-1.9456082e-03,2.3925010e-04,-8.7432882e-04,4.0837439e-05,2.4734340e-02,-1.4310064e-02,-1.8208774e-03
1.5099201e+00,-5.7526725e-05,1.6822980e-05,-1.7617922e-05,-3.2793412e-03,-5.3261694e-03,-3.2802755e-03,2.6043181e-04,-4.9225724e-04,-4.5803802e-05,2.1181735e-03,3.8207195e-02,-8.6641324e-03
1.5199201e+00,1.7579209e-05,4.4994866e-05,4.0075976e-05,7.5110119e-03,2.8076635e-03,7.5137562e-03,3.9608733e-04,-8.7223925e-04,9.3708992e-05,1.3565565e-02,-3.7998238e-02,1.3951293e-02
1.5299201e+00,-2.9500594e-05,-1.6300493e-05,-3.3190164e-05,-4.7085095e-03,-6.1286349e-03,-4.7086405e-03,9.7136974e-05,-9.5461028e-05,1.5010044e-05,-2.9895065e-02,7.7677897e-02,-7.8699023e-03
1.5399201e+00,9.8260646e-06,1.1479670e-04,-4.3116129e-05,3.9356606e-03,1.3101914e-02,3.9556646e-03,3.5943151e-04,-1.6232402e-03,4.3748652e-04,2.6229479e-02,-1.5277806e-01,4.2247688e-02
1.5499201e+00,1.0057932e-05,1.6611799e-04,4.9650589e-05,2.6998327e-05,5.1320561e-03,3.3785941e-05,7.4384523e-04,-2.0639468e-03,2.5432540e-04,3.8441409e-02,-4.4070697e-02,-1.8316130e-02
1.5599201e+00,4.4999540e-05,7.1693518e-05,4.8262818e-05,3.4896103e-03,-9.4478180e-03,3.4842077e-03,3.9771251e-04,-1.1384456e-03,2.2840347e-04,-3.4613305e-02,9.2550201e-02,-2.5921953e-03
1.5699201e+00,-1.1890598e-06,-3.9797687e-05,-2.4678949e-05,-4.6181460e-03,-1.1149133e-02,-4.6195779e-03,-2.1031261e-05,-2.0600091e-05,1.0476577e-04,-4.1874417e-02,1.1178466e-01,-1.2363782e-02
1.5799201e+00,-5.4291411e-05,-6.8680147e-05,-4.9452091e-05,-5.3111530e-03,-2.8886430e-03,-5.3091128e-03,9.7859371e-05,1.7212871e-04,-1.1867113e-04,1.1889075e-02,1.9272898e-02,-2.2343711e-02
1.5899200e+00,-6.8643615e-06,8.5068512e-05,2.6541068e-05,4.7449063e-03,1.5368842e-02,4.7600529e-03,2.3869566e-04,-1.0324207e-03,3.1054105e-04,1.4083643e-02,-1.2045506e-01,4.2921258e-02
1.5999200e+00,-2.5157128e-05,2.1818014e-05,-1.6244062e-06,-1.8295053e-03,-6.3242642e-03,-1.8317865e-03,2.7215223e-05,-4.0522410e-04,-2.9927052e-05,-2.1148064e-02,6.2719722e-02,-3.4046842e-02
1.6099200e+00,1.7020311e-05,-3.1476194e-05,-4.5932483e-05,4.2200037e-03,-5.3265670e-03,4.2191026e-03,-3.4743985e-04,3.3026094e-04,-9.5900523e-05,-3.7465543e-02,7.3548574e-02,-6.5973534e-03
1.6199200e+00,3.2220972e-05,-3.6856459e-05,-7.4028008e-05,1.5200884e-03,-5.3755763e-04,1.5202129e-03,-2.9769173e-04,1.1109970e-05,9.1635474e-05,4.9748176e-03,-3.1915127e-02,1.8753618e-02
1.6299200e+00,-2.7906633e-05,-4.2849042e-05,-2.4099260e-05,-6.0129498e-03,-5.9758238e-04,-6.0127496e-03,1.3407959e-04,-1.4473974e-04,-1.7169584e-05,4.3177173e-02,-1.5584986e-02,-1.0880516e-02
1.6399200e+00,-3.7835876e-05,-5.9892824e-06,-1.3478635e-05,-9.9241193e-04,3.6865518e-03,-9.9131257e-04,1.5688798e-04,-4.1987959e-04,-6.5398637e-05,2.2808408e-03,-2.7514011e-02,-4.8229099e-03
1.6499200e+00,-4.3616339e-05,-3.6806611e-05,-5.0412162e-05,-5.7788301e-04,-3.0818204e-03,-5.7775936e-04,-9.7249138e-05,4.9179724e-05,-2.3515670e-04,-2.5413736e-02,4.6905976e-02,-1.6975823e-02
1.6599200e+00,-2.9137693e-05,-1.0868637e-05,-4.8764921e-05,1.4475571e-03,2.5938982e-03,1.4479986e-03,-1.7129400e-04,-1.0334329e-04,-9.3591436e-05,-7.4044933e-03,-1.5252316e-02,1.4156540e-02
1.6699200e+00,-6.1659196e-05,-4.4318959e-05,-6.2590838e-05,-3.2525718e-03,-3.3454494e-03,-3.2513092e-03,-7.6208481e-05,5.1108654e-05,-2.0703127e-04,9.5085610e-03,1.5445209e-02,-1.1343994e-02
1.6799200e+00,-3.1252354e-05,1.0639766e-04,3.0939745e-05,3.0546878e-03,1.5064023e-02,3.0644846e-03,9.2437809e-04,-1.5841733e-03,-2.3037664e-05,1.0005875e-01,-1.6352835e-01,1.8399378e-02
1.6899199e+00,-2.7956477e-05,2.7499913e-05,-2.3999829e-05,3.2839311e-04,-7.8900543e-03,3.2422160e-04,1.4344797e-04,-6.8814214e-04,1.9164217e-04,-7.8093086e-02,8.9603203e-02,2.1468003e-02
1.6999199e+00,-1.5385669e-05,1.5522842e-05,-4.8609580e-05,1.2569795e-03,-1.1983120e-03,1.2566090e-03,-3.0679775e-05,-5.1098510e-04,1.1075044e-04,-1.7412791e-02,1.7715721e-02,-8.0891798e-03
1.7099199e+00,-4.3213830e-05,-2.0340026e-05,-6.8874324e-05,-2.7828243e-03,-3.5848148e-03,-2.7847136e-03,2.4945119e-05,-5.0506521e-04,3.0147213e-05,5.5624947e-03,5.9198957e-04,-8.0603308e-03
1.7199199e+00,-4.6935603e-05,4.1220982e-05,2.6061697e-06,-3.6841493e-04,6.1567050e-03,-3.6597229e-04,6.2679058e-04,-9.9250641e-04,-2.5781805e-04,6.0184604e-02,-4.8744167e-02,-2.8796554e-02
1.7299199e+00,4.1842721e-06,7.7738185e-05,3.9806418e-05,5.1136590e-03,3.6410274e-03,5.1179518e-03,7.0516459e-04,-1.3861376e-03,1.7745320e-04,7.8374079e-03,-3.9363161e-02,4.3527167e-02
1.7399199e+00,-3.6575588e-05,-3.6130743e-05,-3.7465415e-05,-4.0743533e-03,-1.1388399e-02,-4.0734468e-03,-1.5354182e-04,2.1350908e-04,-2.7418352e-05,-8.5870723e-02,1.5996482e-01,-2.0487175e-02
1.7499201e+00,-1.9678001e-05,2.5318972e-05,-2.9672314e-05,1.6887710e-03,6.1447178e-03,1.6910791e-03,-1.3204422e-04,-1.9879768e-04,8.1422939e-05,2.1497112e-03,-4.1229732e-02,1.0883880e-02
1.7599201e+00,-4.4528508e-05,-4.1046618e-06,8.8473123e-06,-2.4854165e-03,-2.9414741e-03,-2.4857454e-03,9.1152779e-05,-2.6778160e-04,-3.8374352e-05,2.2319721e-02,-6.8983983e-03,-1.1979741e-02
1.7699201e+00,-5.6756932e-05,-3.6907523e-05,-2.7898513e-05,-1.2233244e-03,-3.2800779e-03,-1.2229297e-03,6.5136237e-05,-1.0773205e-04,-2.1846249e-04,-2.6016567e-03,1.6004970e-02,-1.8008831e-02
1.7799201e+00,2.2314008e-05,2.1137532e-05,-7.4619349e-05,7.9048937e-03,5.8038808e-03,7.9097713e-03,-2.7373273e-04,-3.5333158e-04,7.8244234e-05,-3.3886929e-02,-2.4559977e-02,2.9670701e-02
1.7899201e+00,-1.9302744e-05,-3.0465498e-05,-1.0575873e-04,-4.1605480e-03,-5.1631136e-03,-4.1593296e-03,-3.6239028e-04,3.1198820e-04,-1.7761743e-04,-8.8657629e-03,6.6532042e-02,-2.5586191e-02
1.7999201e+00,-3.0881253e-05,-4.2691509e-05,-6.1513624e-05,-1.1579636e-03,-1.2226409e-03,-1.1576998e-03,3.3299598e-05,6.6680910e-05,-6.1127714e-05,3.9569025e-02,-2.4530752e-02,1.1648982e-02
1.8099201e+00,3.1640165e-06,8.5862577e-05,2.7533607e-05,3.4120962e-03,1.2848578e-02,3.4227396e-03,5.8573170e-04,-1.4198257e-03,-1.0793828e-05,5.5243262e-02,-1.4865081e-01,5.0333934e-03
1.8199201e+00,-6.9162121e-05,-6.2048455e-05,-6.3025745e-05,-7.2349691e-03,-1.4791159e-02,-7.2301868e-03,-1.9888625e-05,-1.4177609e-05,-3.6544561e-04,-6.0562090e-02,1.4056495e-01,-3.5465212e-02
1.8299201e+00,-2.8934873e-05,-3.1315734e-05,-6.4693814e-05,4.0221487e-03,3.0732391e-03,4.0233357e-03,-9.5695342e-05,-1.0459458e-04,7.1025610e-05,-7.5806789e-03,-9.0417054e-03,4.3647163e-02
1.8399200e+00,-8.0931863e-05,-2.2337687e-05,-4.7134364e-05,-5.1996678e-03,8.9953265e-04,-5.1994417e-03,1.3432271e-04,-1.9782199e-04,-1.6241891e-05,2.3001828e-02,-9.3227505e-03,-8.7267585e-03
1.8499200e+00,-1.0050985e-04,7.9600411e-05,3.6299603e-05,-1.9489454e-03,1.0198222e-02,-1.9436534e-03,9.2013914e-04,-1.3360265e-03,-2.6860149e-04,7.8581718e-02,-1.1382056e-01,-2.5235984e-02
1.8599200e+00,-5.9293961e-05,6.4457647e-05,1.7228214e-05,4.1218878e-03,-1.5219467e-03,4.1184711e-03,6.8943923e-04,-1.1719412e-03,-3.2526266e-04,-2.3070014e-02,1.6408549e-02,-5.6661221e-03
1.8699200e+00,-9.0051122e-05,-9.6600303e-05,-1.0681067e-04,-3.0747013e-03,-1.6106874e-02,-3.0711615e-03,-1.4310946e-04,2.0306564e-04,-4.1860030e-04,-8.3254948e-02,1.3750082e-01,-9.3337729e-03
1.8799200e+00,-9.9137317e-05,-9.6715355e-05,-1.0946425e-04,-9.0894164e-04,-1.1686903e-05,-9.0829651e-04,5.0628815e-05,2.5061504e-04,-3.5309038e-04,1.9373846e-02,4.7549443e-03,6.5509977e-03
1.8899200e+00,-9.9198106e-05,3.5890834e-05,2.6484160e-05,5.1666552e-06,1.3260632e-02,6.5436959e-06,8.4814467e-04,-9.5197344e-04,-2.2501527e-04,7.9751662e-02,-1.2025896e-01,1.2807523e-02
1.8999200e+00,-8.2930872e-05,1.6223767e-05,4.4816691e-05,1.6259071e-03,-1.9692343e-03,1.6244854e-03,6.9165234e-04,-8.6198389e-04,-3.3379512e-04,-1.5649248e-02,8.9989640e-03,-1.0877996e-02
1.9099200e+00,-5.9695390e-06,-1.0836071e-04,-7.1781628e-06,7.6990927e-03,-1.2452835e-02,7.7022890e-03,-2.4663361e-04,4.8397498e-04,1.5652338e-05,-9.3828685e-02,1.3459601e-01,3.4944779e-02
1.9199200e+00,-1.6646256e-04,-2.5187725e-04,-1.2016881e-04,-1.6062164e-02,-1.4392895e-02,-1.5999469e-02,-4.6931696e-04,2.1041146e-03,-1.2209494e-03,-2.2268356e-02,1.6201412e-01,-1.2366029e-01
1.9299200e+00,1.3557638e-05,6.4889875e-05,-1.9901254e-05,1.8003843e-02,3.1646510e-02,1.8053331e-02,2.8422808e-04,-1.3928464e-03,3.9968518e-04,7.5354575e-02,-3.4969643e-01,1.6206361e-01
1.9399199e+00,-3.9053299e-05,-4.5746430e-05,3.4664793e-05,-5.2667239e-03,-1.1057777e-02,-5.2677948e-03,5.4147980e-04,-5.7246803e-04,6.9316031e-05,2.5725196e-02,8.2037911e-02,-3.3036946e-02
1.9499199e+00,-2.8938488e-05,-1.8789243e-04,-4.0363257e-05,1.0132813e-03,-1.4213554e-02,1.0244885e-03,-1.0853914e-04,9.3311070e-04,-2.5348890e-04,-6.5001956e-02,1.5055802e-01,-3.2280524e-02
1.9599199e+00,-1.9159867e-04,-3.7937844e-04,-1.7536834e-04,-1.6279903e-02,-1.9205824e-02,-1.6184513e-02,-4.8464724e-04,3.0420497e-03,-1.4243204e-03,-3.7610845e-02,2.1089410e-01,-1.1708326e-01
1.9699199e+00,-1.2477272e-04,-1.1754323e-04,-1.0913224e-04,6.6942214e-03,2.6180265e-02,6.6838280e-03,3.3177036e-04,-1.5911628e-04,-4.3911325e-04,8.1641837e-02,-3.2011690e-01,9.8520811e-02
1.9799199e+00,-1.1509775e-04,-2.2054269e-05,-4.1572376e-06,9.7271473e-04,9.5475034e-03,9.7606046e-04,5.3883575e-04,-9.0424505e-04,-7.3605086e-05,2.0706560e-02,-7.4512948e-02,3.6550851e-02
1.9899199e+00,-1.0337851e-04,-9.2380159e-05,-5.7396465e-06,1.1707038e-03,-7.0329153e-03,1.1712283e-03,2.0389814e-04,-6.8980042e-05,-1.8116943e-04,-3.3493793e-02,8.3526580e-02,-1.0756445e-02
1.9999201e+00,-2.6635066e-04,-3.3666863e-04,-1.3991350e-04,-1.6310603e-02,-2.4479155e-02,-1.6206500e-02,-4.2761656e-04,2.7032915e-03,-1.4865021e-03,-6.3150025e-02,2.7722081e-01,-1.3053028e-01
2.0099201e+00,-1.0460905e-04,-3.8497801e-05,6.1522049e-06,1.6195175e-02,2.9793521e-02,1.6196622e-02,5.9893785e-04,-8.5877786e-04,-1.9432725e-04,1.0265554e-01,-3.5620728e-01,1.2921761e-01
2.0199201e+00,-1.5256096e-04,4.6534511e-05,4.9838528e-05,-4.7879237e-03,8.5159652e-03,-4.7798541e-03,1.0615261e-03,-1.5961927e-03,-3.6651467e-04,4.6258872e-02,-7.3741555e-02,-1.7218759e-02
2.0299201e+00,-1.1080776e-04,6.7075107e-05,6.4828797e-05,4.1769011e-03,2.0445755e-03,4.1784015e-03,6.9687949e-04,-1.5743762e-03,-3.5115022e-05,-3.6464698e-02,2.1816545e-03,3.3139997e-02
2.0399201e+00,-1.4860610e-04,-9.1588605e-05,-9.9458882e-05,-3.7759195e-03,-1.5868867e-02,-3.7733333e-03,-3.2402042e-04,3.3280304e-04,-3.2384437e-04,-1.0209009e-01,1.9071811e-01,-2.8872963e-02
2.0499201e+00,-2.0054520e-04,-1.8863804e-04,-8.3514622e-05,-5.1958318e-03,-9.7102825e-03,-5.1820219e-03,-6.0325555e-05,9.6726776e-04,-4.8187218e-04,2.6369511e-02,6.3446532e-02,-1.5802796e-02
2.0599201e+00,-2.0248919e-04,-2.6752624e-05,3.6200613e-05,-1.8134123e-04,1.6188846e-02,-1.8257243e-04,8.1221902e-04,-7.2537752e-04,-4.6463647e-04,8.7254540e-02,-1.6926469e-01,1.7235726e-03
2.0699201e+00,-1.1992348e-04,-1.6739465e-05,6.2234217e-05,8.2537007e-03,9.9241465e-04,8.2605306e-03,3.8863822e-04,-6.8924518e-04,3.9558301e-04,-4.2358120e-02,3.6132377e-03,8.6022030e-02
2.0799201e+00,-1.6170756e-04,-8.8321887e-05,-4.9673282e-05,-4.1773272e-03,-7.1601249e-03,-4.1762820e-03,-2.7651678e-04,1.7255455e-04,-2.1416003e-04,-6.6515563e-02,8.6180055e-02,-6.0974362e-02
2.0899200e+00,-1.3130817e-04,-5.8207660e-05,-1.0703817e-04,3.0390213e-03,3.0123457e-03,3.0399506e-03,-3.3033179e-04,-2.7599640e-05,-2.4481975e-05,-5.3815065e-03,-2.0015438e-02,1.8967823e-02
2.0999200e+00,-2.1168508e-04,-8.7378122e-05,-4.0360667e-05,-8.0398594e-03,-2.9146683e-03,-8.0364000e-03,2.3830268e-04,-5.7888848e-05,-1.8245619e-04,5.6863502e-02,-3.0289237e-03,-1.5797436e-02
2.1099200e+00,-2.1878860e-04,-1.4874620e-04,4.3041537e-06,-7.1273933e-04,-6.1369210e-03,-7.0702847e-04,3.5678742e-04,5.0951533e-04,-2.7732598e-04,1.1848485e-02,5.6740472e-02,-9.4869884e-03
2.1199200e+00,-1.8427229e-04,-1.5599380e-04,-4.7609290e-05,3.4527637e-03,-7.2222837e-04,3.4510349e-03,-8.9396972e-05,6.4431912e-04,-3.0854529e-04,-4.4618482e-02,1.3480392e-02,-3.1219339e-03
2.1299200e+00,-2.0513499e-04,-1.5336430e-04,-1.6305735e-04,-2.0872414e-03,2.6145461e-04,-2.0854897e-03,-1.6948351e-04,5.4744008e-04,-4.4352661e-04,-8.0086615e-03,-9.6879126e-03,-1.3498144e-02
2.1399200e+00,-1.9893386e-04,-8.1191119e-05,-1.3336178e-04,6.2143694e-04,7.2168823e-03,6.2393030e-04,1.5186082e-04,-5.6051930e-04,-3.6728430e-04,3.2134464e-02,-1.1079604e-01,7.6242376e-03
2.1499200e+00,-2.5003375e-04,-2.4542715e-05,2.4570623e-05,-5.1080006e-03,5.6749849e-03,-5.1007284e-03,9.3116397e-04,-1.0547630e-03,-6.4283957e-04,7.7930389e-02,-4.9424415e-02,-2.7555553e-02
2.1599200e+00,-2.0957226e-04,-1.1115283e-04,2.1972051e-05,4.0439087e-03,-8.6613815e-03,4.0476218e-03,3.0283724e-04,2.1326954e-04,-9.3610104e-05,-6.2832733e-02,1.2680337e-01,5.4922999e-02
2.1699200e+00,-1.9250179e-04,-1.1706628e-04,-8.5631471e-05,1.7074114e-03,-5.9029519e-04,1.7070484e-03,-1.1021349e-04,5.0502926e-04,-1.7461316e-04,-4.1305113e-02,2.9176000e-02,-8.1003134e-03
2.1799200e+00,-2.3933228e-04,-5.1008142e-05,-1.1311593e-04,-4.6832303e-03,6.6082445e-03,-4.6794528e-03,1.6411053e-04,-3.5386732e-04,-2.6945701e-04,2.7432428e-02,-8.5889740e-02,-9.4843938e-03
2.1899199e+00,-2.6297532e-04,3.2071103e-05,6.4764096e-06,-2.3573277e-03,8.3140003e-03,-2.3499025e-03,1.0092418e-03,-1.5642383e-03,-5.9508085e-04,8.4513210e-02,-1.2103721e-01,-3.2562416e-02
2.1999199e+00,-1.9111087e-04,4.6914501e-05,3.2403486e-05,7.1904374e-03,1.4652615e-03,7.1863812e-03,1.0095601e-03,-1.6455896e-03,-3.4660961e-04,3.1826656e-05,-8.1351429e-03,2.4847148e-02
2.2099199e+00,-1.9646821e-04,-1.6410778e-04,-9.6765703e-05,-5.3522168e-04,-2.1102638e-02,-5.2070555e-04,-3.4802073e-05,7.0166049e-04,-4.1445541e-04,-1.0443632e-01,2.3472524e-01,-6.7845860e-03
2.2199199e+00,-1.5144512e-04,-1.0671378e-04,-1.3796288e-04,4.5011478e-03,5.7447213e-03,4.4966950e-03,-4.3462028e-04,7.4669237e-04,-2.9542255e-04,-3.9981859e-02,4.5031927e-03,1.1903297e-02
2.2299199e+00,-1.7032761e-04,-6.8570044e-05,9.6311476e-06,-1.8880613e-03,3.8146200e-03,-1.8879504e-03,1.2809538e-04,-4.8802143e-07,-1.5826859e-04,5.6271620e-02,-7.4718110e-02,1.3715409e-02
2.2399199e+00,-1.6942782e-04,-5.7022777e-05,2.1779484e-05,9.0630667e-05,1.1546273e-03,9.0613779e-05,5.4123438e-04,-5.7211451e-04,-2.9081844e-04,4.1313939e-02,-5.7162703e-02,-1.3254998e-02
2.2499201e+00,-1.5780664e-04,-1.3387927e-04,-6.1863932e-05,1.1619733e-03,-7.6854445e-03,1.1623979e-03,7.8438052e-05,1.0292782e-04,-4.1714294e-04,-4.6278574e-02,6.7502688e-02,-1.2632161e-02
2.2599201e+00,-2.2008461e-04,-3.2112940e-04,-1.4883998e-04,-6.2248405e-03,-1.8743758e-02,-6.1741997e-03,-5.0579413e-04,2.5137373e-03,-1.0457285e-03,-5.8423274e-02,2.4108118e-01,-6.2858612e-02
2.2699201e+00,-1.4563763e-04,-1.5925061e-04,-9.5194384e-05,7.4478488e-03,1.6192226e-02,7.4321309e-03,1.0697985e-05,5.9318380e-04,-3.9901012e-04,5.1649261e-02,-1.9205554e-01,6.4671895e-02
2.2799201e+00,-1.4042093e-04,-5.9110893e-05,-1.0860793e-05,5.2857950e-04,1.0013265e-02,5.2842472e-04,6.8568147e-04,-6.7890009e-04,-8.2478591e-05,6.7498413e-02,-1.2720851e-01,3.1653183e-02
2.2899201e+00,-7.6899425e-05,-1.9227946e-05,-2.6066162e-05,6.3524462e-03,3.9803824e-03,6.3568303e-03,2.8848201e-04,-9.5728710e-04,1.3545834e-04,-3.9719984e-02,-2.7838727e-02,2.1793714e-02
2.2999201e+00,-1.8000014e-04,-2.8632145e-04,-1.4298088e-04,-1.0306489e-02,-2.6738640e-02,-1.0237562e-02,-5.5099090e-04,2.2971657e-03,-1.0797587e-03,-8.3947371e-02,3.2544559e-01,-1.2152182e-01
2.3099201e+00,-3.4439131e-06,2.1030360e-05,-5.0017813e-05,1.7651975e-02,3.0708444e-02,1.7705806e-02,2.1748394e-04,-1.2962664e-03,5.8593554e-04,7.6847557e-02,-3.5934355e-01,1.6656958e-01
2.3199201e+00,-1.2731492e-04,1.7723174e-04,-1.1783154e-05,-1.2371298e-02,1.5670853e-02,-1.2338785e-02,1.3222018e-03,-2.7778695e-03,-3.9156642e-04,1.1047189e-01,-1.4816046e-01,-9.7750289e-02
2.3299201e+00,-8.6288582e-05,8.1429059e-07,-9.9080956e-05,4.1023826e-03,-1.7648014e-02,4.0759141e-03,2.7384185e-04,-1.2551013e-03,-1.1161401e-03,-1.0483610e-01,1.5227696e-01,-7.2457435e-02
2.3399200e+00,3.1394849e-04,-1.2681002e-04,-7.7525412e-05,4.0029622e-02,-1.2769370e-02,4.0015659e-02,-2.2751156e-04,-4.0064979e-04,-7.4305437e-05,-5.0135389e-02,8.5445237e-02,1.0418356e-01
2.3499200e+00,6.0446169e-04,-2.6353743e-04,-8.0121696e-05,2.9054516e-02,-1.3636276e-02,2.9065320e-02,-2.3096586e-04,1.0244090e-03,-3.9621123e-07,-3.4543018e-04,1.4250602e-01,7.3909296e-03
2.3599200e+00,1.0595005e-03,7.4884484e-05,1.6905626e-04,4.5456278e-02,3.3699961e-02,4.5656872e-02,1.2081632e-03,-1.9126010e-03,1.9430155e-03,1.4391304e-01,-2.9370129e-01,1.9434136e-01
2.3699200e+00,1.2165036e-03,2.4074865e-04,2.5158953e-04,1.5676255e-02,1.6517986e-02,1.5796244e-02,1.3055896e-03,-3.0393225e-03,2.9073166e-03,9.7426552e-03,-1.1267225e-01,9.6430203e-02
2.3799200e+00,9.9536854e-04,1.2709919e-04,1.8679571e-04,-2.2061285e-02,-1.1324396e-02,-2.2186397e-02,7.9856024e-05,-1.7493363e-03,2.4006286e-03,-1.2257348e-01,1.2899874e-01,-5.0668853e-02
2.3899200e+00,6.5801625e-04,9.3669623e-05,1.6100346e-04,-3.3693150e-02,-3.2730905e-03,-3.3784163e-02,2.8002702e-04,-1.7886484e-03,1.2751936e-03,2.0017118e-02,-3.9312180e-03,-1.1254360e-01
2.3999200e+00,4.4050786e-04,2.0444560e-04,3.3666192e-04,-2.1717591e-02,1.1164725e-02,-2.1739557e-02,1.2792159e-03,-2.7259503e-03,8.7682130e-04,9.9918982e-02,-9.3730274e-02,-3.9837269e-02
2.4099200e+00,2.0683028e-04,1.4828702e-04,3.4610146e-04,-2.3357040e-02,-5.5586937e-03,-2.3392173e-02,8.1882901e-04,-1.6262059e-03,6.5582137e-04,-4.6038731e-02,1.0997454e-01,-2.2100014e-02
2.4199200e+00,3.9737797e-05,8.4115413e-05,2.6613436e-04,-1.6704700e-02,-6.4097101e-03,-1.6716689e-02,-5.7740320e-05,-5.0383676e-04,2.5098819e-04,-8.7657017e-02,1.1223702e-01,-4.0483357e-02
2.4299200e+00,8.1170493e-06,7.8695142e-05,3.0454260e-04,-3.1572100e-03,-5.4028525e-04,-3.1672358e-03,-1.0680931e-05,-5.6079987e-04,1.5364190e-03,4.7059433e-03,-5.6963167e-03,1.2854321e-01
2.4399199e+00,-1.5617134e-04,1.9989927e-04,3.5230616e-04,-1.6379316e-02,1.2162676e-02,-1.6447083e-02,7.1564786e-04,-1.8529865e-03,2.4840105e-03,7.2632948e-02,-1.2921879e-01,9.4759243e-02
2.4499199e+00,-4.1960052e-04,3.6170807e-04,4.0431817e-04,-2.6236066e-02,1.6295007e-02,-2.6379240e-02,1.1956878e-03,-3.1291978e-03,3.3165327e-03,4.8004036e-02,-1.2762126e-01,8.3252294e-02
2.4599199e+00,-9.1113973e-04,4.3627927e-04,4.4402465e-04,-4.8987887e-02,7.6717390e-03,-4.9286561e-02,9.4259425e-04,-3.4134941e-03,3.2301153e-03,-2.5309375e-02,-2.8429655e-02,-8.6417472e-03
2.4699199e+00,-1.8749963e-03,8.4767067e-05,2.7905652e-04,-9.6403838e-02,-3.5201259e-02,-9.6349394e-02,-4.0393741e-05,4.7854781e-04,-2.0246987e-04,-9.8298893e-02,3.8920456e-01,-3.4325885e-01
2.4799199e+00,-2.4296630e-03,6.7330070e-05,3.5865717e-04,-5.5472076e-02,-1.7164391e-03,-5.5462229e-02,9.8950829e-05,-3.9258932e-04,-9.3328344e-05,1.3934470e-02,-8.7113797e-02,1.0914163e-02
2.4899199e+00,-2.8203309e-03,1.4414021e-04,4.9954423e-04,-3.9042570e-02,7.7731158e-03,-3.9072859e-02,7.7789914e-04,-1.5790316e-03,4.6753654e-04,6.7894895e-02,-1.1864435e-01,5.6086542e-02
2.4999201e+00,-3.1848422e-03,2.0138833e-04,4.6845766e-04,-3.6425241e-02,5.8165749e-03,-3.6460792e-02,6.2795076e-04,-1.8923193e-03,5.8837016e-04,-1.4994495e-02,-3.1328050e-02,1.2083086e-02
2.5099201e+00,-3.4446392e-03,4.4784338e-05,3.7689694e-04,-2.5968117e-02,-1.5646845e-02,-2.5999498e-02,-3.2198063e-04,-8.4380665e-04,2.5262264e-04,-9.4993229e-02,1.0485137e-01,-3.3574785e-02
2.5199201e+00,-3.4817287e-03,-8.6531473e-05,4.9778371e-04,-3.7031333e-03,-1.3128277e-02,-3.7264655e-03,2.7699784e-04,-6.1475549e-04,2.5463875e-03,5.9897905e-02,2.2905138e-02,2.2937670e-01
2.5299201e+00,-3.7202120e-03,-1.3559849e-05,6.9848713e-04,-2.3715646e-02,7.4199786e-03,-2.3942619e-02,2.1550391e-03,-2.9820983e-03,4.8911223e-03,1.8780431e-01,-2.3673451e-01,2.3447370e-01
2.5399201e+00,-4.5641559e-03,2.4213446e-04,6.9772353e-04,-8.4074229e-02,2.6213988e-02,-8.4516278e-02,2.5206256e-03,-5.1060962e-03,3.0231589e-03,3.6558685e-02,-2.1240000e-01,-1.8679651e-01
2.5499201e+00,-5.4479588e-03,-1.1950122e-05,5.3966749e-04,-8.8303388e-02,-2.5081452e-02,-8.8550573e-02,1.2811156e-03,-2.4150806e-03,1.2377866e-03,-1.2395113e-01,2.6910182e-01,-1.7853740e-01
2.5599201e+00,-6.1087220e-03,-3.9693474e-05,5.5071869e-04,-6.6055342e-02,-2.5611175e-03,-6.6106022e-02,7.1213418e-04,-2.5137313e-03,3.4801860e-04,-5.6898194e-02,-9.8650818e-03,-8.8976884e-02
2.5699201e+00,-6.7004289e-03,-2.7770692e-04,5.6091896e-04,-5.9219846e-02,-2.3723833e-02,-5.9152756e-02,6.9197924e-04,-6.1853909e-04,-5.5188339e-04,-2.0154953e-03,1.8951940e-01,-8.9990285e-02
2.5799201e+00,-6.8156369e-03,-3.4303387e-04,7.4986015e-04,-1.1516044e-02,-6.4951590e-03,-1.1546778e-02,2.1534848e-03,-1.1016555e-03,1.6314010e-03,1.4615070e-01,-4.8311686e-02,2.1832865e-01
2.5899200e+00,-6.9115084e-03,2.8621083e-05,9.6403400e-04,-9.4400726e-03,3.7230778e-02,-9.4793465e-03,2.7398975e-03,-4.0938985e-03,4.7056829e-03,5.8641321e-02,-2.9922459e-01,3.0742848e-01
2.5999200e+00,-7.7933196e-03,1.0141533e-04,6.3023731e-04,-8.7980084e-02,7.6347273e-03,-8.8351885e-02,1.3317632e-03,-2.6919404e-03,2.1675933e-03,-1.4081356e-01,1.4019594e-01,-2.5380920e-01
2.6099200e+00,-8.6818242e-03,1.5643698e-04,6.6002364e-04,-8.8745980e-02,5.9000871e-03,-8.8929477e-02,1.0594684e-03,-3.4156491e-03,1.1100551e-03,-2.7229506e-02,-7.2370939e-02,-1.0575392e-01
2.6199200e+00,-9.6557244e-03,-6.5546315e-05,6.8686875e-04,-9.7473013e-02,-2.1765424e-02,-9.7404901e-02,1.5377735e-03,-2.9077523e-03,-5.0196868e-04,4.7830554e-02,5.0789730e-02,-1.6120253e-01
2.6299200e+00,-1.0390910e-02,-2.6372239e-04,6.5236157e-04,-7.3651031e-02,-1.9507463e-02,-7.3469073e-02,1.8181416e-03,-2.4026385e-03,-1.3131494e-03,2.8036838e-02,5.0511432e-02,-8.1118149e-02
2.6399200e+00,-1.0705759e-02,-1.9547358e-04,7.4788104e-04,-3.1490316e-02,6.9922547e-03,-3.1442752e-02,1.8657672e-03,-3.4536933e-03,-5.7803409e-04,4.7625626e-03,-1.0510558e-01,7.3511600e-02
2.6499200e+00,-1.0976770e-02,-2.9599271e-04,7.9653385e-04,-2.7124343e-02,-9.9433377e-03,-2.7117862e-02,1.8640167e-03,-2.1415284e-03,-1.6870436e-04,-1.7505201e-04,1.3121661e-01,4.0933012e-02
2.6599200e+00,-1.0663096e-02,1.1370213e-04,1.2049502e-03,3.1367149e-02,4.0628716e-02,3.1807803e-02,4.3855884e-03,-6.4035768e-03,5.7094808e-03,2.5215741e-01,-4.2620524e-01,5.8781908e-01
2.6699200e+00,-1.1549503e-02,1.8431147e-04,1.1437795e-03,-8.8281533e-02,7.9008321e-03,-8.8927894e-02,3.3514963e-03,-6.1027883e-03,3.7728278e-03,-1.0340930e-01,3.0078876e-02,-1.9366548e-01
2.6799200e+00,-1.2692472e-02,-1.0442539e-04,1.0344452e-03,-1.1426640e-01,-2.8204449e-02,-1.1449457e-01,2.2813364e-03,-3.5689052e-03,8.4123096e-04,-1.0701610e-01,2.5338855e-01,-2.9315996e-01
2.6899199e+00,-1.3556561e-02,-1.3407112e-04,1.1033930e-03,-8.6412996e-02,-2.3312868e-03,-8.6424466e-02,2.6778825e-03,-4.6504512e-03,4.2371746e-05,3.9654656e-02,-1.0815470e-01,-7.9885998e-02
2.6999199e+00,-1.4584666e-02,-4.3466181e-04,9.6996101e-04,-1.0313318e-01,-2.9582145e-02,-1.0262562e-01,2.3178628e-03,-2.3254553e-03,-2.4659666e-03,-3.6002007e-02,2.3249981e-01,-2.5083407e-01
2.7099199e+00,-1.4741680e-02,-7.3189613e-04,1.2740349e-03,-1.5806936e-02,-2.9655328e-02,-1.5724430e-02,3.4718796e-03,-8.5537246e-04,-1.5159572e-04,1.1540179e-01,1.4700842e-01,2.3143731e-01
2.7199199e+00,-1.5134287e-02,-3.0701714e-04,1.3902851e-03,-3.8969224e-02,4.2880090e-02,-3.9124584e-02,4.6092058e-03,-5.3935140e-03,2.4233921e-03,1.1373273e-01,-4.5381458e-01,2.5749903e-01
2.7299199e+00,-1.5706537e-02,-2.6059924e-04,1.4100589e-03,-5.7032110e-02,5.2152188e-03,-5.7368067e-02,4.1559851e-03,-5.8490895e-03,3.0210048e-03,-4.5322113e-02,-4.5557603e-02,5.9761332e-02
2.7399199e+00,-1.6852515e-02,-3.5559705e-04,1.3376180e-03,-1.1457559e-01,-8.5042668e-03,-1.1469838e-01,3.9340700e-03,-4.7490922e-03,5.1300405e-04,-2.2191532e-02,1.0999984e-01,-2.5080032e-01
2.7499201e+00,-1.7511887e-02,-2.7234491e-04,1.3742939e-03,-6.5816204e-02,8.8818674e-03,-6.5982480e-02,3.1385941e-03,-5.3016494e-03,1.4106269e-03,-7.9545777e-02,-5.5254461e-02,8.9760229e-02
2.7599201e+00,-1.8146846e-02,-5.3519044e-04,1.5167934e-03,-6.3488880e-02,-2.5930596e-02,-6.3648280e-02,2.2595624e-03,-3.3085715e-03,1.0427992e-03,-8.7903245e-02,1.9930799e-01,-3.6782799e-02
2.7699201e+00,-1.8831009e-02,-8.0480536e-04,1.4267830e-03,-6.8490883e-02,-2.6646806e-02,-6.8465144e-02,2.5374537e-03,-2.0605998e-03,-9.2027421e-05,2.7789152e-02,1.2479729e-01,-1.1348278e-01
2.7799201e+00,-1.9261041e-02,-7.1663208e-04,1.6085243e-03,-4.2900169e-02,9.1760600e-03,-4.3031177e-02,4.6711543e-03,-3.6690473e-03,1.4276718e-03,2.1337026e-01,-1.6084491e-01,1.5197007e-01
2.7899201e+00,-1.9439118e-02,-1.8823720e-04,2.0059027e-03,-1.7404037e-02,5.3073212e-02,-1.7509411e-02,5.7219680e-03,-7.4906576e-03,5.6580736e-03,1.0508147e-01,-3.8216139e-01,4.2304059e-01
2.7999201e+00,-2.0857454e-02,-4.8733668e-04,1.4759241e-03,-1.4165714e-01,-2.8739301e-02,-1.4225159e-01,2.9913755e-03,-5.2488977e-03,1.8694762e-03,-2.7305951e-01,2.2417620e-01,-3.7886010e-01
2.8099201e+00,-2.1900372e-02,-6.1256054e-04,1.5806004e-03,-1.0418148e-01,-1.1421910e-02,-1.0452836e-01,4.3193975e-03,-6.2195535e-03,1.5670041e-03,1.3280233e-01,-9.7065669e-02,-3.0247237e-02
2.8199060e+00,-2.3184200e-02,-9.7273932e-04,1.5988610e-03,-1.2877562e-01,-3.4791220e-02,-1.2870372e-01,5.6484380e-03,-4.2810981e-03,-7.9069355e-05,1.3309139e-01,1.9411879e-01,-1.6483938e-01
2.8299060e+00,-2.4116130e-02,-1.1190228e-03,1.8053208e-03,-9.3259687e-02,-1.3819122e-02,-9.3249889e-02,5.5284759e-03,-3.1514136e-03,1.3749038e-04,-1.1996216e-02,1.1296856e-01,2.1655994e-02
2.8399060e+00,-2.5085714e-02,-1.1378806e-03,1.8053826e-03,-9.6970823e-02,-9.3328853e-04,-9.6960099e-02,5.9470744e-03,-3.8763875e-03,-2.8725799e-05,4.1859889e-02,-7.2497463e-02,-1.6621634e-02
2.8499060e+00,-2.6015693e-02,-9.5639977e-04,1.7553337e-03,-9.2764202e-02,1.9205394e-02,-9.3019126e-02,5.0638398e-03,-6.3021879e-03,1.5116540e-03,-8.8323544e-02,-2.4258027e-01,1.5403813e-01
2.8599060e+00,-2.7373722e-02,-1.2914678e-03,1.6512042e-03,-1.3615948e-01,-3.2088548e-02,-1.3578868e-01,6.0204035e-03,-4.4216901e-03,-1.1579769e-03,9.5656463e-02,1.8804995e-01,-2.6696335e-01
2.8699059e+00,-2.8408911e-02,-1.2952692e-03,1.5873158e-03,-1.0369398e-01,7.9099371e-04,-1.0334132e-01,6.4273881e-03,-4.8940841e-03,-1.6891671e-03,4.0698492e-02,-4.7239446e-02,-5.3119071e-02
2.8799059e+00,-2.9219478e-02,-1.4893592e-03,1.7233325e-03,-8.1299061e-02,-1.8654667e-02,-8.0991232e-02,6.2375479e-03,-3.0679373e-03,-1.5160598e-03,-1.8984036e-02,1.8261486e-01,1.7310752e-02
2.8899059e+00,-3.0082558e-02,-1.7508590e-03,1.7953994e-03,-8.6557984e-02,-2.5517491e-02,-8.6247120e-02,5.7634621e-03,-1.5615623e-03,-1.1665352e-03,-4.7408622e-02,1.5063764e-01,3.4952489e-02
2.8999059e+00,-3.0836233e-02,-1.4778968e-03,1.9248818e-03,-7.5017491e-02,2.8281514e-02,-7.5353645e-02,7.1084211e-03,-5.9679912e-03,2.0437148e-03,1.3449602e-01,-4.4064331e-01,3.2102531e-01
2.9099059e+00,-3.1947156e-02,-1.3818846e-03,1.8314608e-03,-1.1084012e-01,1.1043071e-02,-1.1121035e-01,6.9845216e-03,-5.9883367e-03,1.6414807e-03,-1.2389962e-02,-2.0345527e-03,-4.0223452e-02
2.9199059e+00,-3.3452223e-02,-1.5098117e-03,1.8046688e-03,-1.5073323e-01,-1.0737426e-02,-1.5044079e-01,7.4101865e-03,-6.2475640e-03,-9.0266363e-04,4.2566527e-02,-2.5922749e-02,-2.5441468e-01
2.9299059e+00,-3.4796655e-02,-1.9785411e-03,1.7111405e-03,-1.3506128e-01,-4.5362495e-02,-1.3434222e-01,7.3589952e-03,-3.8722296e-03,-2.0593237e-03,-5.1191314e-03,2.3753367e-01,-1.1566612e-01
2.9399059e+00,-3.5732805e-02,-2.0178872e-03,1.7806573e-03,-9.3657081e-02,-2.8114877e-03,-9.3613511e-02,7.1809212e-03,-4.8157267e-03,-1.7278273e-04,-1.7807415e-02,-9.4349804e-02,1.8865428e-01
2.9499059e+00,-3.6824918e-02,-2.0907995e-03,1.9194427e-03,-1.0913329e-01,-5.6711002e-03,-1.0938537e-01,9.0480344e-03,-5.7759677e-03,1.2769794e-03,1.8671150e-01,-9.6024193e-02,1.4497635e-01
2.9599059e+00,-3.8001113e-02,-2.0573769e-03,2.0240939e-03,-1.1726043e-01,5.3224528e-03,-1.1790508e-01,9.8558957e-03,-6.9632416e-03,2.7219184e-03,8.0786203e-02,-1.1872750e-01,1.4449404e-01
2.9699059e+00,-3.9579654e-02,-2.1259025e-03,1.9046751e-03,-1.5767404e-01,-4.6633743e-03,-1.5811393e-01,7.3182193e-03,-6.5389912e-03,1.4313010e-03,-2.5376788e-01,4.2425084e-02,-1.2906187e-01
2.9799058e+00,-4.1259098e-02,-2.3797735e-03,2.0005765e-03,-1.6809592e-01,-2.2738685e-02,-1.6817244e-01,9.3176967e-03,-6.4397624e-03,4.6369587e-04,1.9994792e-01,9.9228893e-03,-9.6760602e-02
2.9899058e+00,-4.2791276e-02,-2.4935040e-03,1.9720515e-03,-1.5320051e-01,-8.8649156e-03,-1.5340093e-01,9.8445761e-03,-6.5152399e-03,7.9578116e-04,5.2687989e-02,-7.5477567e-03,3.3208561e-02
2.9999061e+00,-4.4189220e-02,-2.5255962e-03,2.0676306e-03,-1.3959334e-01,-8.4034848e-04,-1.4002310e-01,9.3194288e-03,-7.6125819e-03,1.5848707e-03,-5.2513519e-02,-1.0973169e-01,7.8907152e-02
3.0099061e+00,-4.6038885e-02,-2.9467304e-03,1.9950332e-03,-1.8552301e-01,-3.9017481e-02,-1.8508839e-01,1.1247671e-02,-5.4757870e-03,-5.1045318e-04,1.9282441e-01,2.1367970e-01,-2.0953259e-01
3.0199060e+00,-4.7579353e-02,-3.0765516e-03,1.9320685e-03,-1.5385860e-01,-1.0572994e-02,-1.5441904e-01,1.0015609e-02,-5.6068856e-03,2.0149376e-03,-1.2320630e-01,-1.3109871e-02,2.5253932e-01
3.0299060e+00,-4.9414839e-02,-3.2069458e-03,1.9374490e-03,-1.8347627e-01,-9.7648257e-03,-1.8382432e-01,1.1202907e-02,-6.6246490e-03,1.1270429e-03,1.1872989e-01,-1.0177644e-01,-8.8789552e-02
3.0399060e+00,-5.1610975e-02,-3.2576611e-03,1.9780030e-03,-2.1957779e-01,-8.3370246e-04,-2.1970682e-01,1.2428937e-02,-6.8636147e-03,3.7379426e-04,1.2260307e-01,-2.3896598e-02,-7.5324937e-02
3.0499060e+00,-5.3569894e-02,-3.5346813e-03,1.9843837e-03,-1.9583362e-01,-2.4555436e-02,-1.9636961e-01,1.0085272e-02,-5.9584305e-03,1.6722579e-03,-2.3436672e-01,9.0518506e-02,1.2984649e-01
3.0599060e+00,-5.5686995e-02,-3.6867087e-03,2.0261780e-03,-2.1133414e-01,-1.1422773e-02,-2.1232300e-01,1.1303597e-02,-6.5288492e-03,2.5215514e-03,1.2183269e-01,-5.7041920e-02,8.4929425e-02
3.0699060e+00,-5.8303034e-02,-3.8397073e-03,1.9025429e-03,-2.6174528e-01,-1.0399857e-02,-2.6170375e-01,1.2600752e-02,-6.1240265e-03,1.1824780e-04,1.2971562e-01,4.0482312e-02,-2.4033059e-01
3.0799060e+00,-6.0597297e-02,-4.0765655e-03,1.8466055e-03,-2.3012170e-01,-1.9709209e-02,-2.2910598e-01,1.2247556e-02,-5.0861872e-03,-1.8427420e-03,-3.5319703e-02,1.0378403e-01,-1.9609917e-01
3.0899060e+00,-6.2943550e-02,-4.3913618e-03,1.7634836e-03,-2.3545000e-01,-2.7030650e-02,-2.3435435e-01,1.3608650e-02,-5.3493664e-03,-1.7820254e-03,1.3610956e-01,-2.6317946e-02,6.0716694e-03
3.0999060e+00,-6.4788922e-02,-4.5456342e-03,1.8988898e-03,-1.8469740e-01,-1.1679552e-02,-1.8465243e-01,1.4481964e-02,-5.8158796e-03,2.3841155e-04,8.7331539e-02,-4.6651366e-02,2.0204389e-01
3.1099060e+00,-6.7218438e-02,-4.7193777e-03,1.7958875e-03,-2.4306545e-01,-1.2263831e-02,-2.4314975e-01,1.5034305e-02,-5.9894429e-03,4.9414853e-04,5.5234073e-02,-1.7356342e-02,2.5573722e-02
3.1199059e+00,-6.9425676e-02,-5.0115181e-03,2.1037207e-03,-2.2085392e-01,-2.4390558e-02,-2.2117935e-01,1.6141460e-02,-5.6852291e-03,1.4165688e-03,1.1071565e-01,3.0421404e-02,9.2242117e-02
3.1299059e+00,-7.2265201e-02,-4.9012770e-03,2.0813785e-03,-2.8352682e-01,1.8629930e-02,-2.8398125e-01,1.7688455e-02,-9.1004931e-03,6.5671590e-04,1.5469964e-01,-3.4152672e-01,-7.5985364e-02
3.1399059e+00,-7.4874431e-02,-5.1476243e-03,2.0824568e-03,-2.6104706e-01,-1.8102332e-02,-2.6133399e-01,1.7085683e-02,-7.9269604e-03,9.9193917e-04,-6.0277308e-02,1.1735338e-01,3.3522359e-02
3.1499059e+00,-7.7748818e-02,-5.4197520e-03,1.9210440e-03,-2.8806236e-01,-1.9946784e-02,-2.8741099e-01,1.7251767e-02,-8.0165289e-03,-6.8456530e-04,1.6608487e-02,-8.9568636e-03,-1.6765061e-01
3.1599059e+00,-8.0381855e-02,-5.9760413e-03,1.8215196e-03,-2.6470875e-01,-4.9659186e-02,-2.6308904e-01,1.7379180e-02,-5.2694046e-03,-1.8161107e-03,1.2741308e-02,2.7471270e-01,-1.1315465e-01
