time, x, y, z, vx, vy, vz, yaw, pitch, roll, yaw_rate, pitch_rate, roll_rate
0.0000000e+00,0.0000000e+00,0.0000000e+00,0.0000000e+00,0.0000000e+00,0.0000000e+00,0.0000000e+00,0.0000000e+00,0.0000000e+00,0.0000000e+00,0.0000000e+00,0.0000000e+00,0.0000000e+00
9.9999905e-03,1.8011990e-05,5.7754278e-06,-7.9145942e-06,1.8011027e-03,5.8080676e-04,1.8002491e-03,-4.7252675e-04,1.3397382e-03,-9.7213056e-05,-4.7252720e-02,1.3397395e-01,-9.7213149e-03
1.9999981e-02,1.4994988e-04,2.0931438e-05,8.7186905e-05,1.3188407e-02,1.5545278e-03,1.3194667e-02,-8.4843319e-04,2.1014874e-03,3.1101078e-04,-3.7590680e-02,7.6174990e-02,4.0822423e-02
2.9999971e-02,2.1576175e-04,1.4394965e-05,1.1747439e-04,6.5784745e-03,-6.2863261e-04,6.5863460e-03,-1.0836806e-03,2.7155194e-03,5.1999188e-04,-2.3524765e-02,6.1403262e-02,2.0898129e-02
3.9999962e-02,1.5173698e-04,3.1987365e-05,1.3720503e-04,-6.4013459e-03,1.7408436e-03,-6.4086464e-03,-4.4275515e-04,2.4292726e-03,2.9915979e-04,6.4092608e-02,-2.8624714e-02,-2.2083229e-02
4.9999952e-02,6.6411961e-05,5.6464489e-05,8.4804666e-05,-8.5370844e-03,2.4262417e-03,-8.5340673e-03,-1.3597030e-04,2.3810204e-03,-4.9723286e-04,3.0678514e-02,-4.8252233e-03,-7.9639341e-02
5.9999943e-02,9.6869105e-05,2.4493771e-05,5.2438788e-05,3.0485136e-03,-3.1885708e-03,3.0518282e-03,-3.4496625e-04,2.4453251e-03,-5.5624107e-04,-2.0899615e-02,6.4304785e-03,-5.9008264e-03
6.9999933e-02,2.2143709e-04,7.2310092e-05,7.3524239e-05,1.2450189e-02,4.8148731e-03,1.2450627e-02,-1.0367381e-03,1.6319013e-03,1.3310647e-04,-6.9177252e-02,-8.1342459e-02,6.8934820e-02
7.9999924e-02,2.3606819e-04,-3.8492175e-05,8.7057622e-05,1.4700686e-03,-1.1076924e-02,1.4811130e-03,-6.5706223e-04,1.5957568e-03,2.2041733e-04,3.7967624e-02,-3.6144573e-03,8.7310948e-03
8.9999914e-02,2.5864323e-04,-5.2845548e-05,8.1961180e-05,2.2577980e-03,-1.4302449e-03,2.2604452e-03,-5.2155804e-04,1.7334118e-03,2.0216563e-04,1.3550432e-02,1.3765520e-02,-1.8251721e-03
9.9999905e-02,2.4819780e-04,-2.6534746e-05,8.7726740e-05,-1.0457799e-03,2.6290025e-03,-1.0485382e-03,-5.5554591e-04,1.4325855e-03,2.1646347e-04,-3.3987897e-03,-3.0082665e-02,1.4297848e-03
1.0999990e-01,2.2101883e-04,-5.4500046e-05,9.1125773e-05,-2.7150561e-03,-2.8020944e-03,-2.7150109e-03,-6.2427408e-04,1.4227759e-03,4.0347004e-04,-6.8728243e-03,-9.8096041e-04,1.8700675e-02
1.1999989e-01,1.4979236e-04,4.0812556e-06,1.0138703e-05,-7.1266266e-03,5.8392046e-03,-7.1342143e-03,-9.3506988e-04,1.7208615e-03,2.1075264e-04,-3.1079610e-02,2.9808593e-02,-1.9271758e-02
1.2999988e-01,1.3029046e-04,5.6122215e-05,5.4387891e-05,-1.9536821e-03,5.2002130e-03,-1.9570590e-03,-7.9127733e-04,1.1991492e-03,3.2192434e-04,1.4379268e-02,-5.2171285e-02,1.1117181e-02
1.3999987e-01,1.1256743e-04,2.8689412e-05,5.3711775e-05,-1.7696717e-03,-2.7475426e-03,-1.7683322e-03,-7.7088714e-04,1.6346484e-03,2.9191169e-04,2.0390219e-03,4.3549961e-02,-3.0012685e-03
1.4999986e-01,8.6675044e-05,4.6802970e-05,6.0710583e-05,-2.5901335e-03,1.8052936e-03,-2.5925810e-03,-9.0795231e-04,1.4325899e-03,2.8997548e-04,-1.3706531e-02,-2.0205868e-02,-1.9362125e-04
1.5999985e-01,8.2564129e-05,7.5635221e-06,3.2571477e-05,-4.0804045e-04,-3.9250398e-03,-4.0364717e-04,-7.6495045e-04,1.9094970e-03,1.2095581e-04,1.4300200e-02,4.7690759e-02,-1.6901982e-02
1.6999984e-01,6.7344460e-05,2.2364891e-05,4.7731987e-06,-1.5229708e-03,1.4767959e-03,-1.5242108e-03,-5.6459342e-04,1.6302080e-03,-1.0973382e-04,2.0035722e-02,-2.7928932e-02,-2.3068986e-02
1.7999983e-01,6.1531132e-05,2.1571834e-05,-3.2765560e-05,-5.8137824e-04,-8.0485971e-05,-5.8112611e-04,-5.2332355e-04,1.5071987e-03,-1.4885125e-04,4.1269907e-03,-1.2300933e-02,-3.9117464e-03
1.8999982e-01,1.0833942e-04,-6.0483448e-05,5.6954726e-05,4.6823997e-03,-8.1981743e-03,4.6921531e-03,-2.4071763e-04,1.3302916e-03,8.7395823e-05,2.8260619e-02,-1.7690728e-02,2.3624730e-02
1.9999981e-01,1.9042861e-04,7.5668985e-05,4.4037524e-05,8.1972862e-03,1.3636412e-02,8.1854086e-03,-8.3975074e-04,1.7404352e-03,2.4810038e-05,-5.9903368e-02,4.1014394e-02,-6.2585845e-03
2.0999980e-01,3.0271050e-04,1.2675512e-04,1.1652301e-04,1.1220913e-02,5.1408191e-03,1.1220785e-02,-9.9624483e-04,1.8722659e-03,1.9517677e-04,-1.5649424e-02,1.3183086e-02,1.7036689e-02
2.1999979e-01,2.7199708e-04,1.2280490e-04,1.1466718e-04,-3.0700179e-03,-4.0333583e-04,-3.0715916e-03,-1.0532531e-03,1.6533674e-03,2.9606998e-04,-5.7008325e-03,-2.1889867e-02,1.0089331e-02
2.3000002e-01,1.7991779e-04,3.2944185e-05,7.3778543e-05,-9.1970683e-03,-9.0092845e-03,-9.1954701e-03,-9.5581401e-04,1.5888716e-03,2.2337952e-04,9.7436852e-03,-6.4494408e-03,-7.2688798e-03
2.4000001e-01,1.8074721e-04,8.2832115e-06,6.0398858e-05,8.5137236e-05,-2.4658666e-03,8.7523335e-05,-8.9870984e-04,1.8490599e-03,2.5396118e-04,5.7104225e-03,2.6018864e-02,3.0581685e-03
2.5000000e-01,2.2877121e-04,-2.7079691e-05,5.6825200e-05,4.8047868e-03,-3.5173202e-03,4.8139414e-03,-1.0925208e-03,2.8540034e-03,3.0776030e-04,-1.9381115e-02,1.0049444e-01,5.3799173e-03
2.5999999e-01,2.4452483e-04,-4.3430866e-05,7.6591064e-05,1.5768556e-03,-1.6282079e-03,1.5810203e-03,-1.2681593e-03,3.1118284e-03,3.6877878e-04,-1.7563870e-02,2.5782531e-02,6.1018538e-03
2.6999998e-01,1.5704420e-04,-4.6556706e-05,1.6276373e-05,-8.7455862e-03,-3.4372500e-04,-8.7493883e-03,-1.0795217e-03,2.4797260e-03,2.4491801e-04,1.8863778e-02,-6.3210302e-02,-1.2386088e-02
2.7999997e-01,1.0381091e-04,-3.2242650e-06,4.0076102e-06,-5.3260403e-03,4.3198882e-03,-5.3314790e-03,-7.7861690e-04,1.7294294e-03,1.2508471e-04,3.0090513e-02,-7.5029736e-02,-1.1983342e-02
2.8999996e-01,1.2839970e-04,8.8392693e-05,3.1976663e-05,2.4525353e-03,9.1655206e-03,2.4509848e-03,-6.8602951e-04,8.6818293e-04,2.4457070e-05,9.2587478e-03,-8.6124727e-02,-1.0062773e-02
2.9999995e-01,1.8925324e-04,7.5627097e-05,1.1459038e-04,6.0840603e-03,-1.2731773e-03,6.0873661e-03,-3.1443079e-04,2.4150811e-04,2.7929187e-04,3.7159908e-02,-6.2667542e-02,2.5483504e-02
3.0999994e-01,1.5342538e-04,7.3732763e-05,7.7670771e-05,-3.5821101e-03,-1.9142543e-04,-3.5833628e-03,-3.4366348e-04,2.1224871e-04,1.7136081e-04,-2.9232726e-03,-2.9259429e-03,-1.0793116e-02
3.1999993e-01,1.5234817e-04,2.3176006e-05,7.9537068e-05,-1.0608095e-04,-5.0557874e-03,-1.0427134e-04,-3.2034084e-04,6.8605694e-04,1.8418977e-04,2.3322670e-03,4.7380868e-02,1.2828967e-03
3.2999992e-01,1.3847219e-04,1.8906729e-05,2.4276856e-05,-1.3873851e-03,-4.3046401e-04,-1.3867221e-03,-6.9466126e-04,1.8542550e-03,-5.9167386e-05,-3.7432079e-02,1.1681992e-01,-2.4335739e-02
3.3999991e-01,9.1933515e-05,-5.6591797e-05,1.9817289e-05,-4.6531303e-03,-7.5650865e-03,-4.6298239e-03,-3.4886650e-04,2.9312192e-03,-4.0683530e-04,3.4579510e-02,1.0769652e-01,-3.4766825e-02
3.4999990e-01,2.3485912e-06,-2.2947846e-04,-3.6258754e-05,-8.9611889e-03,-1.7334972e-02,-8.8658809e-03,-4.6601967e-04,4.7286145e-03,-1.2002308e-03,-1.1715328e-02,1.7973970e-01,-7.9339627e-02
3.5999990e-01,3.9641631e-05,-7.2430273e-05,4.1181558e-05,3.7268027e-03,1.5716895e-02,3.6806795e-03,-2.3847503e-04,3.0161924e-03,-3.3269041e-04,2.2754486e-02,-1.7124237e-01,8.6754123e-02
3.6999989e-01,1.1730459e-04,6.4001836e-05,1.1377267e-04,7.7623449e-03,1.3657826e-02,7.7445649e-03,-1.3878414e-04,1.7435630e-03,2.6579368e-04,9.9690984e-03,-1.2726307e-01,5.9848467e-02
3.7999988e-01,1.2715173e-04,7.3532444e-05,1.2489486e-04,9.8434833e-04,9.5516842e-04,9.8303916e-04,-4.2252383e-04,1.7184364e-03,-3.6570565e-05,-2.8373996e-02,-2.5126618e-03,-3.0236453e-02
3.8999987e-01,-2.3382916e-05,-1.0304908e-04,-1.4773653e-05,-1.5066509e-02,-1.7715199e-02,-1.4973224e-02,-4.3508234e-04,3.3647608e-03,-1.3770054e-03,-1.2558519e-03,1.6463260e-01,-1.3404361e-01
3.9999986e-01,1.5443737e-04,2.9231059e-05,8.6824397e-05,1.7775012e-02,1.3242886e-02,1.7778018e-02,-3.1556830e-04,5.2015299e-04,1.6076455e-04,1.1951415e-02,-2.8446105e-01,1.5377715e-01
4.0999985e-01,-3.3019878e-05,-2.3798184e-04,-1.1922410e-04,-1.8785689e-02,-2.6781400e-02,-1.8619586e-02,1.4531236e-04,3.3651192e-03,-1.9256699e-03,4.6088110e-02,2.8449689e-01,-2.0864365e-01
4.1999984e-01,1.5590662e-05,-3.0011268e-04,-9.6490286e-05,4.8695302e-03,-6.1916529e-03,4.8798954e-03,-5.6940677e-05,4.3482281e-03,-1.6713594e-03,-2.0225323e-02,9.8310983e-02,2.5431079e-02
4.2999983e-01,2.7244218e-04,-3.0688232e-05,1.0434438e-04,2.5656823e-02,2.7001643e-02,2.5651355e-02,-6.8479231e-04,1.6199561e-03,3.8526014e-04,-6.2785223e-02,-2.7282745e-01,2.0566215e-01
4.3999982e-01,2.1565444e-04,4.2173882e-05,4.7379948e-05,-5.6844045e-03,7.2710351e-03,-5.6925957e-03,-9.9401518e-04,1.6767576e-03,2.8431781e-04,-3.0922316e-02,5.6801539e-03,-1.0094243e-02
4.4999981e-01,5.7877100e-05,-1.2741019e-04,1.3846319e-06,-1.5786444e-02,-1.7023315e-02,-1.5698972e-02,-4.8833425e-04,3.6357353e-03,-1.0766902e-03,5.0568141e-02,1.9589796e-01,-1.3610093e-01
4.5999980e-01,1.1780800e-04,-3.7854319e-05,8.1162776e-05,5.9905441e-03,8.9761544e-03,5.9648225e-03,-4.7827196e-04,2.9597805e-03,-2.8911766e-04,1.0062298e-03,-6.7595547e-02,7.8757329e-02
4.6999979e-01,2.7389428e-05,-7.5433540e-05,5.4377786e-05,-9.0478682e-03,-3.7900262e-03,-9.0224419e-03,-3.2582960e-04,3.2291563e-03,-7.9964949e-04,1.5244250e-02,2.6937613e-02,-5.1053231e-02
4.8000002e-01,-4.1759710e-05,-1.5578920e-04,-3.1563002e-06,-6.9212810e-03,-8.0598336e-03,-6.8796807e-03,-9.2496814e-05,3.4542109e-03,-1.0517420e-03,2.3332745e-02,2.2504939e-02,-2.5208675e-02
4.9000001e-01,1.6544921e-05,-2.6600369e-07,1.3316097e-05,5.8324588e-03,1.5564464e-02,5.7960086e-03,-3.1427502e-05,2.0554891e-03,-4.2524981e-04,6.1069370e-03,-1.3987231e-01,6.2649279e-02
5.0000000e-01,7.5652013e-05,2.0838709e-05,7.9123949e-05,5.9112278e-03,2.1147104e-03,5.9086871e-03,2.1730443e-04,9.3432801e-04,-9.2249671e-06,2.4873217e-02,-1.1211622e-01,4.1602524e-02
5.0999999e-01,2.7548941e-05,4.0610107e-06,1.7886477e-05,-4.8130564e-03,-1.6812734e-03,-4.8063420e-03,2.6602941e-04,9.9471336e-04,-4.7793145e-04,4.8725027e-03,6.0385407e-03,-4.6870693e-02
5.1999998e-01,3.3320823e-06,-8.5318031e-05,-3.0784669e-05,-2.4280689e-03,-8.9407090e-03,-2.4049189e-03,4.5226652e-04,1.6136973e-03,-9.6618826e-04,1.8623728e-02,6.1898453e-02,-4.8825728e-02
5.2999997e-01,4.7950946e-05,4.4801649e-05,-1.8906457e-05,4.4649025e-03,1.3019550e-02,4.4367266e-03,-5.3937668e-05,1.6478119e-03,-8.3267037e-04,-5.0620467e-02,3.4114640e-03,1.3351802e-02
5.3999996e-01,1.2600926e-04,5.3433050e-05,7.2242609e-05,7.8073217e-03,8.8281946e-04,7.8021533e-03,-5.2031286e-04,2.0014137e-03,-2.4772551e-04,-4.6637564e-02,3.5360212e-02,5.8494542e-02
5.4999995e-01,1.3269057e-04,-3.4130261e-05,8.4216280e-05,6.7288181e-04,-8.7540543e-03,6.9285180e-04,-5.1219398e-04,2.8539991e-03,-3.9679691e-04,8.1188903e-04,8.5258621e-02,-1.4907155e-02
5.5999994e-01,9.0684046e-05,-1.3432694e-04,6.4525893e-05,-4.2019394e-03,-1.0036952e-02,-4.1579152e-03,-2.3262805e-04,3.9013224e-03,-8.6075667e-04,2.7956619e-02,1.0473243e-01,-4.6396020e-02
5.6999993e-01,7.0244992e-06,-2.1089905e-04,-1.9454102e-06,-8.3741899e-03,-7.6982303e-03,-8.3199662e-03,-2.9671723e-04,4.6212452e-03,-1.2558339e-03,-6.4089241e-03,7.1992353e-02,-3.9507764e-02
5.7999992e-01,-1.9870423e-05,-2.8729752e-04,-5.3199809e-05,-2.6888483e-03,-7.6552855e-03,-2.6459103e-03,-6.0987299e-04,5.1738790e-03,-1.4933760e-03,-3.1315606e-02,5.5263432e-02,-2.3754232e-02
5.8999991e-01,8.9143236e-06,-2.1150813e-04,-8.2784396e-05,2.8786572e-03,7.5920229e-03,2.8436271e-03,-5.3876758e-04,4.0318178e-03,-1.4822801e-03,7.1105483e-03,-1.1420623e-01,1.1095930e-03
5.9999990e-01,5.3897525e-05,-1.0750029e-04,-6.8484134e-05,4.5016110e-03,1.0416053e-02,4.4595602e-03,-2.2089776e-04,3.1872581e-03,-1.2421589e-03,3.1787012e-02,-8.4456056e-02,2.4012147e-02
6.0999990e-01,1.8965598e-05,-2.2926895e-04,-8.1201857e-05,-3.4999587e-03,-1.2188834e-02,-3.4443879e-03,6.4209664e-05,3.5144558e-03,-1.7135993e-03,2.8510770e-02,3.2719807e-02,-4.7144086e-02
6.1999989e-01,-5.4333494e-06,-2.1589186e-04,-7.0423994e-05,-2.4440557e-03,1.3301264e-03,-2.4398811e-03,-1.8621522e-05,3.0922989e-03,-1.6956637e-03,-8.2831264e-03,-4.2215731e-02,1.7935556e-03
6.2998533e-01,6.0703113e-05,-6.7601045e-05,2.3333452e-05,6.6303967e-03,1.4859632e-02,6.5960681e-03,1.7320113e-04,1.5263107e-03,-6.8561432e-04,1.9210222e-02,-1.5682705e-01,1.0115215e-01
6.3998532e-01,6.0620876e-05,5.3337679e-05,1.6628825e-05,-8.7288638e-06,1.2093857e-02,-2.6780415e-05,-4.1456206e-05,1.5347263e-03,-4.6417839e-04,-2.1465754e-02,8.4156488e-04,2.2143614e-02
6.4998531e-01,4.6652773e-05,-9.8837786e-06,3.0222095e-05,-1.3962012e-03,-6.3258571e-03,-1.3805517e-03,-1.8876079e-04,2.4789485e-03,-4.1745558e-04,-1.4730472e-02,9.4422306e-02,4.6722853e-03
6.5998530e-01,-3.4091186e-05,-1.1571498e-04,-5.6475788e-06,-8.0777887e-03,-1.0610245e-02,-8.0353381e-03,-1.9242864e-04,3.1744936e-03,-6.7169056e-04,-3.6678556e-04,6.9554574e-02,-2.5423522e-02
6.6998529e-01,1.2823822e-05,-7.4187973e-05,4.2502324e-05,4.6920833e-03,4.1664281e-03,4.6787425e-03,-1.6669177e-04,2.7625736e-03,-2.7081057e-04,2.5736890e-03,-4.1192032e-02,4.0088037e-02
6.7998528e-01,8.9046571e-05,5.3579015e-05,1.0196541e-04,7.6196198e-03,1.2792697e-02,7.5980926e-03,-1.3272046e-04,1.9675771e-03,1.2681049e-04,3.3971347e-03,-7.9499730e-02,3.9762144e-02
6.8998528e-01,5.9508392e-05,-1.2578151e-05,5.7890664e-05,-2.9533331e-03,-6.6236476e-03,-2.9364977e-03,-2.1744215e-04,2.4731419e-03,-3.2200037e-04,-8.4721771e-03,5.0556527e-02,-4.4881129e-02
6.9998527e-01,-4.8733433e-05,-1.7171796e-04,-7.2173892e-05,-1.0836514e-02,-1.5952763e-02,-1.0754575e-02,-2.1473602e-04,3.3801392e-03,-1.4551072e-03,2.7061275e-04,9.0699821e-02,-1.1331079e-01
7.0998526e-01,6.0985647e-05,-5.9679624e-06,-1.1821798e-05,1.0977469e-02,1.6598994e-02,1.0930037e-02,-1.7574031e-04,2.0143515e-03,-7.7165266e-04,3.8995752e-03,-1.3657891e-01,6.8345515e-02
7.1998525e-01,1.5769204e-04,-9.5773345e-05,4.6888296e-05,9.6775846e-03,-8.9546914e-03,9.6876707e-03,6.8184878e-05,2.7404415e-03,-7.8086010e-04,2.4392542e-02,7.2609072e-02,-9.2074431e-04
7.2998548e-01,8.3132217e-05,-1.8592340e-04,-9.5263017e-05,-7.4651861e-03,-9.0523605e-03,-7.4007173e-03,-5.5004922e-04,4.5090180e-03,-1.9244184e-03,-6.1821995e-02,1.7685361e-01,-1.1435321e-01
7.3998547e-01,2.7837384e-04,-7.2912959e-05,1.1913005e-04,1.9510235e-02,1.1350797e-02,1.9509260e-02,-7.2604795e-04,1.8222468e-03,2.9369818e-04,-1.7599890e-02,-2.6867738e-01,2.2181187e-01
7.4998546e-01,-2.1089241e-05,-3.6532733e-04,-6.7750552e-05,-2.9994795e-02,-2.9383279e-02,-2.9758437e-02,-1.3958409e-05,4.7403879e-03,-1.6331550e-03,7.1209022e-02,2.9181439e-01,-1.9268550e-01
7.5998545e-01,6.2911261e-05,-9.9452884e-05,-2.1138248e-06,8.4001785e-03,2.6619528e-02,8.2977851e-03,-2.9139589e-04,3.5484218e-03,-9.3711580e-04,-2.7743774e-02,-1.1919673e-01,6.9603990e-02
7.6998544e-01,6.4133552e-05,-1.5194060e-04,1.0298140e-05,1.2518651e-04,-5.2481711e-03,1.4339292e-04,-5.3603285e-04,4.0604275e-03,-1.1769778e-03,-2.4463720e-02,5.1200624e-02,-2.3986226e-02
7.7998543e-01,1.7415470e-05,-1.8333876e-04,-2.7499103e-05,-4.6759092e-03,-3.1605729e-03,-4.6536848e-03,-5.6544660e-04,3.8870313e-03,-1.2578358e-03,-2.9413778e-03,-1.7339645e-02,-8.0858046e-03
7.8998542e-01,-4.4878502e-06,-7.8762270e-05,-2.6049496e-05,-2.1937691e-03,1.0451516e-02,-2.2160635e-03,-1.6127159e-04,2.6286181e-03,-7.9861016e-04,4.0417540e-02,-1.2584143e-01,4.5922607e-02
7.9998541e-01,-2.0527666e-06,-3.6824367e-06,-7.4463499e-06,2.4411088e-04,7.5083817e-03,2.3049382e-04,6.5349706e-05,1.7185042e-03,-4.5861179e-04,2.2662151e-02,-9.1011481e-02,3.3999870e-02
8.0998540e-01,-3.6567314e-05,-2.8468258e-05,-5.7037829e-05,-3.4537720e-03,-2.4857368e-03,-3.4439915e-03,1.5820859e-05,2.0910265e-03,-6.5929779e-04,-4.9528894e-03,3.7252263e-02,-2.0068619e-02
8.1998539e-01,-1.3018191e-05,-8.9802687e-05,2.4986110e-05,2.3545663e-03,-6.1303696e-03,2.3632657e-03,2.7385668e-04,1.5789393e-03,-5.6558997e-04,2.5803607e-02,-5.1208762e-02,9.3707904e-03
8.2998538e-01,-2.9770583e-05,-2.4280284e-05,-4.1989512e-05,-1.6762391e-03,6.5491028e-03,-1.6864976e-03,2.2391693e-05,1.8933036e-03,-6.8372281e-04,-2.5146523e-02,3.1436458e-02,-1.1813295e-02
8.3998537e-01,1.6365923e-05,5.4220523e-05,-3.7971075e-06,4.6166520e-03,7.8563911e-03,4.5999079e-03,6.8229205e-05,1.4369023e-03,-5.3364391e-04,4.5837556e-03,-4.5640174e-02,1.5007904e-02
8.4998536e-01,1.1846253e-04,5.6008352e-05,8.0765157e-05,1.0212849e-02,2.0016010e-04,1.0206095e-02,-3.0790831e-04,1.7864857e-03,-3.1676635e-04,-3.7613787e-02,3.4958370e-02,2.1687778e-02
8.5998535e-01,1.0189255e-04,1.6344267e-05,5.7376627e-05,-1.6563924e-03,-3.9707423e-03,-1.6472086e-03,-3.1929798e-04,2.3011930e-03,-3.9764518e-04,-1.1389686e-03,5.1470780e-02,-8.0878916e-03
8.6998534e-01,1.1557628e-04,-2.5784343e-05,5.2562196e-05,1.3704684e-03,-4.2086797e-03,1.3791162e-03,-3.2549038e-04,2.7230122e-03,-5.2823904e-04,-6.1923969e-04,4.2181957e-02,-1.3059398e-02
8.7998533e-01,1.8790517e-04,-2.5195101e-05,6.8341679e-05,7.2350671e-03,8.5211234e-05,7.2304624e-03,-5.3296902e-04,3.1023812e-03,-3.0469192e-04,-2.0747884e-02,3.7936940e-02,2.2354733e-02
8.8998532e-01,1.4510310e-04,-1.6138731e-04,1.9048378e-07,-4.2744432e-03,-1.3641885e-02,-4.2133191e-03,-7.9062937e-04,4.5404413e-03,-1.1692530e-03,-2.5766059e-02,1.4380615e-01,-8.6456186e-02
8.9998531e-01,3.0116393e-04,-2.3944100e-05,7.6049423e-05,1.5582439e-02,1.3809085e-02,1.5572541e-02,-1.3495756e-03,2.8028202e-03,3.2643351e-04,-5.5894679e-02,-1.7376227e-01,1.4956879e-01
9.0998530e-01,2.0279348e-04,3.7975779e-06,2.9064204e-05,-9.8387754e-03,2.7432644e-03,-9.8439981e-03,-9.9162622e-04,2.1491623e-03,1.0420428e-04,3.5794975e-02,-6.5365858e-02,-2.2222945e-02
9.1998529e-01,-2.0353867e-05,-1.4715942e-04,-7.8428801e-05,-2.2343877e-02,-1.5174708e-02,-2.2231883e-02,-1.8104352e-04,3.3675955e-03,-1.4285339e-03,8.1058347e-02,1.2184344e-01,-1.5327396e-01
9.2998528e-01,1.7678980e-04,-4.9193885e-05,9.7873385e-05,1.9704364e-02,9.8265116e-03,1.9709499e-02,-4.4126101e-04,1.0779050e-03,2.8892139e-04,-2.6021773e-02,-2.2896927e-01,1.7174569e-01
9.3998528e-01,1.4292763e-04,1.1019554e-04,2.6092739e-05,-3.3983415e-03,1.5934282e-02,-3.3960688e-03,-7.8204916e-04,5.9643408e-04,1.0124499e-04,-3.4078848e-02,-4.8147143e-02,-1.8767658e-02
9.4998527e-01,1.0426366e-04,6.2977838e-05,1.5904783e-05,-3.8640622e-03,-4.7269172e-03,-3.8624534e-03,-5.4314202e-04,7.8741287e-04,-5.8613682e-05,2.3890736e-02,1.9097898e-02,-1.5985883e-02
9.5998526e-01,6.2348899e-05,9.3820543e-05,-1.2895698e-05,-4.1925855e-03,3.0805255e-03,-4.1931299e-03,-3.6846181e-04,5.2557633e-04,7.2707340e-06,1.7468038e-02,-2.6183679e-02,6.5884479e-03
9.6998525e-01,4.6848373e-05,4.8156127e-05,-1.2295239e-05,-1.5476176e-03,-4.5687162e-03,-1.5457929e-03,-5.2933392e-04,9.3700064e-04,1.2322637e-05,-1.6087226e-02,4.1142471e-02,5.0519075e-04
9.7998548e-01,9.7823164e-05,-2.6363955e-05,2.9413302e-05,5.1025036e-03,-7.4364343e-03,5.1146843e-03,-7.7143083e-04,2.2460162e-03,1.1887197e-04,-2.4209137e-02,1.3089856e-01,1.0654689e-02
9.8998547e-01,1.7659350e-04,2.1066354e-05,8.9920335e-05,7.8713951e-03,4.7673405e-03,7.8680068e-03,-8.1500367e-04,2.2718081e-03,2.2562603e-04,-4.3572887e-03,2.5791880e-03,1.0675416e-02
9.9998546e-01,2.1027020e-04,3.3984876e-06,1.1485782e-04,3.3683446e-03,-1.7546843e-03,3.3733250e-03,-9.5822559e-04,2.6331171e-03,3.0277282e-04,-1.4322205e-02,3.6130930e-02,7.7146867e-03
1.0099854e+00,2.1602003e-04,3.2024867e-05,1.0769922e-04,5.7178343e-04,2.8644897e-03,5.6893439e-04,-1.0427978e-03,2.1868513e-03,3.7345207e-04,-8.4572270e-03,-4.4626616e-02,7.0679316e-03
1.0199854e+00,2.2561076e-04,6.1607152e-05,7.3122963e-05,9.5589930e-04,2.9607769e-03,9.5437713e-04,-9.8364538e-04,1.6759124e-03,2.7577604e-04,5.9152455e-03,-5.1093945e-02,-9.7676118e-03
1.0299854e+00,2.4991218e-04,7.2121720e-05,8.7291564e-05,2.4286089e-03,1.0573536e-03,2.4291208e-03,-8.8484662e-04,1.5415458e-03,2.4851545e-04,9.8798860e-03,-1.3436672e-02,-2.7260615e-03
1.0399854e+00,2.1471061e-04,6.3061888e-05,3.8376388e-05,-3.5188810e-03,-9.1445891e-04,-3.5192470e-03,-8.9058949e-04,1.5170999e-03,1.3367112e-04,-5.7428786e-04,-2.4445867e-03,-1.1484444e-02
1.0499854e+00,4.8880188e-05,-2.3481089e-04,-2.9153385e-05,-1.6604079e-02,-2.9839650e-02,-1.6467517e-02,1.8659025e-05,3.1881622e-03,-1.2348733e-03,9.0924938e-02,1.6710639e-01,-1.3685457e-01
1.0599854e+00,3.0230325e-05,-3.0244622e-04,-6.2001615e-05,-1.8670817e-03,-6.7709804e-03,-1.8356618e-03,-4.9934990e-05,3.9738310e-03,-1.3045279e-03,-6.8594081e-03,7.8566953e-02,-6.9654622e-03
1.0699854e+00,-2.0272511e-04,-1.0331373e-03,-6.0283626e-04,-2.3401581e-02,-7.3312405e-02,-2.2408232e-02,3.2866079e-04,1.0998527e-02,-3.5263095e-03,3.7859614e-02,7.0247029e-01,-2.2217837e-01
1.0799854e+00,1.1540602e-04,-2.9611400e-05,2.6901617e-05,3.1750008e-02,1.0042018e-01,3.1662891e-02,-6.0688293e-04,1.5187218e-03,6.9987229e-05,-9.3554461e-02,-9.4798145e-01,3.5963001e-01
1.0899854e+00,-1.2198178e-04,-2.8191050e-04,-8.6456761e-05,-2.3775382e-02,-2.5305196e-02,-2.3621797e-02,1.8067024e-04,3.3616701e-03,-1.3498388e-03,7.8755392e-02,1.8429501e-01,-1.4198274e-01
1.0999854e+00,2.2958280e-05,-8.2377695e-05,3.0361615e-05,1.4498145e-02,1.9980294e-02,1.4452648e-02,5.1395525e-05,1.9168057e-03,-2.1383539e-04,-1.2927484e-02,-1.4448658e-01,1.1360045e-01
1.1099854e+00,1.0229399e-04,-5.8262742e-05,4.9717486e-05,7.9364148e-03,2.4315535e-03,7.9246151e-03,-1.4287484e-04,2.3869229e-03,-4.0102531e-04,-1.9427055e-02,4.7011770e-02,-1.8719010e-02
1.1199853e+00,1.5010538e-05,-2.3982596e-04,-4.1878382e-05,-8.7378035e-03,-1.8193104e-02,-8.6419163e-03,-1.7750528e-04,4.0576758e-03,-1.4529978e-03,-3.4630472e-03,1.6707544e-01,-1.0519735e-01
1.1299853e+00,4.7596833e-05,3.8468276e-06,-1.2026015e-06,3.2572332e-03,2.4372592e-02,3.2202468e-03,-1.0431109e-04,1.5282594e-03,-3.5062803e-04,7.3194262e-03,-2.5294188e-01,1.1023708e-01
1.1399324e+00,9.7722114e-05,9.4703757e-05,2.3601189e-05,5.0361333e-03,9.1402191e-03,5.0310781e-03,-2.5258085e-04,9.7296505e-04,1.5166949e-04,-1.4905886e-02,-5.5824963e-02,5.0497075e-02
1.1499324e+00,1.3042699e-04,-4.6924556e-05,7.9577056e-05,3.2711505e-03,-1.4157252e-02,3.2939585e-03,1.4738676e-05,1.7187122e-03,-2.6570005e-04,2.6731978e-02,7.4574786e-02,-4.1736994e-02
1.1599324e+00,-1.0980515e-04,-2.7301681e-04,-1.5919147e-04,-2.4073342e-02,-2.2719974e-02,-2.3868113e-02,-4.9438434e-05,4.5794038e-03,-2.1345139e-03,-6.4177172e-03,2.8606943e-01,-1.8688156e-01
1.1699324e+00,-4.6718038e-05,-6.7635762e-05,-1.9312764e-05,6.3157863e-03,2.0551241e-02,6.2587318e-03,1.3180769e-04,2.2205130e-03,-6.9164192e-04,1.8124629e-02,-2.3588930e-01,1.4428734e-01
1.1799324e+00,7.1718984e-06,9.4313031e-05,7.5888717e-05,5.3908057e-03,1.6196065e-02,5.3836716e-03,2.2183282e-04,4.3922365e-04,3.3125727e-04,9.0025223e-03,-1.7812911e-01,1.0229002e-01
1.1899323e+00,7.5609670e-06,9.3262375e-06,8.5542249e-05,3.9519949e-05,-8.4986001e-03,5.4310485e-05,-7.1545517e-05,1.8130730e-03,-1.2859855e-04,-2.9337862e-02,1.3738507e-01,-4.5985626e-02
1.1999323e+00,1.2139364e-04,-1.8245842e-05,1.2510658e-04,1.1379749e-02,-2.7295009e-03,1.1393481e-02,-6.7476940e-04,1.7582172e-03,4.7319175e-04,-6.0322446e-02,-5.4855920e-03,6.0179088e-02
1.2099323e+00,6.0150209e-05,-3.5648334e-05,6.8873081e-05,-6.1209320e-03,-1.7527551e-03,-6.1241999e-03,-6.7676875e-04,1.3647964e-03,3.6540165e-04,-1.9993532e-04,-3.9342119e-02,-1.0779020e-02
1.2199323e+00,-7.3897856e-05,-8.3037971e-05,-2.6882720e-05,-1.3411987e-02,-4.7617646e-03,-1.3389563e-02,6.4685991e-05,1.7667559e-03,-5.1196226e-04,7.4145545e-02,4.0195989e-02,-8.7736474e-02
1.2299325e+00,5.7125860e-05,-6.9079578e-05,-2.3652288e-05,1.3107913e-02,1.4298993e-03,1.3092549e-02,-4.0496611e-04,2.1984004e-03,-4.8917033e-04,-4.6964135e-02,4.3163467e-02,2.2791400e-03
1.2399325e+00,-8.0307633e-06,-4.0747857e-04,-1.1267917e-04,-6.5184432e-03,-3.3873547e-02,-6.3357353e-03,-2.8691373e-04,4.9455105e-03,-1.9178515e-03,1.1805249e-02,2.7471127e-01,-1.4286826e-01
1.2499325e+00,1.9886096e-04,-1.0203930e-04,5.7737374e-05,2.0663116e-02,3.0585705e-02,2.0653543e-02,-6.2072096e-04,1.3984783e-03,3.4374648e-04,-3.3380756e-02,-3.5470356e-01,2.2616002e-01
1.2599325e+00,3.0934042e-05,-1.6421394e-04,8.9797679e-06,-1.6803673e-02,-6.2485423e-03,-1.6770191e-02,2.6457990e-04,2.1169771e-03,-5.5521643e-04,8.8530171e-02,7.1849954e-02,-8.9896377e-02
1.2699325e+00,1.2636602e-04,7.7004650e-05,6.8210603e-05,9.5379590e-03,2.4133932e-02,9.5179539e-03,-1.7579320e-04,1.0883034e-03,1.0552748e-04,-4.4037352e-02,-1.0286747e-01,6.6074454e-02
1.2799325e+00,1.3448203e-04,3.0400135e-05,8.9082899e-05,8.1341907e-04,-4.6583480e-03,8.2181978e-04,-3.8305150e-04,2.1999480e-03,-3.9544283e-05,-2.0725850e-02,1.1116456e-01,-1.4507190e-02
1.2899325e+00,2.2531252e-05,-2.5463688e-05,6.8869168e-05,-1.1198667e-02,-5.6140536e-03,-1.1177656e-02,-1.4761397e-04,2.3259186e-03,-3.9338307e-04,2.3543775e-02,1.2597068e-02,-3.5383912e-02
1.2999325e+00,-9.3665015e-05,-4.3670577e-05,1.4718321e-05,-1.1622184e-02,-1.8348617e-03,-1.1614861e-02,2.8146696e-04,1.5014848e-03,-1.7510623e-04,4.2908134e-02,-8.2443458e-02,2.1827705e-02
1.3099325e+00,-8.6249064e-05,2.6427121e-05,2.2616757e-05,7.4398579e-04,7.0101159e-03,7.3597212e-04,3.6144644e-04,8.2282187e-04,1.9369068e-04,7.9979560e-03,-6.7866355e-02,3.6879726e-02
1.3199325e+00,-6.4143988e-05,-6.1739868e-05,1.4930752e-05,2.2094139e-03,-8.8133771e-03,2.2248388e-03,1.7059698e-04,1.6717749e-03,-1.8471161e-04,-1.9084964e-02,8.4895382e-02,-3.7840265e-02
1.3299325e+00,-1.3944931e-04,-1.0899594e-04,-5.5386312e-05,-7.5380687e-03,-4.7385185e-03,-7.5148792e-03,2.4862299e-04,1.9654902e-03,-8.4421528e-04,7.8026085e-03,2.9371556e-02,-6.5950430e-02
1.3399324e+00,-8.6462524e-05,-1.1555749e-04,2.3969610e-06,5.3010438e-03,-6.5537308e-04,5.2964191e-03,6.1734668e-04,7.6541571e-04,-5.2222091e-04,3.6872404e-02,-1.2000756e-01,3.2199468e-02
1.3499324e+00,2.2516078e-05,-4.9611688e-05,3.5313562e-05,1.0901908e-02,6.5942840e-03,1.0894015e-02,3.7030803e-04,3.4269064e-04,-1.4648374e-04,-2.4703889e-02,-4.2272547e-02,3.7573752e-02
1.3599324e+00,1.7227986e-04,-1.0196050e-04,7.2080888e-05,1.4980065e-02,-5.2099234e-03,1.4981422e-02,9.3929022e-05,1.7606737e-03,-2.7815709e-04,-2.7637927e-02,1.4179845e-01,-1.3167347e-02
1.3699324e+00,3.1739984e-04,1.1451862e-05,8.2998955e-05,1.4496406e-02,1.1382560e-02,1.4495255e-02,-1.0295413e-03,1.8185005e-03,2.7024720e-04,-1.1234714e-01,5.7826818e-03,5.4840481e-02
1.3799324e+00,2.5541036e-04,-1.5692072e-05,6.4649490e-05,-6.1943964e-03,-2.7328095e-03,-6.1954190e-03,-9.1349887e-04,2.0573553e-03,3.3477210e-04,1.1604253e-02,2.3885497e-02,6.4524954e-03
1.3899324e+00,1.4116266e-04,-6.3622933e-05,4.7414486e-05,-1.1424889e-02,-4.8306502e-03,-1.1408843e-02,-5.2299067e-04,2.7668638e-03,-2.2902615e-04,3.9050857e-02,7.0950927e-02,-5.6379878e-02
1.3999324e+00,2.1223299e-04,-5.2647113e-05,1.0141038e-04,7.1065158e-03,1.1239929e-03,7.1034352e-03,-6.3026005e-04,3.0866029e-03,-2.3799846e-05,-1.0726948e-02,3.1973940e-02,2.0522650e-02
1.4099324e+00,1.2143093e-04,-1.2639969e-04,6.5182713e-05,-9.0855471e-03,-7.4163931e-03,-9.0412968e-03,-4.9933740e-04,4.0408367e-03,-9.9354853e-04,1.3092278e-02,9.5423470e-02,-9.6974961e-02
1.4199324e+00,1.3792181e-04,3.0728048e-06,7.9101151e-05,1.6391380e-03,1.2951125e-02,1.6285536e-03,-7.3440101e-04,1.6196729e-03,2.6790458e-04,-2.3506384e-02,-2.4211662e-01,1.2614543e-01
1.4299324e+00,-6.7958189e-05,-5.4681353e-05,-5.1717856e-05,-2.0601799e-02,-5.8005153e-03,-2.0567169e-02,1.3640699e-04,1.3563877e-03,-6.3125755e-04,8.7080884e-02,-2.6328545e-02,-8.9916298e-02
1.4399323e+00,2.4216210e-05,9.6219263e-05,-5.9058957e-06,9.2190442e-03,1.5092194e-02,9.2123841e-03,1.0690553e-04,3.3676878e-04,1.9019706e-06,-2.9501493e-03,-1.0196199e-01,6.3316013e-02
1.4499323e+00,8.8334680e-05,-1.8437922e-05,5.6065169e-05,6.4080313e-03,-1.1464247e-02,6.4183219e-03,4.3262553e-04,6.6342553e-04,-1.7766876e-04,3.2572031e-02,3.2665706e-02,-1.7957090e-02
1.4599323e+00,-1.1667285e-04,-2.3733177e-04,-1.0132380e-04,-2.0545916e-02,-2.1919556e-02,-2.0423217e-02,6.8416911e-04,2.1608022e-03,-1.4728632e-03,2.5154382e-02,1.4973781e-01,-1.2951957e-01
1.4699323e+00,-9.1387162e-05,-9.3883117e-05,-2.9923327e-05,2.5418215e-03,1.4343482e-02,2.5232049e-03,8.4085788e-04,2.9072390e-04,-4.7061611e-04,1.5668892e-02,-1.8700800e-01,1.0022480e-01
1.4799325e+00,-1.7727889e-06,4.1746015e-05,-1.8511783e-06,8.9626584e-03,1.3562666e-02,8.9597092e-03,2.5750813e-04,2.6466501e-04,2.3051604e-04,-5.8333640e-02,-2.6058285e-03,7.0111610e-02
1.4899325e+00,1.1715467e-04,4.4851618e-05,9.6532764e-05,1.1889698e-02,3.3018732e-04,1.1895288e-02,-1.9035077e-04,1.4596125e-03,2.5222469e-04,-4.4785933e-02,1.1949486e-01,2.1708664e-03
1.4999325e+00,1.6107885e-05,-2.2911361e-04,2.8726554e-05,-1.0107386e-02,-2.7442924e-02,-9.9753209e-03,-3.5237019e-04,4.2671763e-03,-1.2231334e-03,-1.6201957e-02,2.8075665e-01,-1.4753595e-01
1.5099325e+00,-3.0298554e-05,-2.3857918e-04,7.9416734e-06,-4.6463899e-03,-9.6703139e-04,-4.6306713e-03,-2.6690570e-04,4.1520094e-03,-1.2925488e-03,8.5464577e-03,-1.1516698e-02,-6.9415421e-03
1.5199325e+00,1.4974551e-04,2.2060108e-06,1.4121832e-04,1.7988951e-02,2.4123256e-02,1.7959980e-02,-4.3119761e-04,2.0546623e-03,2.8257723e-04,-1.6429207e-02,-2.0973491e-01,1.5751275e-01
1.5299325e+00,2.3778550e-04,4.2952486e-05,1.4795878e-04,8.7996759e-03,4.1019088e-03,8.7956768e-03,-6.8949600e-04,2.4075669e-03,1.7264891e-04,-2.5829864e-02,3.5290489e-02,-1.0992843e-02
1.5399325e+00,1.0093032e-04,-1.8117846e-04,-1.3575781e-05,-1.3690128e-02,-2.2481516e-02,-1.3568240e-02,-6.6600314e-04,4.3540629e-03,-1.4278677e-03,2.3492887e-03,1.9464979e-01,-1.6005181e-01
1.5499325e+00,2.2869825e-04,-4.2334029e-05,8.4593480e-05,1.2768682e-02,1.3898982e-02,1.2769130e-02,-2.9191911e-04,8.4509420e-04,3.1840708e-04,3.7408439e-02,-3.5089720e-01,1.7462764e-01
1.5599325e+00,-8.4334935e-06,-1.9414432e-04,-5.9433519e-05,-2.3749802e-02,-1.5229205e-02,-2.3645585e-02,3.3683583e-04,2.3728406e-03,-1.3289730e-03,6.2875554e-02,1.5277479e-01,-1.6473817e-01
1.5699325e+00,1.5429527e-04,-9.7879151e-06,7.2446179e-05,1.6272774e-02,1.8453765e-02,1.6252473e-02,-1.0371481e-05,1.1030199e-03,-4.5208363e-06,-3.4720764e-02,-1.2698219e-01,1.3244534e-01
1.5799325e+00,2.2096124e-04,-5.4979468e-05,1.1599680e-04,6.6659062e-03,-4.5086439e-03,6.6744173e-03,-4.8513264e-04,1.0912767e-03,4.3332161e-04,-4.7476162e-02,-1.1743264e-03,4.3784286e-02
1.5899324e+00,-2.5401874e-05,-1.2191240e-04,-4.5252201e-05,-2.4630573e-02,-6.7520405e-03,-2.4626065e-02,-8.3564061e-04,1.5491038e-03,6.5059367e-06,-3.5050830e-02,4.5782754e-02,-4.2681608e-02
1.5999324e+00,-2.1980934e-05,-1.6658247e-05,8.1916548e-06,3.3853986e-04,1.0525794e-02,3.3419321e-04,-3.3007217e-04,7.5821266e-04,2.3486066e-04,5.0556892e-02,-7.9089188e-02,2.2835494e-02
1.6099324e+00,3.9363480e-05,-2.4156556e-05,5.9945428e-05,6.1325781e-03,-7.3671256e-04,6.1379046e-03,-5.6342644e-04,1.5743930e-03,3.7332951e-04,-2.3335449e-02,8.1618113e-02,1.3846899e-02
1.6199324e+00,1.2312930e-04,-1.5894933e-05,1.1138489e-04,8.3721144e-03,8.5034089e-04,8.3786451e-03,-7.9783083e-04,2.0878283e-03,4.5521555e-04,-2.3440462e-02,5.1343580e-02,8.1886118e-03
1.6299324e+00,7.8710273e-05,3.1909891e-07,7.6101488e-05,-4.4416008e-03,1.6118255e-03,-4.4456982e-03,-5.9751156e-04,1.5581026e-03,2.8684849e-04,2.0031946e-02,-5.2972626e-02,-1.6836722e-02
1.6399324e+00,-1.4720756e-05,4.2049543e-05,3.5836546e-05,-9.3441880e-03,4.1658660e-03,-9.3452405e-03,-2.7823201e-04,4.9042550e-04,9.0466200e-06,3.1927985e-02,-1.0676781e-01,-2.7780214e-02
1.6499324e+00,6.2985071e-05,9.8449785e-06,8.9716532e-05,7.7687336e-03,-3.2220611e-03,7.7717825e-03,1.5333780e-04,-5.2761070e-05,1.7534213e-04,4.3157023e-02,-5.4318709e-02,1.6629567e-02
1.6599324e+00,1.6638922e-04,2.6562705e-05,1.0768129e-04,1.0337780e-02,1.6773924e-03,1.0342159e-02,-1.8843359e-04,3.5482725e-04,2.2525554e-04,-3.4177172e-02,4.0758871e-02,4.9913452e-03
1.6699324e+00,1.6817325e-04,9.6460686e-05,4.9022261e-05,1.7328697e-04,6.9901107e-03,1.7132153e-04,-7.3124071e-04,1.0138707e-03,2.9192556e-05,-5.4280764e-02,6.5904406e-02,-1.9606317e-02
1.6799324e+00,1.3790495e-04,2.5693782e-05,4.5161251e-05,-3.0222710e-03,-7.0826886e-03,-3.0173635e-03,-6.1814317e-04,1.3638115e-03,6.1857900e-05,1.1309765e-02,3.4994111e-02,3.2665375e-03
1.6899323e+00,2.0579246e-04,1.8199178e-06,9.3496482e-05,6.7879176e-03,-2.3689969e-03,6.7960377e-03,-8.4596028e-04,1.8616672e-03,4.2087048e-04,-2.2781733e-02,4.9785618e-02,3.5901293e-02
1.6999323e+00,2.9060233e-04,-5.8074833e-05,1.4070687e-04,8.4830607e-03,-5.9539368e-03,8.5039257e-03,-1.2418529e-03,2.9436966e-03,6.3249751e-04,-3.9589295e-02,1.0820305e-01,2.1162722e-02
1.7099323e+00,2.9107537e-04,-4.8285393e-05,1.2503568e-04,4.6107542e-05,9.7913957e-04,4.4364200e-05,-1.1936645e-03,3.0295113e-03,5.8005109e-04,4.8188411e-03,8.5814772e-03,-5.2446461e-03
1.7199323e+00,1.7458535e-04,-3.0962747e-05,6.3417192e-05,-1.1645410e-02,1.7000010e-03,-1.1657365e-02,-8.2758662e-04,1.9410308e-03,4.3188841e-04,3.6607821e-02,-1.0884816e-01,-1.4816283e-02
1.7299325e+00,1.3009583e-04,-9.0494883e-05,8.5518645e-05,-4.4445663e-03,-5.9591258e-03,-4.4450340e-03,-3.2054962e-04,1.0392504e-03,5.3394544e-04,5.0702540e-02,-9.0175982e-02,1.0205469e-02
1.7399325e+00,1.3675193e-04,-8.3387679e-05,6.5761896e-05,6.6514816e-04,7.1161473e-04,6.6511922e-04,-3.6859874e-04,9.7424929e-04,3.0204859e-04,-4.8049174e-03,-6.5001124e-03,-2.3189707e-02
1.7499325e+00,1.9328672e-04,-6.6923537e-06,8.8424553e-05,5.6497274e-03,7.6735091e-03,5.6518535e-03,-3.1221952e-04,3.8996070e-04,2.4089356e-04,5.6379279e-03,-5.8428914e-02,-6.1155094e-03
1.7599325e+00,9.9912702e-05,1.9161609e-05,5.0745895e-05,-9.3361137e-03,2.5891346e-03,-9.3376725e-03,5.0465220e-05,-3.4961030e-04,1.2492586e-04,3.6268508e-02,-7.3957171e-02,-1.1596780e-02
1.7699325e+00,4.5712100e-05,1.7012782e-05,4.6190123e-05,-5.4190463e-03,-2.1056106e-04,-5.4212538e-03,2.2393900e-04,-5.7331695e-04,1.9684793e-04,1.7347395e-02,-2.2370687e-02,7.1922138e-03
1.7799325e+00,8.6490891e-06,-1.0899060e-05,-1.4544969e-05,-3.7054523e-03,-2.7951685e-03,-3.7041555e-03,-3.4007886e-04,7.3449931e-04,-2.6195219e-05,-5.6401840e-02,1.3078175e-01,-2.2304336e-02
1.7899325e+00,1.0576446e-04,8.1340657e-06,5.4375633e-05,9.7081140e-03,1.9246218e-03,9.7107793e-03,-5.7044794e-04,1.6234885e-03,2.4146737e-04,-2.3036930e-02,8.8899006e-02,2.6766285e-02
1.7999325e+00,8.7563022e-05,-2.4124307e-05,6.8454179e-05,-1.8180095e-03,-3.2302568e-03,-1.8144392e-03,-4.9981535e-04,1.9295928e-03,2.8771874e-04,7.0632664e-03,3.0610460e-02,4.6251407e-03
1.8099325e+00,2.6971593e-05,-1.7203737e-05,7.7153223e-05,-6.0575256e-03,6.7951454e-04,-6.0621903e-03,-4.8599157e-04,1.5834448e-03,3.2320616e-04,1.3823792e-03,-3.4614834e-02,3.5487454e-03
1.8199325e+00,1.0059942e-04,9.7472125e-06,1.0165720e-04,7.3578501e-03,2.7118291e-03,7.3615830e-03,-6.8322920e-04,1.5890912e-03,4.2040031e-04,-1.9723782e-02,5.6463856e-04,9.7194245e-03
1.8299325e+00,2.7604940e-04,3.9950781e-05,1.5009877e-04,1.7535149e-02,3.0777702e-03,1.7544901e-02,-1.0139431e-03,2.2578997e-03,3.8718363e-04,-3.3071424e-02,6.6880919e-02,-3.3216715e-03
1.8399324e+00,3.2857029e-04,5.6011018e-05,1.4217157e-04,5.2487593e-03,1.6229190e-03,5.2502350e-03,-1.0973307e-03,2.1194845e-03,2.9880537e-04,-8.3387682e-03,-1.3841539e-02,-8.8378343e-03
1.8499324e+00,2.6328756e-04,-2.8903978e-05,8.5570969e-05,-6.5219561e-03,-8.5018084e-03,-6.5211886e-03,-4.7990226e-04,1.0985171e-03,3.4415353e-04,6.1742905e-02,-1.0209684e-01,4.5348209e-03
1.8599324e+00,2.2470589e-04,-5.9539434e-05,5.4717417e-05,-3.8559507e-03,-3.0678775e-03,-3.8569497e-03,-3.7765293e-04,7.4446446e-04,2.7537839e-04,1.0224943e-02,-3.5405293e-02,-6.8775206e-03
1.8699324e+00,2.9591902e-04,-4.2161337e-05,7.7393407e-05,7.1175622e-03,1.7490205e-03,7.1223315e-03,-4.9559945e-04,1.0781606e-03,4.0646270e-04,-1.1794664e-02,3.3369651e-02,1.3108443e-02
1.8799324e+00,2.0563600e-04,4.4174250e-06,3.0943225e-05,-9.0306513e-03,4.6348742e-03,-9.0378052e-03,-8.4293487e-04,1.7040875e-03,1.7527816e-04,-3.4733575e-02,6.2592743e-02,-2.3118476e-02
1.8899324e+00,5.6682124e-05,-7.5908503e-05,1.0839724e-05,-1.4888081e-02,-8.0617611e-03,-1.4886964e-02,-5.4270887e-04,1.4153221e-03,1.9865306e-04,3.0022629e-02,-2.8876566e-02,2.3374928e-03
1.8999324e+00,-2.6458716e-05,-7.2731561e-05,2.9673344e-05,-8.3117901e-03,3.0610673e-04,-8.3168278e-03,-4.1814815e-04,9.7530158e-04,2.9271074e-04,1.2456084e-02,-4.4002094e-02,9.4057769e-03
1.9099324e+00,3.2646945e-05,-3.5420092e-05,6.5909823e-05,5.9071178e-03,3.7410132e-03,5.9077898e-03,-4.3659126e-04,1.2322386e-03,3.0862498e-04,-1.8443126e-03,2.5693729e-02,1.5914255e-03
1.9199324e+00,1.1830260e-04,1.6112825e-05,9.9014624e-05,8.5600856e-03,5.1693517e-03,8.5613839e-03,-5.7820597e-04,1.2963901e-03,2.9259186e-04,-1.4161485e-02,6.4151522e-03,-1.6033138e-03
1.9299324e+00,2.9752012e-05,7.4413919e-06,1.6749766e-05,-8.8537575e-03,-8.7618704e-04,-8.8554860e-03,-3.6778618e-04,6.5337584e-04,1.1177755e-04,2.1041999e-02,-6.4301486e-02,-1.8081448e-02
1.9399323e+00,1.7455318e-05,-3.1878232e-06,6.0479531e-05,-1.2295335e-03,-1.0615762e-03,-1.2309699e-03,2.9213821e-04,-8.0208390e-04,3.6387516e-04,6.5992503e-02,-1.4554611e-01,2.5209785e-02
1.9499323e+00,6.5069326e-05,-1.6427712e-05,5.4967782e-05,4.7599908e-03,-1.3265897e-03,4.7620960e-03,2.4304942e-04,-3.0285688e-04,2.2943576e-04,-4.9088839e-03,4.9922750e-02,-1.3443954e-02
1.9599323e+00,1.3863947e-04,8.3945306e-06,2.5312006e-05,7.3558744e-03,2.4968027e-03,7.3532345e-03,-5.4117474e-04,1.4405036e-03,-2.6870529e-05,-7.8422490e-02,1.7433622e-01,-2.5630653e-02
1.9699323e+00,2.0101288e-04,5.3717197e-06,8.2638414e-05,6.2361475e-03,-2.8574360e-04,6.2393263e-03,-7.6950383e-04,1.8813797e-03,2.2933360e-04,-2.2832931e-02,4.4087646e-02,2.5620437e-02
1.9799325e+00,1.1705456e-04,-5.5522095e-05,6.7873517e-05,-8.3894468e-03,-6.1104590e-03,-8.3864103e-03,-6.1280275e-04,1.9152298e-03,2.9295328e-04,1.5669749e-02,3.3849378e-03,6.3618221e-03
1.9899325e+00,9.2612028e-05,8.0393859e-07,1.1520669e-04,-2.4457043e-03,5.6280572e-03,-2.4532747e-03,-4.2863938e-04,1.4303788e-03,3.9496805e-04,1.8416355e-02,-4.8485153e-02,1.0201488e-02
1.9999325e+00,1.5459344e-04,-2.1444337e-05,1.6591118e-04,6.1964170e-03,-2.2083551e-03,6.2057646e-03,-7.1411111e-04,1.9420660e-03,5.3512109e-04,-2.8547200e-02,5.1168774e-02,1.4015317e-02
2.0099325e+00,1.2951817e-04,4.5777741e-06,1.3606856e-04,-2.5085983e-03,2.5956950e-03,-2.5132111e-03,-8.5005855e-04,1.7468153e-03,4.5559800e-04,-1.3594757e-02,-1.9525093e-02,-7.9523169e-03
2.0199325e+00,5.2173275e-05,3.1896353e-06,3.9660350e-05,-7.7323883e-03,-1.4981919e-04,-7.7363992e-03,-5.4744686e-04,8.7520267e-04,2.6258497e-04,3.0261198e-02,-8.7161342e-02,-1.9301321e-02
2.0299325e+00,-1.4152182e-04,-3.2552652e-04,-1.0606273e-04,-1.9418836e-02,-3.2917258e-02,-1.9242281e-02,5.5168354e-04,2.9186442e-03,-1.6108198e-03,1.0991315e-01,2.0434434e-01,-1.8734066e-01
2.0399325e+00,2.6181350e-05,-9.5007641e-05,5.8616695e-06,1.6786540e-02,2.3060330e-02,1.6742519e-02,3.9335467e-04,8.9648293e-04,-4.2587161e-04,-1.5832903e-02,-2.0221632e-01,1.1849493e-01
2.0499325e+00,-1.6337277e-04,-7.6579974e-04,-4.2035003e-04,-1.9027792e-02,-6.7193096e-02,-1.8473674e-02,5.2988164e-04,6.6257407e-03,-1.9443591e-03,1.3652711e-02,5.7292632e-01,-1.5184890e-01
2.0599325e+00,4.8271432e-05,-1.0673930e-04,1.4234475e-05,2.1155823e-02,6.5911226e-02,2.1157115e-02,-3.4128486e-05,2.0774003e-04,3.0086091e-04,-5.6401067e-02,-6.4180068e-01,2.2452222e-01
2.0699325e+00,-1.4581435e-04,-1.7593374e-04,-9.7219773e-05,-1.9431670e-02,-6.9503689e-03,-1.9374431e-02,3.3967354e-04,1.9354648e-03,-1.0683666e-03,3.7380239e-02,1.7277265e-01,-1.3692289e-01
2.0799325e+00,3.7231142e-05,-2.7904074e-05,7.0656230e-05,1.8306516e-02,1.4832730e-02,1.8278515e-02,8.6416255e-05,1.7129110e-03,-3.6658349e-05,-2.5325753e-02,-2.2255404e-02,1.0317093e-01
2.0899324e+00,4.7986840e-05,-3.5026656e-05,1.4660777e-04,1.0755118e-03,-7.0964953e-04,1.0773532e-03,-1.4069209e-04,2.2833164e-03,1.4799970e-04,-2.2710856e-02,5.7040598e-02,1.8465822e-02
2.0999324e+00,-8.9328116e-06,-3.4467172e-05,1.3427305e-04,-5.6913348e-03,4.7511910e-05,-5.6926829e-03,6.4686982e-05,1.5467009e-03,1.1104692e-04,2.0537927e-02,-7.3661629e-02,-3.6952815e-03
2.1099324e+00,-4.9209121e-05,2.7121681e-06,6.2054920e-05,-4.0261496e-03,3.7143347e-03,-4.0324411e-03,2.2554283e-04,1.1192927e-03,1.6052922e-04,1.6085601e-02,-4.2740856e-02,4.9482346e-03
2.1199324e+00,-1.7272287e-05,4.4766879e-05,2.4477306e-05,3.1940549e-03,4.2070106e-03,3.1912948e-03,2.2020362e-04,7.0121468e-04,1.7454921e-04,-5.3392202e-04,-4.1807843e-02,1.4020007e-03
2.1299324e+00,9.0807962e-05,-1.8440109e-05,8.9351424e-05,1.0804593e-02,-6.3165995e-03,1.0813876e-02,2.8969660e-04,6.6927768e-04,1.4905350e-04,6.9493046e-03,-3.1937027e-03,-2.5495740e-03
2.1399324e+00,6.1943026e-06,-8.6139192e-05,-2.4887567e-05,-8.4695133e-03,-6.7765770e-03,-8.4478870e-03,4.0908830e-04,1.1978640e-03,-6.3490885e-04,1.1939181e-02,5.2858683e-02,-7.8396309e-02
2.1499324e+00,-3.6093702e-05,-1.4464175e-04,-2.4542822e-05,-4.2349576e-03,-5.8516670e-03,-4.2206945e-03,6.5637404e-04,9.9025213e-04,-5.4735817e-04,2.4728598e-02,-2.0761208e-02,8.7550763e-03
2.1599324e+00,-1.8708468e-07,-7.9085619e-05,2.9449702e-05,3.5938516e-03,6.5550813e-03,3.5884592e-03,5.3138090e-04,3.8184772e-04,8.2594858e-05,-1.2499326e-02,-6.0840498e-02,6.2995362e-02
2.1699324e+00,-1.2634777e-05,-7.7026671e-05,1.1741444e-05,-1.2450487e-03,2.0374187e-04,-1.2448464e-03,-1.1694622e-04,1.6129116e-03,-2.0424594e-04,-6.4832773e-02,1.2310650e-01,-2.8684107e-02
2.1799324e+00,-4.5569052e-05,-2.1898720e-04,8.8027215e-06,-3.2978100e-03,-1.4206685e-02,-3.2428726e-03,4.2728590e-05,3.2940747e-03,-1.1462142e-03,1.5967496e-02,1.6811647e-01,-9.4196918e-02
2.1899323e+00,-9.9620331e-05,-2.7611685e-04,-3.2022161e-05,-5.4140468e-03,-5.7340422e-03,-5.3738084e-03,2.3701258e-04,4.1504367e-03,-1.3996173e-03,1.9428418e-02,8.5636276e-02,-2.5340335e-02
2.1999323e+00,1.4774913e-05,-1.2190207e-04,5.0858262e-05,1.1444977e-02,1.5451237e-02,1.1393865e-02,3.3471758e-05,2.6393945e-03,-4.3068774e-04,-2.0354102e-02,-1.5110436e-01,9.6893050e-02
2.2099323e+00,5.8899143e-05,-5.7000601e-05,5.0943020e-05,4.4104711e-03,6.5013715e-03,4.3978429e-03,-3.6860157e-04,2.1777694e-03,-9.8921858e-05,-4.0207371e-02,-4.6162552e-02,3.3176620e-02
2.2199323e+00,6.6910067e-06,-9.6043967e-05,-1.1943773e-05,-5.2240283e-03,-3.9172931e-03,-5.2078893e-03,-1.0112832e-04,2.3836303e-03,-6.9065590e-04,2.6747351e-02,2.0586105e-02,-5.9173460e-02
2.2299325e+00,-4.4339340e-05,-2.1114467e-04,-5.5470501e-05,-5.1158031e-03,-1.1519469e-02,-5.0680945e-03,5.4034755e-04,2.4441301e-03,-1.3072880e-03,6.4146119e-02,6.0498462e-03,-6.1661799e-02
2.2399325e+00,3.6043464e-05,-3.0355070e-05,2.8654013e-05,8.0502235e-03,1.8079765e-02,8.0245583e-03,4.6708349e-04,5.6604930e-04,-4.3450185e-04,-7.3264138e-03,-1.8780826e-01,8.7278698e-02
2.2499325e+00,1.0846790e-04,-2.1919293e-05,6.4543841e-05,7.2413352e-03,8.4495462e-04,7.2434051e-03,2.6847243e-04,4.5840751e-04,1.8520434e-04,-1.9861125e-02,-1.0764190e-02,6.1970679e-02
2.2599325e+00,8.3984019e-05,6.9396773e-05,1.7933117e-05,-2.4488795e-03,9.1299107e-03,-2.4542515e-03,-3.3645489e-05,6.6183914e-04,-7.4282371e-05,-3.0211821e-02,2.0343183e-02,-2.5948696e-02
2.2699325e+00,2.8660127e-05,-2.4578122e-05,-2.6167371e-06,-5.5371358e-03,-9.4044535e-03,-5.5158080e-03,2.3875662e-04,1.4985333e-03,-4.5156393e-04,2.7240237e-02,8.3669491e-02,-3.7728192e-02
2.2799325e+00,-1.2223196e-04,-1.4868178e-04,-4.7452866e-05,-1.5106217e-02,-1.2432287e-02,-1.5054143e-02,4.9622370e-04,1.9513198e-03,-7.1848684e-04,2.5746732e-02,4.5278698e-02,-2.6692317e-02
2.2899325e+00,-1.9396801e-04,-2.9606865e-04,-1.1200473e-04,-7.1869219e-03,-1.4754419e-02,-7.1278331e-03,6.3761450e-04,2.8388180e-03,-5.4582908e-04,1.4139094e-02,8.8749901e-02,1.7265793e-02
2.2999325e+00,-7.1305506e-05,-1.4853536e-04,4.1466627e-05,1.2262478e-02,1.4771978e-02,1.2247604e-02,2.8859666e-04,1.8085412e-03,6.5530518e-04,-3.4901818e-02,-1.0302778e-01,1.2011354e-01
2.3099325e+00,-1.3744277e-04,-2.2701837e-05,9.5786144e-05,-6.6082924e-03,1.2574021e-02,-6.6368994e-03,2.8977785e-05,1.4384984e-03,7.6719399e-04,-2.5961912e-02,-3.7004315e-02,1.1188892e-02
2.3199325e+00,-4.5007166e-04,-6.1363646e-05,7.6353644e-05,-3.1263784e-02,-3.9353300e-03,-3.1253425e-02,-3.2689298e-04,1.8852006e-03,-6.8165558e-05,-3.5587111e-02,4.4670260e-02,-8.3536034e-02
2.3299325e+00,-8.0318981e-04,-8.9769479e-05,2.9151582e-05,-3.5348969e-02,-2.9217009e-03,-3.5268062e-02,-1.9440171e-04,2.1051278e-03,-1.0674658e-03,1.3249140e-02,2.1992745e-02,-9.9930122e-02
2.3399324e+00,-9.1458276e-04,-2.7786400e-04,-7.0511079e-05,-1.1147516e-02,-1.8853906e-02,-1.1055656e-02,-9.2641217e-05,3.9129210e-03,-8.9389133e-04,1.0176059e-02,1.8077950e-01,1.7357466e-02
2.3499324e+00,-1.0159809e-03,-3.0919561e-04,-4.7994574e-05,-1.0147309e-02,-3.1768979e-03,-1.0118700e-02,-2.1606068e-04,4.1029720e-03,-8.0558879e-04,-1.2341958e-02,1.9005111e-02,8.8302622e-03
2.3599324e+00,-1.3561881e-03,-9.2228750e-04,-4.2224066e-04,-3.4124989e-02,-6.1573511e-02,-3.3434039e-02,4.2813142e-04,8.2768650e-03,-2.2950706e-03,6.4419271e-02,4.1738970e-01,-1.4894832e-01
2.3699324e+00,-1.4182859e-03,-9.1666047e-04,-4.6569314e-04,-6.2198785e-03,5.1377760e-04,-6.2039258e-03,3.7696320e-04,8.2663961e-03,-1.6606511e-03,-5.1168271e-03,-1.0468817e-03,6.3442005e-02
2.3799324e+00,-1.2235946e-03,-2.3632690e-04,5.1911649e-05,1.9407231e-02,6.8117094e-02,1.9237012e-02,-4.1333822e-04,3.9045139e-03,1.7341461e-03,-7.9030217e-02,-4.3618864e-01,3.3948004e-01
2.3899324e+00,-1.5993810e-03,-9.4601820e-05,1.2379658e-04,-3.7523794e-02,1.4040908e-02,-3.7682769e-02,-5.6449006e-04,2.9312640e-03,1.6716415e-03,-1.5115199e-02,-9.7325081e-02,-6.2504673e-03
2.3999324e+00,-2.1867932e-03,-2.5347078e-04,1.6999668e-04,-5.8692578e-02,-1.6148255e-02,-5.8718700e-02,-5.1414773e-04,3.9343346e-03,6.8971722e-04,5.0342382e-03,1.0030715e-01,-9.8192519e-02
2.4099324e+00,-2.7621624e-03,-1.1266522e-04,2.3942558e-04,-5.7515232e-02,1.3916395e-02,-5.7598610e-02,-4.2395679e-04,2.4275168e-03,4.8131968e-04,9.0191024e-03,-1.5068192e-01,-2.0839774e-02
2.4199324e+00,-3.2723643e-03,-4.4810526e-04,1.8348259e-04,-5.1028668e-02,-3.3726521e-02,-5.0891354e-02,3.2213924e-04,3.9037322e-03,4.6650835e-05,7.4609674e-02,1.4762168e-01,-4.3466926e-02
2.4299324e+00,-3.4120708e-03,-5.5978085e-04,2.1602685e-04,-1.3970512e-02,-1.1232843e-02,-1.3918374e-02,4.1290567e-04,5.0937965e-03,3.4026579e-04,9.0766516e-03,1.1900654e-01,2.9361524e-02
2.4399323e+00,-3.5618522e-03,-4.7369604e-04,1.6004156e-04,-1.4967942e-02,8.5413011e-03,-1.5026758e-02,2.8428710e-04,4.7610344e-03,5.1852972e-04,-1.2861869e-02,-3.3276243e-02,1.7826409e-02
2.4499323e+00,-3.7957385e-03,-2.1210224e-04,1.9509574e-04,-2.3350956e-02,2.6120317e-02,-2.3469854e-02,3.2052290e-04,1.9870118e-03,1.2521981e-03,3.6235837e-03,-2.7740252e-01,7.3366913e-02
2.4599323e+00,-4.0825360e-03,-1.4154654e-04,3.2894297e-04,-2.8613468e-02,7.0706345e-03,-2.8742229e-02,9.5508840e-04,4.2901835e-04,2.0744108e-03,6.3456610e-02,-1.5579949e-01,8.2221340e-02
2.4699323e+00,-4.7168320e-03,1.4244605e-04,5.8580427e-04,-6.3299692e-02,2.8532816e-02,-6.3499538e-02,4.9363374e-04,-1.6092211e-03,1.8262705e-03,-4.6145510e-02,-2.0382414e-01,-2.4814051e-02
2.4799325e+00,-5.4163777e-03,1.4245979e-04,4.5624483e-04,-6.9947692e-02,5.9182121e-06,-6.9958241e-02,-1.8640288e-04,-2.5134948e-04,7.5389829e-05,-6.8002105e-02,1.3578405e-01,-1.7508406e-01
2.4899325e+00,-5.9379411e-03,5.5375902e-05,4.2942695e-04,-5.2182126e-02,-8.6862851e-03,-5.2134327e-02,1.6235357e-04,-2.6172085e-04,-4.6648034e-04,3.4875677e-02,-1.0371381e-03,-5.4187068e-02
2.4999325e+00,-6.1186920e-03,1.1602788e-04,5.5584698e-04,-1.8066476e-02,6.0862103e-03,-1.8076686e-02,1.6037162e-04,-1.0015827e-03,4.2390416e-04,-1.9819485e-04,-7.3986255e-02,8.9038535e-02
2.5099325e+00,-6.1447682e-03,-2.9319576e-05,7.8531118e-04,-2.6030721e-03,-1.4537031e-02,-2.5994927e-03,-7.5261498e-06,8.6436474e-04,1.7018709e-03,-1.6789793e-02,1.8659492e-01,1.2779680e-01
2.5199325e+00,-6.2492206e-03,-9.7824999e-05,8.7848878e-04,-1.0418317e-02,-6.8745061e-03,-1.0456395e-02,-8.0849887e-05,2.2088042e-03,2.5219728e-03,-7.3323807e-03,1.3444407e-01,8.2010267e-02
2.5299325e+00,-6.6455159e-03,-1.3851745e-04,8.0599195e-04,-3.9491772e-02,-4.1368121e-03,-3.9759921e-02,3.6773751e-04,2.0656065e-03,3.5087278e-03,4.4858782e-02,-1.4319781e-02,9.8675591e-02
2.5399325e+00,-7.5046165e-03,1.2213935e-04,8.9956336e-04,-8.5614292e-02,2.6142715e-02,-8.6181652e-02,5.1461042e-04,-3.8061746e-04,3.2820610e-03,1.4687306e-02,-2.4462263e-01,-2.2666698e-02
2.5499325e+00,-8.3664416e-03,2.0571718e-04,9.7186757e-04,-8.5951102e-02,8.7075537e-03,-8.6378913e-02,5.9574139e-04,-3.4542016e-03,2.6246164e-03,8.1131044e-03,-3.0735871e-01,-6.5744522e-02
2.5599325e+00,-9.4405567e-03,-1.1396984e-04,6.8368944e-04,-1.0741768e-01,-3.1734364e-02,-1.0747503e-01,5.3457552e-04,-1.6467712e-03,1.0250074e-04,-6.1165932e-03,1.8074321e-01,-2.5221181e-01
2.5699325e+00,-1.0088589e-02,-1.4837082e-04,8.5830660e-04,-6.4781479e-02,-3.2182582e-03,-6.4836510e-02,9.3907692e-04,-2.4831150e-03,3.8609785e-04,4.0450179e-02,-8.3634461e-02,2.8359738e-02
2.5799325e+00,-1.0448047e-02,1.3267363e-04,1.0589301e-03,-3.5848094e-02,2.8286935e-02,-3.5900236e-02,2.8734426e-04,-4.7858458e-03,2.4905596e-03,-6.5173329e-02,-2.3027329e-01,2.1044638e-01
2.5899324e+00,-1.0804208e-02,1.9794436e-04,1.1350513e-03,-3.5499281e-02,6.7289772e-03,-3.5695113e-02,3.5679996e-04,-5.2975620e-03,3.2099898e-03,6.9455767e-03,-5.1171675e-02,7.1943087e-02
2.5999324e+00,-1.1233013e-02,8.5942458e-05,1.2438950e-03,-4.2735758e-02,-1.0990711e-02,-4.3078789e-02,8.3425030e-04,-4.0345236e-03,3.5871079e-03,4.7745080e-02,1.2630396e-01,3.7711850e-02
2.6099324e+00,-1.2144064e-02,-1.1933669e-04,1.1627652e-03,-9.0900590e-02,-2.0323593e-02,-9.1355038e-02,9.4782863e-04,-1.2916302e-03,2.4558966e-03,1.1357843e-02,2.7428960e-01,-1.1312124e-01
2.6199324e+00,-1.2997862e-02,-1.3102338e-04,1.1585200e-03,-8.5207200e-02,-9.3324921e-04,-8.5555289e-02,6.1687085e-04,-2.1361015e-03,2.0297732e-03,-3.3095809e-02,-8.4447210e-02,-4.2612383e-02
2.6299324e+00,-1.3997384e-02,-4.2987221e-04,8.8992209e-04,-9.9937395e-02,-2.9748524e-02,-1.0000778e-01,1.3271457e-03,-3.7091443e-05,5.4440756e-04,7.1027554e-02,2.0990121e-01,-1.4853670e-01
2.6399324e+00,-1.4470203e-02,-7.1864439e-04,9.7101272e-04,-4.7301890e-02,-2.8857681e-02,-4.7273934e-02,1.9446151e-03,1.5315226e-03,7.6358487e-04,6.1746994e-02,1.5686156e-01,2.1917753e-02
2.6499324e+00,-1.4660108e-02,-6.6445502e-04,1.2387895e-03,-1.8935213e-02,5.4106904e-03,-1.9048081e-02,1.6441434e-03,2.0726008e-03,2.4406636e-03,-3.0047193e-02,5.4107868e-02,1.6770803e-01
2.6599324e+00,-1.4945028e-02,-4.6254886e-04,1.5510600e-03,-2.8323229e-02,2.0311723e-02,-2.8574129e-02,2.5471028e-03,-1.6991518e-03,4.1075301e-03,9.0296025e-02,-3.7717562e-01,1.6668681e-01
2.6699324e+00,-1.5783746e-02,-2.7870314e-04,1.5652119e-03,-8.3491591e-02,1.9011872e-02,-8.4111039e-02,2.8712724e-03,-4.5932256e-03,3.8926215e-03,3.2416991e-02,-2.8940766e-01,-2.1490884e-02
2.6799324e+00,-1.6747815e-02,-2.2827100e-04,1.6648765e-03,-9.6087714e-02,5.8565846e-03,-9.6679482e-02,2.8229193e-03,-5.5973457e-03,3.1556879e-03,-4.8353146e-03,-1.0041210e-01,-7.3693433e-02
2.6899323e+00,-1.8070312e-02,-7.9395106e-04,1.4487862e-03,-1.3226261e-01,-5.6353963e-02,-1.3232828e-01,2.2816939e-03,6.6343606e-04,8.7579261e-04,-5.4122590e-02,6.2607877e-01,-2.2798974e-01
2.6999323e+00,-1.8981003e-02,-1.2983032e-03,1.4981787e-03,-9.1104041e-02,-5.0372963e-02,-9.1068799e-02,3.0613219e-03,2.3783182e-03,1.3071034e-03,7.7962876e-02,1.7148838e-01,4.3131121e-02
2.7099323e+00,-1.9661426e-02,-1.1390681e-03,1.5658743e-03,-6.7847493e-02,1.6112497e-02,-6.8192380e-02,2.9726262e-03,1.9386351e-04,2.1621105e-03,-8.8695784e-03,-2.1844568e-01,8.5500789e-02
2.7199323e+00,-2.0643829e-02,-2.6024901e-03,5.4986053e-04,-9.8876899e-02,-1.4729567e-01,-9.6155006e-02,3.9780076e-03,1.3844429e-02,-5.6112235e-04,1.0053823e-01,1.3650578e+00,-2.7232354e-01
2.7299325e+00,-2.1349329e-02,-2.3795482e-03,5.4347857e-04,-7.0507285e-02,2.1760546e-02,-7.0755578e-02,4.0131174e-03,1.1554434e-02,-6.9422437e-04,3.5108986e-03,-2.2899424e-01,-1.3309897e-02
2.7399325e+00,-2.1790101e-02,-1.2025109e-03,1.2712583e-03,-4.3634530e-02,1.1777310e-01,-4.4332021e-02,2.9655103e-03,1.3770947e-03,2.1185512e-03,-1.0476081e-01,-1.0177349e+00,2.8127783e-01
2.7499325e+00,-2.2780959e-02,-1.1362900e-03,1.6115721e-03,-9.8833892e-02,7.1604901e-03,-9.9299774e-02,3.2159443e-03,-2.2130215e-03,2.3198441e-03,2.5043423e-02,-3.5901196e-01,2.0129303e-02
2.7599325e+00,-2.3534167e-02,-1.2209464e-03,1.7426046e-03,-7.5148490e-02,-8.0346228e-03,-7.5540132e-02,3.8159929e-03,-1.9004505e-03,2.7077950e-03,6.0004923e-02,3.1257133e-02,3.8795136e-02
2.7699325e+00,-2.4185503e-02,-1.3539053e-03,1.8806276e-03,-6.4988670e-02,-1.2868035e-02,-6.5363959e-02,4.6407342e-03,-1.9196494e-03,3.1571641e-03,8.2474205e-02,-1.9198917e-03,4.4936949e-02
2.7799325e+00,-2.5332450e-02,-2.3959654e-03,1.2610903e-03,-1.1522313e-01,-1.0434595e-01,-1.1403626e-01,5.8308957e-03,7.0834708e-03,6.7417547e-04,1.1901626e-01,9.0031288e-01,-2.4829910e-01
2.7899325e+00,-2.6213845e-02,-2.2333468e-03,1.4234356e-03,-8.7911687e-02,1.6171607e-02,-8.8383403e-02,5.3146093e-03,6.3223935e-03,1.5893916e-03,-5.1628684e-02,-7.6107799e-02,9.1521703e-02
2.7999325e+00,-2.7099759e-02,-1.8547355e-03,1.8048899e-03,-8.8194439e-02,3.7991449e-02,-8.8931224e-02,3.8901451e-03,2.4082208e-03,2.8078127e-03,-1.4244656e-01,-3.9141764e-01,1.2184223e-01
2.8099325e+00,-2.8144379e-02,-1.9936158e-03,1.7538869e-03,-1.0425234e-01,-1.3734948e-02,-1.0469156e-01,4.0968054e-03,2.6261979e-03,2.5406594e-03,2.0666047e-02,2.1797727e-02,-2.6715363e-02
2.8199325e+00,-2.9542581e-02,-3.0014645e-03,1.3627802e-03,-1.4019593e-01,-1.0171052e-01,-1.3877011e-01,4.6814300e-03,1.1347492e-02,6.7710237e-04,5.8462517e-02,8.7213029e-01,-1.8635588e-01
2.8299325e+00,-3.0293575e-02,-1.8651808e-03,2.1410271e-03,-7.4440512e-02,1.1408689e-01,-7.5060623e-02,4.3839880e-03,-1.7332644e-03,2.1301007e-03,-2.9744229e-02,-1.3080769e+00,1.4529997e-01
2.8399324e+00,-3.1339108e-02,-2.2278594e-03,1.9935990e-03,-1.0454852e-01,-3.5779485e-02,-1.0472630e-01,5.2708687e-03,6.0326543e-04,1.8588979e-03,8.8688156e-02,2.3365321e-01,-2.7120308e-02
2.8499324e+00,-3.1882512e-02,-2.1786360e-03,2.1634133e-03,-5.4123346e-02,5.3344452e-03,-5.4518085e-02,5.9010119e-03,-1.6787470e-03,3.4387674e-03,6.3014377e-02,-2.2820146e-01,1.5798710e-01
2.8599324e+00,-3.2636487e-02,-2.3745036e-03,2.0205154e-03,-7.5176896e-02,-1.9014358e-02,-7.5763456e-02,6.0805211e-03,-1.4997894e-03,4.4771680e-03,1.7950935e-02,1.7895779e-02,1.0384016e-01
2.8699324e+00,-3.3908242e-02,-2.4773957e-03,2.0400127e-03,-1.2671804e-01,-9.2377257e-03,-1.2771196e-01,6.3120460e-03,-1.9463376e-03,4.0803967e-03,2.3152516e-02,-4.4654861e-02,-3.9677167e-02
2.8799324e+00,-3.5178480e-02,-1.9805385e-03,2.2506892e-03,-1.2625886e-01,5.1236308e-02,-1.2717074e-01,6.2228833e-03,-5.9773555e-03,3.5636440e-03,-8.9162760e-03,-4.0310218e-01,-5.1675321e-02
2.8899324e+00,-3.6494885e-02,-2.0045543e-03,2.2923317e-03,-1.3134033e-01,-6.6857030e-04,-1.3196027e-01,6.1903447e-03,-6.9573040e-03,2.3716541e-03,-3.2538705e-03,-9.7994940e-02,-1.1919910e-01
2.8999324e+00,-3.7860127e-02,-3.9034137e-03,1.4491883e-03,-1.3804275e-01,-1.9046894e-01,-1.3416521e-01,7.6733690e-03,1.2090447e-02,-4.7909328e-04,1.4830257e-01,1.9047769e+00,-2.8507501e-01
2.9099324e+00,-3.9187235e-02,-5.9864466e-03,1.2830334e-04,-1.3526313e-01,-2.1084768e-01,-1.2594392e-01,9.9463836e-03,3.0013888e-02,-3.6759716e-03,2.2730168e-01,1.7923458e+00,-3.1968813e-01
2.9199324e+00,-3.9052034e-02,-2.3993798e-03,2.6366015e-03,1.6069609e-02,3.5853871e-01,1.5102071e-02,7.2872760e-03,-4.1996692e-03,4.7270582e-03,-2.6591102e-01,-3.4213590e+00,8.4030378e-01
2.9299324e+00,-3.9947914e-02,-2.4150568e-03,2.5315445e-03,-8.9165457e-02,-3.2360739e-04,-9.0021723e-02,1.0064872e-02,-3.8027943e-03,4.8308567e-03,2.7775991e-01,3.9687528e-02,1.0379859e-02
2.9399323e+00,-4.1367290e-02,-3.0812015e-03,2.3427312e-03,-1.4182066e-01,-6.5905252e-02,-1.4238522e-01,7.6233552e-03,2.6298893e-03,4.3642101e-03,-2.4415195e-01,6.4326897e-01,-4.6664701e-02
2.9499323e+00,-4.2888751e-02,-2.6124155e-03,2.6865771e-03,-1.5118240e-01,4.8554953e-02,-1.5258062e-01,7.2867668e-03,-3.7263969e-03,4.0548905e-03,-3.3658870e-02,-6.3562922e-01,-3.0931990e-02
2.9599323e+00,-4.4477675e-02,-2.9456055e-03,2.6798656e-03,-1.5869394e-01,-3.1755325e-02,-1.5941051e-01,7.7685939e-03,-2.0601676e-03,2.8451093e-03,4.8182757e-02,1.6662309e-01,-1.2097824e-01
2.9699323e+00,-4.5886268e-02,-4.0356169e-03,2.1517318e-03,-1.4171697e-01,-1.0861501e-01,-1.4029652e-01,9.2163488e-03,6.5168268e-03,1.0009254e-03,1.4477563e-01,8.5770026e-01,-1.8441857e-01
2.9799325e+00,-4.6684525e-02,-3.6883874e-03,2.5301531e-03,-7.9314128e-02,3.5267504e-02,-8.0092497e-02,8.9256808e-03,2.0702719e-03,2.4608003e-03,-2.9066139e-02,-4.4464531e-01,1.4598415e-01
2.9899325e+00,-4.8422044e-02,-6.0514702e-03,8.2863535e-04,-1.7688838e-01,-2.3822220e-01,-1.6787485e-01,1.1705366e-02,2.3230069e-02,-2.2020950e-03,2.7796874e-01,2.1159817e+00,-4.6628997e-01
2.9999325e+00,-4.8979122e-02,-4.5476182e-03,2.1423017e-03,-5.3973529e-02,1.5046115e-01,-5.7190654e-02,1.0418241e-02,8.7812745e-03,2.9492041e-03,-1.2871257e-01,-1.4448808e+00,5.1513039e-01
3.0099325e+00,-5.0191221e-02,-3.3111722e-03,2.9739147e-03,-1.1938750e-01,1.2531600e-01,-1.2130250e-01,9.5968725e-03,-4.2260316e-03,5.1874452e-03,-8.2136943e-02,-1.3007319e+00,2.2382433e-01
3.0199325e+00,-5.1708174e-02,-3.5715722e-03,3.0619881e-03,-1.5118325e-01,-2.4304343e-02,-1.5249275e-01,9.6740795e-03,-1.7509785e-03,4.9780742e-03,7.7207124e-03,2.4750554e-01,-2.0937123e-02
3.0299325e+00,-5.3276636e-02,-4.3426392e-03,2.7288409e-03,-1.5705477e-01,-7.6080837e-02,-1.5713833e-01,1.0934367e-02,4.4095696e-03,3.9781349e-03,1.2602889e-01,6.1605540e-01,-9.9994021e-02
3.0399325e+00,-5.4790429e-02,-4.2039013e-03,2.9799259e-03,-1.5055792e-01,1.5417158e-02,-1.5204804e-01,1.0610185e-02,4.0776817e-04,4.3889306e-03,-3.2418238e-02,-4.0018053e-01,4.1079605e-02
3.0499325e+00,-5.6460409e-02,-3.8215965e-03,3.3306516e-03,-1.6579280e-01,4.0953306e-02,-1.6755265e-01,1.0931959e-02,-5.3649337e-03,4.6444964e-03,3.2177378e-02,-5.7727074e-01,2.5556612e-02
3.0599325e+00,-5.8243476e-02,-5.0043672e-03,2.9496767e-03,-1.7909960e-01,-1.1694707e-01,-1.7838981e-01,1.1791537e-02,4.3693950e-03,3.3009716e-03,8.5957885e-02,9.7343379e-01,-1.3435261e-01
3.0699325e+00,-5.9744189e-02,-4.9177389e-03,3.0784594e-03,-1.4930355e-01,9.7632252e-03,-1.5076812e-01,1.1329555e-02,3.9752628e-03,4.3888060e-03,-4.6198202e-02,-3.9413252e-02,1.0878355e-01
3.0799325e+00,-6.1343867e-02,-5.4248336e-03,3.1131378e-03,-1.5980536e-01,-4.9478276e-02,-1.6051516e-01,1.3146959e-02,5.4539484e-03,5.0846815e-03,1.8174061e-01,1.4786870e-01,6.9587614e-02
3.0899324e+00,-6.3401648e-02,-5.0082007e-03,3.3338205e-03,-2.0428819e-01,4.4591044e-02,-2.0664755e-01,1.3120684e-02,-1.1197867e-03,4.4887066e-03,-2.6275279e-03,-6.5737413e-01,-5.9597550e-02
3.0999324e+00,-6.5353982e-02,-6.2729053e-03,3.0170320e-03,-1.9646328e-01,-1.2538450e-01,-1.9469989e-01,1.4662240e-02,9.1666011e-03,3.0870342e-03,1.5415570e-01,1.0286398e+00,-1.4016737e-01
3.1099324e+00,-6.6939360e-02,-5.7767128e-03,3.5072892e-03,-1.5705155e-01,5.1260415e-02,-1.5949228e-01,1.3502977e-02,3.1053091e-03,5.0454933e-03,-1.1592635e-01,-6.0612978e-01,1.9584609e-01
3.1199324e+00,-6.8751509e-02,-6.2019163e-03,3.6110133e-03,-1.8087579e-01,-4.0817177e-02,-1.8194429e-01,1.4909009e-02,5.5101141e-03,5.2457129e-03,1.4060328e-01,2.4048073e-01,2.0021982e-02
3.1299324e+00,-7.0862159e-02,-5.7028220e-03,3.9247523e-03,-2.0910177e-01,5.3560356e-02,-2.1212189e-01,1.5255206e-02,-2.0594132e-03,5.5633602e-03,3.4619761e-02,-7.5695345e-01,3.1764759e-02
3.1399324e+00,-7.2900456e-02,-6.9881240e-03,3.4704932e-03,-2.0506247e-01,-1.2668173e-01,-2.0375085e-01,1.6726519e-02,7.7291834e-03,4.3502863e-03,1.4713144e-01,9.7886059e-01,-1.2130751e-01
3.1499324e+00,-7.4611261e-02,-6.2430404e-03,4.0942403e-03,-1.6884658e-01,7.7199534e-02,-1.7210405e-01,1.5148687e-02,-6.2806601e-04,6.3272397e-03,-1.5778332e-01,-8.3572574e-01,1.9769553e-01
3.1599324e+00,-7.6891161e-02,-6.3381342e-03,4.2229358e-03,-2.2675899e-01,-5.4927618e-03,-2.2934608e-01,1.5768811e-02,-1.8333462e-03,5.9158949e-03,6.2012474e-02,-1.2052813e-01,-4.1134521e-02
3.1699324e+00,-7.9326921e-02,-6.5958544e-03,4.1133285e-03,-2.4283472e-01,-2.0817801e-02,-2.4478741e-01,1.7297418e-02,-3.0126048e-03,4.7136496e-03,1.5286078e-01,-1.1792598e-01,-1.2022465e-01
3.1799324e+00,-8.1223662e-02,-6.7419066e-03,4.0937203e-03,-1.8883391e-01,-9.9921412e-03,-1.9080852e-01,1.9684439e-02,-4.5961486e-03,5.7360655e-03,2.3870237e-01,-1.5835453e-01,1.0224169e-01
