time, x, y, z, vx, vy, vz, yaw, pitch, roll, yaw_rate, pitch_rate, roll_rate
0.0000000e+00,0.0000000e+00,0.0000000e+00,0.0000000e+00,0.0000000e+00,0.0000000e+00,0.0000000e+00,0.0000000e+00,0.0000000e+00,0.0000000e+00,0.0000000e+00,0.0000000e+00,0.0000000e+00
9.9999905e-03,-3.5624291e-04,2.1657718e-04,9.1608099e-05,-3.5648768e-02,2.1752876e-02,-3.5541811e-02,-9.7666861e-05,-2.7723125e-03,-6.2697795e-04,-9.7666954e-03,-2.7723151e-01,-6.2697855e-02
1.9999981e-02,8.5426638e-05,1.7496791e-05,-8.9754493e-06,4.4165954e-02,-1.9914458e-02,4.4165154e-02,-8.5787003e-05,-2.3068687e-04,6.2262146e-05,1.1879869e-03,2.5416280e-01,6.8924076e-02
2.9999971e-02,2.1103880e-04,-7.5756456e-05,-5.9686133e-05,1.2561711e-02,-9.3096985e-03,1.2572338e-02,-5.1173153e-04,7.3242660e-04,3.4127384e-04,-4.2594493e-02,9.6311439e-02,2.7901196e-02
3.9999962e-02,3.2624051e-05,-4.5941019e-05,-2.0231337e-05,-1.7841840e-02,2.9805530e-03,-1.7841310e-02,7.2775238e-05,1.2846781e-04,-3.1674571e-05,5.8450732e-02,-6.0395937e-02,-3.7294877e-02
4.9999952e-02,-3.0131167e-04,3.3621587e-04,1.0250639e-04,-3.3422552e-02,3.8342774e-02,-3.3218547e-02,-1.5725896e-04,-3.9736397e-03,-6.8715481e-04,-2.3003442e-02,-4.1021114e-01,-6.5548087e-02
5.9999943e-02,-2.3896409e-04,2.9929513e-04,6.8189662e-05,6.2400284e-03,-3.7132132e-03,6.2169192e-03,-1.2777204e-04,-3.5241253e-03,-7.6907391e-04,2.9486955e-03,4.4951485e-02,-8.1919181e-03
6.9999933e-02,-3.1269330e-04,3.0608012e-04,9.1011481e-05,-7.3782392e-03,7.0530792e-04,-7.3650944e-03,-4.4345330e-05,-3.6835557e-03,-7.1657650e-04,8.3426785e-03,-1.5943053e-02,5.2497468e-03
7.9999924e-02,-3.1456029e-04,2.6232209e-04,9.0941260e-05,-1.8670116e-04,-4.3751329e-03,-2.0188245e-04,-3.5414863e-05,-3.5060257e-03,-8.4185987e-04,8.9304755e-04,1.7753011e-02,-1.2528349e-02
8.9999914e-02,-2.4705521e-04,3.0230783e-04,8.2312208e-05,6.7557039e-03,3.9733636e-03,6.7602040e-03,-4.1099449e-05,-3.7749731e-03,-7.9340954e-04,-5.6845908e-04,-2.6894763e-02,4.8450372e-03
9.9999905e-02,-1.6572872e-04,3.1150945e-04,5.6087928e-05,8.1383142e-03,8.9077763e-04,8.1302673e-03,-1.1264894e-04,-3.7277345e-03,-7.0873080e-04,-7.1549560e-03,4.7238669e-03,8.4678820e-03
1.0999990e-01,-2.3264659e-04,3.1466513e-04,8.9813787e-05,-6.6961432e-03,3.3896598e-04,-6.6862947e-03,-1.2081010e-04,-3.6198220e-03,-6.4461244e-04,-8.1611717e-04,1.0791259e-02,6.4118424e-03
1.1999989e-01,-2.4379621e-06,-1.7657442e-05,-1.3802725e-05,2.3021118e-02,-3.3230507e-02,2.3023224e-02,4.2694035e-05,1.2011706e-04,-7.1762433e-05,1.6350429e-02,3.7399426e-01,5.7285055e-02
1.2999988e-01,1.6708463e-04,-1.2521224e-04,-7.9523339e-05,1.6951736e-02,-1.0727138e-02,1.6970769e-02,-3.7229268e-04,1.2992557e-03,2.6792011e-04,-4.1498711e-02,1.1791398e-01,3.3968287e-02
1.3997149e-01,1.9082496e-04,-3.3929230e-05,-7.2061144e-05,2.3759266e-03,9.1560522e-03,2.3788413e-03,-4.3892014e-04,3.0500779e-04,3.5501108e-04,-6.6817103e-03,-9.9707775e-02,8.7338849e-03
1.4997149e-01,-3.6822004e-04,3.1863051e-04,1.0094548e-04,-5.5938268e-02,3.5450224e-02,-5.5747790e-02,-1.0674813e-04,-3.5868082e-03,-5.3590580e-04,3.3217233e-02,-3.8918197e-01,-8.9091773e-02
1.5997148e-01,1.3174828e-04,-7.7199248e-05,-7.3621083e-05,4.9995757e-02,-3.9493537e-02,5.0068710e-02,-5.3700608e-04,1.2513535e-03,4.4735878e-04,-4.3025836e-02,4.8381663e-01,9.8326552e-02
1.6997147e-01,1.9061746e-04,-8.2606617e-05,-6.5422166e-05,5.8851630e-03,-5.3261206e-04,5.8894256e-03,-3.9262662e-04,9.8722791e-04,3.3512617e-04,1.4437960e-02,-2.6412581e-02,-1.1223272e-02
1.7997146e-01,1.5567899e-04,-7.5676236e-05,-5.4216652e-05,-3.4930790e-03,6.8829697e-04,-3.4955599e-03,-3.7911988e-04,9.7768006e-04,2.9603986e-04,1.3506759e-03,-9.5478554e-04,-3.9086343e-03
1.8997145e-01,-2.0656301e-06,-3.1848978e-05,-2.5792633e-05,-1.5775025e-02,4.3751265e-03,-1.5776039e-02,-3.0331685e-05,4.5166149e-04,-2.6352527e-05,3.4878852e-02,-5.2601907e-02,-3.2239270e-02
1.9997144e-01,-2.5628921e-04,3.3700806e-04,7.5438301e-05,-2.5447813e-02,3.6975095e-02,-2.5266658e-02,-1.9256090e-04,-3.7201772e-03,-7.2119231e-04,-1.6222937e-02,-4.1718427e-01,-6.9484045e-02
2.0997167e-01,8.9710595e-05,-1.8505600e-06,-3.1236773e-05,3.4599578e-02,-3.3888785e-02,3.4595177e-02,5.0708833e-05,-5.6207080e-05,-6.0897408e-05,2.4326417e-02,3.6638863e-01,6.6027979e-02
2.1997166e-01,1.6155854e-04,-6.8369174e-05,-8.3324037e-05,7.1847427e-03,-6.6457686e-03,7.1905018e-03,-2.4100255e-04,6.0755089e-04,2.3122578e-04,-2.9171166e-02,6.6375860e-02,2.9212346e-02
2.2997165e-01,1.3530843e-04,-1.0262843e-04,-6.3175670e-05,-2.6231922e-03,-3.4303581e-03,-2.6210458e-03,-3.6031322e-04,1.3281058e-03,2.2339353e-04,-1.1931078e-02,7.2055564e-02,-7.8322533e-04
2.3997164e-01,7.2001132e-05,4.1082586e-05,-2.1146240e-05,-6.3284508e-03,1.4374336e-02,-6.3257060e-03,1.9882626e-04,-3.1015679e-04,-9.0400795e-05,5.5914001e-02,-1.6382642e-01,-3.1379462e-02
2.4997163e-01,-2.3194252e-04,2.8129851e-04,7.1131038e-05,-3.0419437e-02,2.4117715e-02,-3.0293069e-02,-1.2573002e-04,-3.2941941e-03,-7.2482891e-04,-3.2455659e-02,-2.9840402e-01,-6.3442872e-02
2.5997162e-01,-2.6671228e-04,3.5889051e-04,8.6710268e-05,-3.4804626e-03,7.7720884e-03,-3.4445756e-03,-1.2923019e-04,-3.8531292e-03,-7.1359675e-04,-3.5001767e-04,-5.5893559e-02,1.1232169e-03
2.6997161e-01,-2.9647568e-04,3.0765835e-04,7.4252947e-05,-2.9783734e-03,-5.1118964e-03,-2.9937312e-03,-5.7922446e-05,-3.8530512e-03,-7.8247088e-04,7.1307811e-03,7.7998044e-06,-6.8874188e-03
2.7997160e-01,2.1692116e-04,-7.6153149e-05,-9.8580542e-05,5.1346858e-02,-3.8319907e-02,5.1378367e-02,-4.1822572e-04,7.7495641e-04,1.7375895e-04,-3.6030362e-02,4.6280120e-01,9.5623074e-02
2.8997159e-01,2.0227094e-04,-8.7117042e-05,-8.6422159e-05,-1.4640305e-03,-1.0986411e-03,-1.4643278e-03,-4.3944109e-04,1.0970504e-03,3.4810710e-04,-2.1215391e-03,3.2209429e-02,1.7434831e-02
2.9997158e-01,3.1732538e-05,6.3559025e-05,-8.1954100e-06,-1.7049928e-02,1.5073784e-02,-1.7052340e-02,6.7166517e-05,-2.9418541e-04,1.7103747e-04,5.0660809e-02,-1.3912371e-01,-1.7706979e-02
3.0997157e-01,1.5905463e-04,-1.0468264e-04,-6.9782812e-05,1.2735981e-02,-1.6802661e-02,1.2756857e-02,-4.9403553e-04,1.1947298e-03,3.5731901e-04,-5.6120258e-02,1.4889166e-01,1.8628172e-02
3.1997156e-01,7.4362084e-05,-7.6817652e-04,-3.8543587e-05,-8.5774783e-03,-6.6360975e-02,-8.2676717e-03,1.6837596e-03,3.0916342e-03,4.1183297e-04,2.1777972e-01,1.8969062e-01,5.4514013e-03
3.2997155e-01,1.2642438e-04,-6.3966169e-05,-4.4848420e-05,5.1703501e-03,7.0429708e-02,5.1249524e-03,-4.7554928e-04,1.1879262e-03,4.6003266e-04,-2.1593109e-01,-1.9037098e-01,4.8199737e-03
3.3997154e-01,1.6464309e-04,-5.5590384e-05,-6.5901653e-05,3.8198900e-03,8.4320644e-04,3.8226204e-03,-5.2516339e-04,9.4693231e-04,4.0385798e-04,-4.9614156e-03,-2.4099409e-02,-5.6174736e-03
3.4997153e-01,6.9172656e-05,-1.2591893e-05,-2.2476184e-05,-9.5476720e-03,4.2957124e-03,-9.5482968e-03,-6.9301964e-05,3.6439918e-04,-3.3684647e-05,4.5586186e-02,-5.8253368e-02,-4.3754304e-02
3.5997152e-01,-2.0075344e-05,-1.0223558e-03,-7.8263408e-05,-9.2852706e-03,-1.0096971e-01,-8.6289064e-03,3.5298749e-03,2.8888794e-03,-4.5772191e-04,3.5991803e-01,2.5244826e-01,-4.2403767e-02
3.6997151e-01,5.3351589e-05,-7.1595445e-04,-2.8453540e-05,7.3968423e-03,3.0645437e-02,7.2659728e-03,1.8505402e-03,2.5882124e-03,3.4671151e-04,-1.6793363e-01,-3.0066725e-02,8.0443419e-02
3.7997150e-01,2.3168191e-04,-3.4804832e-05,-6.7742802e-05,1.7797865e-02,6.8131331e-02,1.7805894e-02,-4.4830887e-04,4.6665288e-04,2.6049293e-04,-2.2988512e-01,-2.1215616e-01,-8.6218661e-03
3.8997149e-01,-1.3099467e-04,3.8812809e-04,4.2809740e-05,-3.6294747e-02,4.2444351e-02,-3.6063631e-02,-8.1220080e-05,-4.2585686e-03,-6.5147272e-04,3.6708914e-02,-4.7252260e-01,-9.1196651e-02
3.9997149e-01,-3.1159675e-04,-7.7627185e-04,2.4493711e-05,-1.8437885e-02,-1.1639091e-01,-1.7995596e-02,3.0713603e-03,3.7883179e-04,-1.1144830e-03,3.1525834e-01,4.6374048e-01,-4.6301074e-02
4.0997148e-01,1.8897678e-04,-4.8608194e-05,-7.4693596e-05,5.0025953e-02,7.2819277e-02,5.0011974e-02,-2.8752801e-04,7.6843052e-04,2.1019103e-04,-3.3588915e-01,3.8959910e-02,1.3246753e-01
4.1997147e-01,2.0920256e-04,-4.9245827e-06,-5.8541872e-05,2.0204544e-03,4.3700271e-03,2.0211152e-03,-3.6758154e-04,4.5428795e-04,2.5719376e-04,-8.0053598e-03,-3.1414287e-02,4.7002773e-03
4.2997146e-01,-2.7517183e-04,2.8026768e-04,8.3220337e-05,-4.8473932e-02,2.8671924e-02,-4.8310729e-02,-5.1353726e-05,-3.2086102e-03,-7.2246476e-04,3.1622811e-02,-3.6629016e-01,-9.7965945e-02
4.3997145e-01,-2.5254065e-04,3.3433754e-04,4.7498363e-05,2.2643581e-03,5.3988112e-03,2.2813370e-03,-4.9034868e-05,-3.6499782e-03,-6.6437925e-04,2.3188607e-04,-4.4136842e-02,5.8085569e-03
4.4997144e-01,-2.6836921e-04,3.8362069e-04,8.3464910e-05,-1.5845349e-03,4.9347666e-03,-1.5609391e-03,-1.1616244e-04,-4.2201052e-03,-6.9863862e-04,-6.7127641e-03,-5.7012751e-02,-3.4259405e-03
4.5997167e-01,1.9875497e-04,-3.6586391e-05,-5.4889826e-05,4.6714052e-02,-4.1958862e-02,4.6763346e-02,-4.7905478e-04,8.2364128e-04,3.7288442e-04,-3.6288403e-02,5.0436310e-01,1.0714985e-01
4.6997166e-01,1.2499418e-04,-6.9018680e-05,-5.5154130e-05,-7.3717328e-03,-3.2541297e-03,-7.3756379e-03,-4.1336101e-04,1.0639390e-03,4.0824051e-04,6.5693829e-03,2.4029798e-02,3.5356125e-03
4.7997165e-01,8.9471695e-05,-1.0927117e-03,-1.6873982e-04,-3.8568167e-03,-1.0237070e-01,-3.1772627e-03,2.9736815e-03,3.6615050e-03,-4.6890240e-05,3.3870457e-01,2.5975685e-01,-4.5513118e-02
4.8997164e-01,1.7170080e-04,-5.6044182e-05,-4.9309956e-05,8.1651332e-03,1.0368045e-01,8.1082608e-03,-5.2458982e-04,1.1384962e-03,4.1353189e-04,-3.4982747e-01,-2.5230112e-01,4.6042257e-02
4.9997163e-01,1.7204090e-04,-3.7652416e-05,-7.7756896e-05,3.3250271e-05,1.8392119e-03,3.2935134e-05,-4.0756827e-04,5.8998617e-04,3.0286003e-04,1.1702166e-02,-5.4851053e-02,-1.1067197e-02
5.0997162e-01,1.4837451e-04,-7.1103447e-05,-7.2278462e-05,-2.3645268e-03,-3.3481695e-03,-2.3644218e-03,-3.9244592e-04,9.0223098e-04,3.3852971e-04,1.5122365e-03,3.1224511e-02,3.5669708e-03
5.1997161e-01,1.6295583e-04,-4.2579920e-05,-5.9399882e-05,1.4563079e-03,2.8543019e-03,1.4561469e-03,-4.3448085e-04,9.0096548e-04,4.0155986e-04,-4.2034972e-03,-1.2655003e-04,6.3030215e-03
5.2997160e-01,8.2565331e-05,1.3638387e-05,-2.0470518e-05,-8.0389704e-03,5.6215846e-03,-8.0393198e-03,3.6523423e-05,6.7801447e-05,-1.4742844e-05,4.7100473e-02,-8.3316483e-02,-4.1630310e-02
5.3997159e-01,-1.9536960e-04,3.9399157e-04,6.5602201e-05,-2.7819322e-02,3.8150345e-02,-2.7609496e-02,-1.3301182e-04,-4.2860996e-03,-7.4658984e-04,-1.6953540e-02,-4.3539052e-01,-7.3184770e-02
5.4997158e-01,-2.4589866e-04,2.9521712e-04,5.6888699e-05,-5.0569253e-03,-9.8592773e-03,-5.0842958e-03,-4.8191327e-07,-3.5881524e-03,-7.9593083e-04,1.3253003e-02,6.9794788e-02,-4.9341039e-03
5.5997157e-01,8.2659384e-05,-2.8031932e-05,-2.8481134e-05,3.2853633e-02,-3.2320784e-02,3.2862121e-02,1.0522663e-04,2.3156671e-04,-3.6510825e-05,1.0570865e-02,3.8197227e-01,7.5942073e-02
5.6997156e-01,1.0886003e-04,5.1046231e-05,-1.2336246e-05,2.6205792e-03,7.9062122e-03,2.6244156e-03,4.8999591e-05,-5.6569974e-04,-4.7522557e-05,-5.6227094e-03,-7.9726721e-02,-1.1011742e-03
5.7997155e-01,-2.2513877e-04,2.9422765e-04,5.8558224e-05,-3.3428660e-02,2.4427469e-02,-3.3291212e-02,-6.5001916e-05,-3.3443822e-03,-8.1373695e-04,-1.1400162e-02,-2.7786851e-01,-7.6621512e-02
5.8997154e-01,-3.5592519e-04,-7.7322468e-04,4.5418130e-06,-1.3414722e-02,-1.0671367e-01,-1.2996439e-02,3.0065950e-03,6.2448342e-04,-1.1618702e-03,3.0715998e-01,3.9688694e-01,-3.4813360e-02
5.9997153e-01,2.0272988e-04,-2.9235953e-05,-6.1146593e-05,5.5822511e-02,7.4462763e-02,5.5823548e-02,-4.0384488e-04,7.3883010e-04,2.3265181e-04,-3.4104431e-01,1.1434679e-02,1.3945234e-01
6.0997152e-01,2.0333249e-04,-1.0123858e-04,-6.1014099e-05,6.3639321e-05,-7.2001673e-03,6.8469492e-05,-4.7194717e-04,1.1370300e-03,3.3458716e-04,-6.8102361e-03,3.9820029e-02,1.0193544e-02
6.1997151e-01,1.4312711e-04,-1.3047067e-04,-7.4925720e-05,-6.0170480e-03,-2.9345163e-03,-6.0185373e-03,-4.0200068e-04,1.4757236e-03,3.8518416e-04,6.9946565e-03,3.3869396e-02,5.0597054e-03
6.2997150e-01,-3.5899605e-04,2.6682440e-04,1.0245027e-04,-5.0245991e-02,3.9884851e-02,-5.0055358e-02,-1.0557140e-04,-3.2045184e-03,-5.8632572e-04,2.9642956e-02,-4.6802465e-01,-9.7151081e-02
6.3997149e-01,3.9035739e-05,4.7021888e-07,-6.7937027e-06,3.9799779e-02,-2.6625498e-02,3.9813308e-02,-7.8534964e-05,1.7130035e-04,1.3891077e-04,2.7036461e-03,3.3758220e-01,7.2523718e-02
6.4997149e-01,1.6774515e-04,-9.8615647e-05,-4.5108133e-05,1.2870554e-02,-9.8811897e-03,1.2892404e-02,-5.6815469e-04,1.5593764e-03,4.6813425e-04,-4.8962020e-02,1.3880773e-01,3.2922379e-02
6.5997148e-01,1.2623103e-04,-9.2597277e-05,-5.0187389e-05,-4.1503364e-03,5.9529038e-04,-4.1534394e-03,-4.0933291e-04,1.1672809e-03,3.1931596e-04,1.5882193e-02,-3.9209587e-02,-1.4881843e-02
6.6997147e-01,1.3807920e-04,-1.1435789e-04,-6.1922669e-05,1.1852907e-03,-2.1739304e-03,1.1882554e-03,-3.7599178e-04,1.4216786e-03,2.9149078e-04,3.3341165e-03,2.5439797e-02,-2.7825203e-03
6.7997146e-01,6.4703546e-05,5.4827519e-05,-2.7647784e-05,-7.3367550e-03,1.6924720e-02,-7.3241643e-03,6.3449742e-05,-7.7717969e-04,-3.4953047e-05,4.3944194e-02,-2.1988604e-01,-3.2644414e-02
6.8997145e-01,-2.8973240e-04,3.2299830e-04,9.0716547e-05,-3.5473229e-02,2.6940232e-02,-3.5320427e-02,-1.6316085e-04,-3.6447216e-03,-7.1196007e-04,-2.2661081e-02,-2.8675446e-01,-6.7700767e-02
6.9997144e-01,-2.6856719e-04,3.1215766e-04,8.5120398e-05,2.1181624e-03,-1.0920812e-03,2.1107545e-03,-1.0758311e-04,-3.9015875e-03,-7.1967547e-04,5.5577793e-03,-2.5686621e-02,-7.7154064e-04
7.0997167e-01,2.5139564e-04,-1.2921581e-04,-6.8476731e-05,5.2003456e-02,-4.4050876e-02,5.2059164e-02,-3.9644856e-04,1.2462396e-03,1.7559704e-04,-2.8885884e-02,5.1477093e-01,8.9525202e-02
7.1997166e-01,-1.8384476e-04,2.8845739e-04,6.8912840e-05,-4.3560537e-02,4.1920061e-02,-4.3340418e-02,-3.9922762e-05,-3.5572566e-03,-7.9960145e-04,3.5652614e-02,-4.8035008e-01,-9.7519942e-02
7.2997165e-01,-2.7098792e-04,2.8316966e-04,9.0419263e-05,-8.7206135e-03,-5.0166309e-04,-8.7096355e-03,-8.6733503e-05,-3.1998350e-03,-7.2717688e-04,-4.6810786e-03,3.5742190e-02,7.2424641e-03
7.3997164e-01,-2.6727154e-04,3.3987445e-04,8.8519747e-05,3.7158148e-04,5.6690549e-03,3.9289816e-04,-5.8081155e-05,-3.7978874e-03,-7.3475124e-04,2.8652375e-03,-5.9805290e-02,-7.5743664e-04
7.4997163e-01,-2.2846206e-04,2.9702324e-04,6.3780605e-05,3.8838721e-03,-4.2999042e-03,3.8616360e-03,4.8307594e-05,-3.7708316e-03,-8.0606359e-04,1.0638885e-02,2.7055767e-03,-7.1312422e-03
7.5997162e-01,8.7268083e-05,-2.8714746e-05,-1.7494589e-05,3.1570121e-02,-3.2568156e-02,3.1581820e-02,2.2864422e-05,2.0254293e-04,6.8988129e-05,-2.5443196e-03,3.9733783e-01,8.7505255e-02
7.6997161e-01,1.2090057e-04,-5.3003485e-05,-4.4633977e-05,3.3634917e-03,-2.4245038e-03,3.3661651e-03,-4.9261618e-04,8.0688364e-04,2.8421629e-04,-5.1548109e-02,6.0434129e-02,2.1522836e-02
7.7997160e-01,1.5245887e-04,-8.4109345e-05,-4.1161113e-05,3.1560948e-03,-3.1050334e-03,3.1610389e-03,-5.0972796e-04,1.2492586e-03,4.1940620e-04,-1.7111798e-03,4.4237537e-02,1.3519005e-02
7.8997159e-01,8.1509965e-05,-5.2121632e-05,-2.7984715e-05,-7.0945539e-03,3.1978071e-03,-7.0956771e-03,1.1551360e-04,2.5182946e-04,-3.6521596e-06,6.2524216e-02,-9.9743008e-02,-4.2305877e-02
7.9997158e-01,-3.2767000e-04,2.5954119e-04,8.7679879e-05,-4.0949841e-02,3.1289740e-02,-4.0791824e-02,-1.0781752e-04,-3.1302080e-03,-6.9542409e-04,-2.2333133e-02,-3.3820407e-01,-6.9177259e-02
8.0997157e-01,1.0819765e-04,-4.9791158e-05,-4.8556920e-05,4.3585813e-02,-3.0866856e-02,4.3634853e-02,-5.2532335e-04,9.9743471e-04,3.9538691e-04,-4.1750623e-02,4.1276466e-01,1.0908120e-01
8.1997156e-01,1.7135191e-04,-6.1020841e-05,-2.9613650e-05,6.3137738e-03,-1.1135536e-03,6.3187561e-03,-5.5507919e-04,9.3538998e-04,3.6102451e-04,-2.9755874e-03,-6.2044785e-03,-3.4362433e-03
8.2997155e-01,2.1234819e-04,-6.3183323e-05,-5.1780748e-05,4.0979975e-03,-2.1024009e-04,4.1015773e-03,-5.4903765e-04,9.1611454e-04,4.2729205e-04,6.0415421e-04,-1.9275459e-03,6.6267605e-03
8.3997154e-01,-3.8314637e-04,-8.0343727e-04,2.2334257e-05,-5.9844912e-02,-7.3884859e-02,-5.9427876e-02,3.0829746e-03,7.2888285e-04,-1.1335495e-03,3.6320157e-01,-1.8723187e-02,-1.5608430e-01
8.4997153e-01,-3.1799230e-04,2.8530067e-04,9.5809746e-05,6.5156112e-03,1.0884997e-01,6.9034336e-03,-3.4722721e-05,-3.6008744e-03,-6.1080966e-04,-3.1177003e-01,-4.3297614e-01,5.2274031e-02
8.5997152e-01,2.2027077e-04,-3.4916321e-05,-3.3017447e-05,5.3823548e-02,-3.1983329e-02,5.3851993e-02,-3.5394164e-04,3.5930319e-04,2.6267059e-04,-3.1921923e-02,3.9601814e-01,8.7348108e-02
8.6997151e-01,2.0316163e-04,-1.0837475e-04,-5.7243577e-05,-1.7081669e-03,-7.3484523e-03,-1.7024660e-03,-3.4434734e-04,1.1795529e-03,1.2755642e-04,9.5943179e-04,8.2025054e-02,-1.3511430e-02
8.7997150e-01,-2.1516795e-04,2.9195210e-04,5.0250268e-05,-4.1862691e-02,4.0182612e-02,-4.1659227e-02,-1.3069415e-05,-3.6048399e-03,-6.9753231e-04,3.3127824e-02,-4.7843974e-01,-8.2508952e-02
8.8997149e-01,-1.3207194e-04,3.0135390e-04,3.3006604e-05,8.3158473e-03,9.0937724e-04,8.3067946e-03,7.2587954e-05,-3.6363669e-03,-7.4288223e-04,8.5657450e-03,-3.1527102e-03,-4.5349962e-03
8.9997149e-01,9.9018281e-05,2.5015661e-06,-1.7269871e-07,2.3107883e-02,-2.9889056e-02,2.3105299e-02,1.0511310e-04,-5.9081851e-05,-8.5679596e-05,3.2525178e-03,3.5772885e-01,6.5720326e-02
9.0997148e-01,7.8457427e-05,2.0044239e-05,-8.5704932e-06,-2.0560627e-03,1.7549232e-03,-2.0555535e-03,1.0201166e-04,-2.1622874e-04,-7.5081032e-05,-3.1014383e-04,-1.5714704e-02,1.0598574e-03
9.1997147e-01,-2.4897454e-04,3.1138365e-04,9.3297603e-05,-3.2772458e-02,2.9245298e-02,-3.2614485e-02,-1.3152713e-04,-3.5399301e-03,-7.7600122e-04,-2.3353902e-02,-3.3237045e-01,-7.0092086e-02
9.2997146e-01,-2.9362101e-04,2.9719491e-04,8.0469666e-05,-4.4674244e-03,-1.4032378e-03,-4.4668197e-03,-1.3474837e-04,-3.6376250e-03,-6.6410948e-04,-3.2212445e-04,-9.7694979e-03,1.1189185e-02
9.3994093e-01,1.3301637e-04,-8.8545341e-05,-3.1701460e-05,4.2794982e-02,-3.8625716e-02,4.2853737e-02,-4.9742061e-04,1.0536840e-03,4.3538772e-04,-3.6378276e-02,4.7056740e-01,1.1028639e-01
9.4994092e-01,1.2613249e-04,-6.4766527e-05,-4.0485575e-05,-6.8923772e-04,2.3768058e-03,-6.9125611e-04,-4.9900822e-04,1.0639551e-03,4.9035109e-04,-1.5876134e-04,1.0271118e-03,5.4963422e-03
9.5994115e-01,9.0810780e-05,-6.7566065e-05,-2.0235059e-05,-3.5315084e-03,-2.8227437e-04,-3.5324870e-03,-1.0277546e-04,5.5595595e-04,1.5659667e-04,3.9622369e-02,-5.0798753e-02,-3.3374678e-02
9.6994114e-01,-1.7392920e-04,3.2699804e-04,5.9741765e-05,-2.6497224e-02,3.9553536e-02,-2.6305399e-02,-1.6187718e-04,-3.8426494e-03,-6.3530856e-04,-5.9101771e-03,-4.3986095e-01,-7.9190599e-02
9.7994113e-01,1.4547839e-04,-8.1211410e-05,-5.6437321e-05,3.1947593e-02,-4.0774682e-02,3.1993084e-02,-4.4998375e-04,9.9850109e-04,3.6192845e-04,-2.8810685e-02,4.8411551e-01,9.9723796e-02
9.8994112e-01,-1.7179862e-04,-7.1024313e-04,2.0064619e-04,-3.1669299e-02,-6.3151755e-02,-3.1289388e-02,-8.7318699e-04,7.0085601e-03,1.1011664e-04,-4.2320364e-02,6.0100647e-01,-2.5181206e-02
9.9994111e-01,1.8559561e-04,-1.0114105e-04,-6.5537836e-05,3.5703741e-02,6.0961640e-02,3.5687525e-02,-4.6916740e-04,9.6908383e-04,1.9962377e-04,4.0401998e-02,-6.0394820e-01,8.9507215e-03
1.0099411e+00,-1.9539314e-04,2.1368603e-04,2.5804540e-05,-3.8130972e-02,3.1594294e-02,-3.7974285e-02,-5.0357807e-05,-2.9845077e-03,-8.0023071e-04,4.1880999e-02,-3.9535953e-01,-9.9985543e-02
1.0199411e+00,-2.5005480e-04,2.9524162e-04,7.3474222e-05,-5.4708865e-03,8.1743567e-03,-5.4332877e-03,-1.0793996e-04,-3.5574424e-03,-7.0182644e-04,-5.7582207e-03,-5.7293526e-02,9.8404368e-03
1.0299411e+00,1.9861654e-04,-4.3727963e-05,-9.1534141e-06,4.4872091e-02,-3.3832814e-02,4.4910681e-02,-5.6854217e-04,8.6116188e-04,3.1979619e-04,-4.6060265e-02,4.4186085e-01,1.0216236e-01
1.0399411e+00,1.9629474e-04,-5.3753547e-05,-2.4197675e-05,-2.3170992e-04,-1.0027965e-03,-2.3162682e-04,-4.3072570e-04,5.9182331e-04,1.6919733e-04,1.3781661e-02,-2.6933882e-02,-1.5059900e-02
1.0499411e+00,-2.9136694e-04,-8.0283954e-04,1.6713292e-05,-4.9053397e-02,-7.4776357e-02,-4.8681175e-02,3.0614026e-03,3.5589941e-04,-1.1918358e-03,3.4921316e-01,-2.3592413e-02,-1.3610344e-01
1.0599411e+00,-2.4109375e-04,-8.3212305e-04,-2.6227822e-05,5.0242747e-03,-2.9401180e-03,5.0235036e-03,3.0652267e-03,7.2312151e-04,-1.1844113e-03,3.8241579e-04,3.6722245e-02,7.4244930e-04
1.0699410e+00,9.5461165e-05,4.6831819e-05,-2.3010955e-07,3.3651927e-02,8.7885332e-02,3.3685844e-02,-5.8348996e-05,-3.6240134e-04,-4.5523319e-05,-3.1235787e-01,-1.0855239e-01,1.1388891e-01
1.0799410e+00,1.8733370e-04,-2.0864731e-05,-1.4662926e-05,9.1878435e-03,-6.7562381e-03,9.1965581e-03,-6.4244064e-04,8.1790174e-04,4.0986402e-04,-5.8409220e-02,1.1803042e-01,4.5538777e-02
1.0899410e+00,-3.5848075e-04,2.3191590e-04,1.0578172e-04,-5.4623378e-02,2.5434263e-02,-5.4466929e-02,-5.7430477e-05,-2.9229063e-03,-7.4097518e-04,5.8501072e-02,-3.7408116e-01,-1.1508403e-01
1.0999410e+00,-3.8772613e-04,-8.5948934e-04,-1.7163681e-05,-3.2645652e-03,-1.0913350e-01,-2.8293234e-03,3.0835785e-03,8.3672202e-04,-1.1962275e-03,3.1410119e-01,3.7596319e-01,-4.5525274e-02
1.1099410e+00,-2.9252483e-04,3.3482549e-04,1.0877676e-04,9.5098473e-03,1.1939243e-01,1.0009111e-02,-1.3398923e-04,-4.1425929e-03,-6.0014339e-04,-3.2175708e-01,-4.9793197e-01,5.9608465e-02
1.1199410e+00,1.6832806e-04,-1.4764189e-05,1.4802445e-06,4.6079503e-02,-3.4897237e-02,4.6137945e-02,-7.4341374e-04,5.9604545e-04,6.8993512e-04,-6.0942510e-02,4.7386429e-01,1.2900797e-01
1.1299410e+00,1.3783061e-04,-8.6759811e-05,-4.8014324e-05,-3.0446700e-03,-7.2045103e-03,-3.0431473e-03,-5.3432519e-04,1.0871739e-03,4.0368188e-04,2.0908875e-02,4.9112890e-02,-2.8625351e-02
1.1399410e+00,-1.6970895e-04,-8.8030368e-04,4.3917654e-06,-3.0942229e-02,-7.9390450e-02,-3.0470984e-02,2.2570412e-03,3.4501712e-03,-2.9970748e-04,2.7913691e-01,2.3629996e-01,-7.0339003e-02
1.1499410e+00,-3.1942792e-04,2.6273515e-04,7.4774031e-05,-1.4994016e-02,1.1435250e-01,-1.4574055e-02,-9.5375406e-05,-3.3818252e-03,-7.4857811e-04,-2.3524189e-01,-6.8320029e-01,-4.4887106e-02
1.1599410e+00,-3.4404967e-04,4.6079623e-04,1.5095277e-04,-2.4675823e-03,1.9816290e-02,-2.3733870e-03,-2.0636560e-04,-4.4151741e-03,-5.3547882e-04,-1.1099030e-02,-1.0333499e-01,2.1309949e-02
1.1699409e+00,1.8288345e-04,-1.0401308e-04,-7.0695965e-05,5.2706867e-02,-5.6393999e-02,5.2772963e-02,-4.7063547e-04,1.1790128e-03,2.4804110e-04,-2.6427013e-02,5.5941922e-01,7.8352067e-02
1.1799409e+00,1.1342846e-04,-3.6852968e-05,-7.0859690e-05,-6.9459452e-03,6.7197383e-03,-6.9414669e-03,2.2607426e-04,-3.0973935e-04,-2.8192101e-04,6.9671040e-02,-1.4887536e-01,-5.2996261e-02
1.1899409e+00,-4.2653511e-04,-5.6296271e-04,1.3338834e-04,-5.4143623e-02,-5.2514921e-02,-5.3942519e-02,1.9859364e-03,2.0824274e-04,-7.9367084e-04,1.7598638e-01,5.1798258e-02,-5.1175033e-02
1.1999409e+00,-2.5463281e-04,3.8914150e-04,9.7540945e-05,1.7191423e-02,9.5139087e-02,1.7580098e-02,-1.0422956e-04,-4.2127580e-03,-6.4594422e-04,-2.0901679e-01,-4.4210050e-01,1.4772677e-02
1.2099411e+00,-1.6052581e-04,4.1189069e-04,8.1237465e-05,9.4167453e-03,2.2340924e-03,9.4139902e-03,-8.4482386e-05,-4.4180616e-03,-6.8591917e-04,1.9746720e-03,-2.0529893e-02,-3.9974038e-03
1.2199411e+00,-1.4673563e-04,-7.3899368e-04,-1.5712021e-05,1.0200125e-03,-1.1509293e-01,1.3247823e-03,3.1330839e-03,-4.6108752e-04,-1.1472617e-03,3.2175694e-01,3.9569779e-01,-4.6134295e-02
1.2299411e+00,-3.0526940e-04,-7.5855483e-04,1.1768546e-06,-1.5878373e-02,-1.9073908e-03,-1.5834318e-02,2.9949568e-03,-7.8160155e-05,-1.2114096e-03,-1.3812720e-02,3.8292773e-02,-6.4147975e-03
1.2399411e+00,1.6266400e-04,-3.6995518e-05,-4.3895331e-05,4.6750595e-02,7.2209150e-02,4.6754152e-02,-4.5966255e-04,6.7654784e-04,2.0552690e-04,-3.4546227e-01,7.5470871e-02,1.4169378e-01
1.2499411e+00,1.8212296e-04,-5.5457186e-05,-7.9052243e-05,1.9463743e-03,-1.8434105e-03,1.9480345e-03,-5.4040722e-04,8.7623480e-04,2.6756644e-04,-8.0744750e-03,1.9968715e-02,6.2039593e-03
1.2599411e+00,-2.6456077e-04,2.7952888e-04,5.0181183e-05,-4.4700811e-02,3.3648966e-02,-4.4522783e-02,-5.1978540e-05,-3.4241362e-03,-6.8648241e-04,4.8842915e-02,-4.3003751e-01,-9.5404976e-02
1.2699411e+00,-3.0292944e-04,2.5628056e-04,4.6529993e-05,-3.8389476e-03,-2.3131203e-03,-3.8418699e-03,-8.3557620e-05,-3.1354348e-03,-5.9209705e-04,-3.1579110e-03,2.8870167e-02,9.4385454e-03
1.2799411e+00,1.4763062e-04,-8.8945197e-05,-4.9257495e-05,4.5056041e-02,-3.4455249e-02,4.5107590e-02,-4.7600166e-04,1.0181549e-03,3.6472011e-04,-3.9244441e-02,4.1535937e-01,9.5681807e-02
1.2899411e+00,1.9191774e-04,4.1103780e-04,3.9805889e-05,4.4658172e-03,4.9974886e-02,4.6507034e-03,8.5913941e-04,-4.3230237e-03,1.3206974e-03,1.3351423e-01,-5.3411838e-01,9.5597822e-02
1.2999411e+00,-3.1799135e-04,3.6760848e-04,9.2972638e-05,-5.1020244e-02,-4.1310588e-03,-5.0979268e-02,-1.1503511e-04,-4.2719490e-03,-5.8431894e-04,-9.7417545e-02,5.1074760e-03,-1.9050182e-01
1.3099411e+00,-1.8056335e-04,3.1357112e-04,-1.9393718e-05,1.3752018e-02,-5.4544117e-03,1.3713558e-02,1.4581104e-05,-3.6775889e-03,-6.7571270e-04,1.2961633e-02,5.9436067e-02,-9.1393850e-03
1.3199410e+00,-1.6590872e-04,2.5826273e-04,5.9893586e-07,1.4672612e-03,-5.5354247e-03,1.4462445e-03,-1.2875146e-04,-3.2772302e-03,-7.4073446e-04,-1.4333270e-02,4.0035916e-02,-6.5021817e-03
1.3299410e+00,-7.3591225e-05,-6.6266444e-04,1.3901000e-04,9.2974862e-03,-9.2030331e-02,9.7729383e-03,-7.1877568e-04,5.8735714e-03,5.0277485e-05,-5.9002478e-02,9.1508102e-01,7.9101270e-02
1.3399410e+00,1.4221788e-04,-4.9499862e-05,-5.2494332e-05,2.1542310e-02,6.1349673e-02,2.1525214e-02,-5.1999650e-04,1.0179281e-03,3.1197513e-04,1.9877938e-02,-4.8556478e-01,2.6169789e-02
1.3499410e+00,-2.2099979e-04,3.0362633e-04,5.5110349e-05,-3.6349309e-02,3.5448560e-02,-3.6161546e-02,1.8774803e-06,-3.7495423e-03,-7.5943633e-04,5.2187447e-02,-4.7674750e-01,-1.0714125e-01
1.3599410e+00,-8.4735301e-05,1.4694556e-04,-4.3553096e-04,1.3651536e-02,-1.5723479e-02,1.3537276e-02,6.4112842e-04,-3.4394515e-03,-2.5807925e-03,6.3925155e-02,3.1009114e-02,-1.8213579e-01
1.3699410e+00,-2.0301844e-04,3.1950873e-04,4.8529779e-05,-1.1836196e-02,1.7301670e-02,-1.1753990e-02,3.3435175e-05,-3.8127581e-03,-7.1446546e-04,-6.0769383e-02,-3.7330692e-02,1.8663288e-01
1.3799410e+00,1.6723266e-04,-6.7121000e-05,-3.7197890e-05,3.7032504e-02,-3.8607013e-02,3.7076181e-02,-4.1161722e-04,1.0998127e-03,2.3094508e-04,-4.4505282e-02,4.9125755e-01,9.4541144e-02
1.3899410e+00,8.7966937e-05,-1.0866546e-05,-2.4390361e-05,-7.9273014e-03,5.6248357e-03,-7.9262945e-03,4.0775640e-05,1.1837844e-04,-1.1999043e-04,4.5239329e-02,-9.8143521e-02,-3.5093584e-02
1.3999410e+00,-1.4930651e-04,2.5496397e-04,-1.4146697e-05,-2.3747485e-02,2.6662007e-02,-2.3618430e-02,-3.0795966e-05,-3.3664518e-03,-8.1368379e-04,-7.1571674e-03,-3.4848336e-01,-6.9369402e-02
1.4099410e+00,-2.3190046e-04,2.2564219e-04,1.9479412e-05,-8.2650553e-03,-2.9112846e-03,-8.2611383e-03,-1.4691376e-04,-2.6775272e-03,-7.3690989e-04,-1.1611790e-02,6.8892524e-02,7.6773975e-03
1.4199409e+00,-1.2641852e-05,2.9396016e-05,1.5272160e-05,2.1927012e-02,-1.9616445e-02,2.1932080e-02,-1.7728220e-04,1.9626129e-04,1.0708609e-04,-3.0368475e-03,2.8737913e-01,8.4399678e-02
1.4299409e+00,1.3974660e-04,-6.6952120e-05,-2.6717066e-05,1.5235925e-02,-9.6120056e-03,1.5256194e-02,-4.8091490e-04,1.0154892e-03,4.9641961e-04,-3.0363299e-02,8.1922868e-02,3.8933389e-02
1.4399409e+00,7.9298956e-05,-8.0164887e-04,-4.9013642e-05,-6.1662066e-03,-7.3477760e-02,-5.8205294e-03,1.6878576e-03,3.0877737e-03,4.2372393e-04,2.1687746e-01,2.0722865e-01,-7.2695751e-03
1.4498625e+00,-3.6752695e-04,-8.2947941e-04,2.0915729e-05,-4.5091371e-02,-2.7008377e-03,-4.4986725e-02,3.1083626e-03,7.9530818e-04,-1.0436334e-03,1.4317368e-01,-2.3105919e-01,-1.4789597e-01
1.4598627e+00,-2.7064758e-04,3.6089960e-04,9.0128976e-05,9.6619634e-03,1.1900024e-01,1.0132458e-02,-2.6008886e-04,-3.7803945e-03,-5.3783879e-04,-3.3683743e-01,-4.5755979e-01,5.0578307e-02
1.4698627e+00,1.8161958e-04,1.0993193e-05,-5.0813861e-05,4.5229565e-02,-3.4949350e-02,4.5255896e-02,-6.1166819e-04,3.0174048e-04,4.1091876e-04,-3.5157966e-02,4.0821388e-01,9.4875846e-02
1.4798627e+00,1.5305543e-04,-4.5779101e-05,-6.3376272e-05,-2.8537542e-03,-5.6804125e-03,-2.8527596e-03,-3.9530765e-04,7.1776345e-04,1.4663874e-04,2.1636074e-02,4.1602336e-02,-2.6428027e-02
1.4898627e+00,4.3876833e-05,-1.0393596e-03,-1.1509534e-04,-1.1274816e-02,-9.9348074e-02,-1.0643239e-02,3.5327884e-03,2.7023228e-03,-5.5000375e-04,3.9280998e-01,1.9845613e-01,-6.9664315e-02
1.4998627e+00,-1.9459760e-04,3.3502820e-04,6.6195931e-05,-2.3877925e-02,1.3752767e-01,-2.3298969e-02,-1.0253500e-04,-3.8703854e-03,-6.8654175e-04,-3.6353269e-01,-6.5727145e-01,-1.3653813e-02
1.5098627e+00,-1.7040908e-04,3.7985311e-04,8.6139244e-05,2.4196776e-03,4.4732952e-03,2.4350091e-03,-1.6060676e-04,-3.9520037e-03,-6.3797742e-04,-5.8071820e-03,-8.1618393e-03,4.8564377e-03
1.5198627e+00,-1.7906099e-04,3.6089857e-04,6.0373677e-05,-8.6568062e-04,-1.8920573e-03,-8.7211474e-04,-6.1483468e-05,-3.9746272e-03,-6.9902904e-04,9.9123391e-03,-2.2623448e-03,-6.1051674e-03
1.5298626e+00,-8.1786136e-05,-7.7073519e-04,3.7757699e-05,9.4711218e-03,-1.1315651e-01,1.0056076e-02,2.2888193e-03,2.9263139e-03,-2.7378067e-04,2.3503050e-01,6.9009476e-01,4.2524877e-02
1.5398626e+00,1.2702118e-04,-1.6127248e-05,-5.1304100e-05,2.0903220e-02,7.5450073e-02,2.0897267e-02,2.4270823e-04,-2.7399279e-04,-1.9897188e-04,-2.0461130e-01,-3.2003097e-01,7.4808863e-03
1.5498626e+00,-2.1266929e-04,3.4199020e-04,7.2007775e-05,-3.4002183e-02,3.5926588e-02,-3.3814377e-02,-1.7732181e-04,-3.5666738e-03,-7.8789928e-04,-4.2003045e-02,-3.2926841e-01,-5.8892797e-02
1.5598626e+00,-2.3604759e-04,3.2323965e-04,7.1610469e-05,-2.3390588e-03,-1.8679366e-03,-2.3423009e-03,-1.8942445e-04,-3.2330695e-03,-6.7686146e-04,-1.2102645e-03,3.3360456e-02,1.1103793e-02
1.5698626e+00,-2.3604042e-04,2.8121062e-04,5.1473580e-05,1.1647966e-06,-4.2028872e-03,-1.2910008e-05,-1.0630028e-04,-3.2421803e-03,-7.8237857e-04,8.3124251e-03,-9.1107854e-04,-1.0551721e-02
1.5798626e+00,1.9770676e-04,-1.0774536e-04,-7.8771834e-05,4.3382307e-02,-3.8819470e-02,4.3435402e-02,-4.9660130e-04,1.2582291e-03,2.7115611e-04,-3.9030140e-02,4.5004137e-01,1.0535357e-01
1.5898626e+00,1.4651697e-04,-9.2350253e-05,-4.9985971e-05,-5.1175651e-03,1.5318945e-03,-5.1226871e-03,-4.8343205e-04,1.0040919e-03,4.2240952e-04,1.3169265e-03,-2.5413743e-02,1.5125355e-02
1.5998626e+00,1.0900332e-04,-6.0781342e-05,-1.9571663e-05,-3.7512799e-03,3.1505730e-03,-3.7567664e-03,-4.8095612e-04,1.2028534e-03,4.2802133e-04,2.4759371e-04,1.9876176e-02,5.6118144e-04
1.6098626e+00,-3.0533131e-04,3.1382063e-04,9.0199328e-05,-4.1462775e-02,3.7603165e-02,-4.1274444e-02,-1.0704865e-04,-3.5646348e-03,-6.0988970e-04,3.7390782e-02,-4.7674928e-01,-1.0379120e-01
1.6198626e+00,-3.8848358e-04,-8.6637683e-04,2.1155072e-05,-8.6831862e-03,-1.1800376e-01,-8.1662777e-03,3.0381081e-03,1.1788760e-03,-1.1351180e-03,3.1451597e-01,4.7435153e-01,-5.2522885e-02
1.6298625e+00,1.4231912e-04,-8.1156148e-05,-5.6762326e-05,5.3017304e-02,7.8619064e-02,5.2999774e-02,-5.5258338e-04,1.2743061e-03,3.6952892e-04,-3.5906949e-01,9.5430194e-03,1.5046484e-01
1.6398625e+00,1.7810963e-04,-9.7729107e-06,-3.8076472e-05,3.5731328e-03,7.1431778e-03,3.5752985e-03,-6.4015976e-04,7.1481805e-04,3.7750390e-04,-8.7576465e-03,-5.5948857e-02,7.9749860e-04
1.6498625e+00,-2.2948813e-04,3.0559925e-04,6.1647278e-05,-4.0797800e-02,3.1676060e-02,-4.0613910e-02,-1.5379164e-04,-3.5672849e-03,-8.1327782e-04,4.8636859e-02,-4.2821071e-01,-1.1907828e-01
1.6598625e+00,-1.6435550e-04,-7.1752856e-04,-6.4328820e-05,6.2123725e-03,-1.0233460e-01,6.4657622e-03,3.0169349e-03,-3.9150390e-04,-1.1988384e-03,3.1707295e-01,3.1757840e-01,-3.8556092e-02
1.6698625e+00,-2.2055156e-04,3.1360669e-04,7.4585993e-05,-5.6263917e-03,1.0313237e-01,-5.2570941e-03,-2.5089025e-05,-3.4746679e-03,-7.4652956e-04,-3.0420268e-01,-3.0831669e-01,4.5230924e-02
1.6798625e+00,2.0801925e-04,-4.5768631e-05,-2.1004650e-05,4.2864676e-02,-3.5883801e-02,4.2894602e-02,-4.9882147e-04,7.5520026e-04,2.4186710e-04,-4.7373290e-02,4.2298722e-01,9.8839760e-02
1.6898625e+00,1.1713917e-04,1.8537834e-05,-1.2926050e-05,-9.0880155e-03,6.4357800e-03,-9.0843861e-03,1.3194306e-04,-4.3235812e-04,-9.3327393e-05,6.3076513e-02,-1.1875595e-01,-3.3519481e-02
1.6998625e+00,-1.7946994e-04,-7.3579461e-04,-5.4922545e-05,-2.9928965e-02,-7.5332218e-02,-2.9648642e-02,3.0843611e-03,-3.1227356e-04,-1.1976591e-03,2.9524208e-01,1.2008467e-02,-1.1043327e-01
1.7098627e+00,-1.9586781e-04,3.2773008e-04,3.7283008e-05,-1.6576107e-03,1.0635522e-01,-1.2358753e-03,-1.5641658e-04,-3.7858324e-03,-7.4854721e-04,-3.2407035e-01,-3.4734793e-01,4.4910160e-02
1.7198627e+00,2.0665267e-04,-1.5844220e-05,-4.5646834e-05,4.0264174e-02,-3.4317864e-02,4.0273771e-02,-5.1523638e-04,4.6824125e-04,1.3934580e-04,-3.5882015e-02,4.2540777e-01,8.8789386e-02
1.7298627e+00,1.9863675e-04,-9.2659377e-05,-6.6357668e-05,-7.9718390e-04,-7.6827877e-03,-7.9383193e-04,-5.4959643e-04,1.0344066e-03,2.3319613e-04,-3.4360082e-03,5.6616585e-02,9.3850417e-03
1.7398627e+00,-3.0684065e-04,2.7712412e-04,8.0813556e-05,-5.0588545e-02,3.7137264e-02,-5.0390293e-02,-1.5364463e-04,-3.3030979e-03,-6.9414477e-04,3.9595219e-02,-4.3375086e-01,-9.2734178e-02
1.7498627e+00,-2.9004907e-04,3.1872559e-04,6.3849102e-05,1.6797312e-03,4.1540108e-03,1.6937279e-03,-1.1589501e-04,-3.7577142e-03,-6.2745583e-04,3.7749648e-03,-4.5461670e-02,6.6689003e-03
1.7598627e+00,1.6484163e-04,-7.0348896e-05,-4.0925098e-05,4.5491259e-02,-3.8842220e-02,4.5542711e-02,-5.3968356e-04,8.9422991e-04,4.1418703e-04,-4.2378895e-02,4.6519485e-01,1.0416438e-01
1.7698627e+00,1.1462188e-04,-6.9420085e-05,-1.8737825e-05,-5.0200544e-03,8.6864361e-05,-5.0240111e-03,-4.1699068e-04,7.8079161e-04,3.9083763e-04,1.2269300e-02,-1.1343840e-02,-2.3349419e-03
1.7798626e+00,1.3683701e-04,-9.7873577e-05,-6.8754301e-05,2.2223033e-03,-2.8416660e-03,2.2254409e-03,-5.2031964e-04,1.1374922e-03,3.1137121e-04,-1.0332905e-02,3.5670089e-02,-7.9466490e-03
1.7898626e+00,-2.1527536e-04,3.4536831e-04,4.5324758e-05,-3.5243957e-02,4.4455751e-02,-3.5012202e-02,-1.7634938e-04,-3.9240128e-03,-7.0656553e-04,3.4397058e-02,-5.0615098e-01,-1.0179377e-01
1.7998626e+00,-2.3456704e-04,3.0287086e-04,4.3129894e-05,-1.9294011e-03,-4.2436916e-03,-1.9422269e-03,-2.6993720e-04,-3.3992760e-03,-7.1505786e-04,-9.3587907e-03,5.2473739e-02,-8.4923401e-04
1.8098626e+00,-3.6980661e-05,-6.4796595e-04,1.5489780e-04,1.9847536e-02,-9.4933533e-02,2.0382158e-02,-9.4049092e-04,6.5575209e-03,2.7166916e-05,-6.7055436e-02,9.9568063e-01,7.4222548e-02
1.8198626e+00,1.2071262e-04,-4.5409906e-06,-4.7093829e-05,1.5741159e-02,6.4356798e-02,1.5739363e-02,-3.8463546e-04,5.1914522e-04,2.1776271e-04,5.5585599e-02,-6.0383814e-01,1.9059597e-02
1.8298626e+00,-2.2436008e-04,-7.2090823e-04,6.7671679e-06,-3.4767256e-02,-7.1512761e-02,-3.4503635e-02,3.0672202e-03,-5.1769602e-04,-1.1711652e-03,3.4518589e-01,-1.0368422e-01,-1.3889293e-01
1.8398626e+00,-9.7592862e-05,-7.3070992e-04,-3.5210088e-05,1.2687660e-02,-1.0261984e-03,1.2662154e-02,3.0962640e-03,-5.3568622e-04,-1.1066408e-03,2.9043843e-03,-1.7990216e-03,6.4524527e-03
1.8498626e+00,-2.1300169e-04,3.5553453e-04,7.8132182e-05,-1.1568177e-02,1.0866504e-01,-1.1124905e-02,-1.8439303e-04,-3.7619963e-03,-6.2874199e-04,-3.2806602e-01,-3.2263132e-01,4.7789922e-02
1.8598626e+00,1.6340486e-04,-2.7622902e-05,-9.1561343e-06,3.7651651e-02,-3.8256990e-02,3.7689497e-02,-5.8252976e-04,9.7839603e-04,3.0159659e-04,-3.9813711e-02,4.7403969e-01,9.3033947e-02
1.8698626e+00,2.1236948e-04,-1.0789238e-04,-8.8819968e-05,4.8990773e-03,-8.0209808e-03,4.9036398e-03,-3.2082516e-04,8.9862692e-04,-7.3925010e-06,2.6170485e-02,-7.9769183e-03,-3.0898938e-02
1.8798625e+00,-2.3085790e-04,-7.9745596e-04,-6.3886612e-05,-4.4588396e-02,-6.8834248e-02,-4.4246211e-02,3.0579488e-03,3.0918490e-04,-1.2407274e-03,3.3787772e-01,-5.8944258e-02,-1.2333361e-01
1.8898625e+00,-2.5768263e-04,3.6182507e-04,5.5468388e-05,-2.7077610e-03,1.1593657e-01,-2.2631350e-03,-2.0291411e-04,-3.6017793e-03,-6.5699650e-04,-3.2608660e-01,-3.9109679e-01,5.8373145e-02
1.8998625e+00,-3.2731600e-04,-8.2169481e-04,2.1283784e-04,-6.8611860e-03,-1.1843223e-01,-5.5612407e-03,-8.4038858e-04,1.1864860e-02,3.8676647e-04,-6.3747509e-02,1.5466654e+00,1.0437640e-01
1.9098625e+00,1.5905553e-04,-5.6809854e-05,-4.5473272e-05,4.8576671e-02,7.6562754e-02,4.8580934e-02,-5.9152180e-04,9.3443465e-04,3.1401498e-04,2.4886703e-02,-1.0930435e+00,-7.2751557e-03
1.9198625e+00,1.2587295e-04,-1.2016675e-03,-1.7808477e-04,-3.6740194e-03,-1.1448700e-01,-2.8748726e-03,3.1023146e-03,3.8671831e-03,-1.8200789e-04,3.6938399e-01,2.9327513e-01,-4.9602334e-02
1.9298625e+00,-4.8146678e-04,-8.6686314e-04,2.8844141e-05,-6.0695584e-02,3.3599691e-02,-6.0706617e-02,3.1034196e-03,1.1385623e-03,-1.0831720e-03,1.1050194e-04,-2.7286234e-01,-9.0116499e-02
1.9398625e+00,-3.4297229e-04,-8.0502796e-04,2.3679601e-04,1.3838518e-02,6.3556719e-03,1.3782309e-02,-7.1223081e-04,1.1743384e-02,4.7189135e-04,-3.8156541e-01,1.0604832e+00,1.5550649e-01
1.9498625e+00,2.0130016e-04,-4.7387077e-05,-3.9218060e-05,5.4358337e-02,7.5847490e-02,5.4380132e-02,-6.2958010e-04,9.0193566e-04,3.9034341e-04,8.2650791e-03,-1.0841459e+00,-8.1548024e-03
1.9598627e+00,3.6139635e-06,-1.0422474e-03,-1.0435953e-04,-2.0125598e-02,-9.9468799e-02,-1.9480681e-02,3.4837205e-03,2.7786104e-03,-5.5550134e-04,4.1132064e-01,1.8766318e-01,-9.4582310e-02
1.9698627e+00,-4.0939841e-04,-8.1833338e-04,-1.2825665e-07,-4.1286199e-02,2.2479559e-02,-4.1268463e-02,2.9676997e-03,8.3220177e-04,-1.2490298e-03,-5.1602127e-02,-1.9464105e-01,-6.9352916e-02
1.9798627e+00,1.7714368e-04,-8.9822253e-06,-4.6479541e-05,5.8591197e-02,8.1005957e-02,5.8619601e-02,-5.8226621e-04,6.2452750e-04,2.7159851e-04,-3.5499693e-01,-2.0767447e-02,1.5206298e-01
1.9898627e+00,-2.2547857e-04,3.9295277e-04,1.0163646e-04,-4.0298331e-02,4.0357466e-02,-4.0061697e-02,-1.9416321e-04,-4.2778393e-03,-7.0226030e-04,3.8810338e-02,-4.9023715e-01,-9.7385974e-02
1.9998627e+00,-1.5776487e-04,-7.6118125e-04,-2.4460244e-05,6.4140123e-03,-1.1543625e-01,6.7316065e-03,3.1625071e-03,-2.8161695e-04,-1.1326922e-03,3.3566735e-01,3.9962262e-01,-4.3043234e-02
2.0098627e+00,-2.3710633e-04,-7.8260571e-04,1.0898994e-05,-7.9496152e-03,-2.1167374e-03,-7.9255727e-03,3.1613974e-03,-7.7878308e-05,-1.1007138e-03,-1.1096392e-04,2.0373884e-02,3.1978412e-03
2.0198627e+00,8.2202528e-05,-6.6546256e-04,3.7193985e-05,3.1934750e-02,1.1739386e-02,3.1917876e-02,1.5472572e-03,2.3324618e-03,4.4625572e-04,-1.6141418e-01,2.4103424e-01,1.5469710e-01
2.0298626e+00,1.5770889e-04,-6.4374672e-05,-2.5263166e-05,7.5184895e-03,6.0119985e-02,7.4938333e-03,-5.0952300e-04,9.7027223e-04,2.0206160e-04,-2.0567821e-01,-1.3621909e-01,-2.4419435e-02
2.0398626e+00,-2.0074241e-04,-7.2140398e-04,-2.7752499e-05,-3.6081504e-02,-6.5591398e-02,-3.5812408e-02,2.9656167e-03,-1.3973741e-04,-1.1625489e-03,3.4751430e-01,-1.1100107e-01,-1.3646118e-01
2.0498626e+00,-9.2361557e-05,2.8417159e-04,-2.9618589e-05,1.0837622e-02,1.0051978e-01,1.1184329e-02,-8.7481897e-05,-3.5265408e-03,-7.6823025e-04,-3.0531015e-01,-3.3868066e-01,3.9431906e-02
2.0598626e+00,-3.0296689e-05,-6.2808240e-04,1.5173342e-04,6.2894894e-03,-9.1178156e-02,6.7909146e-03,-9.1135573e-04,6.4066341e-03,2.2493295e-05,-8.2387462e-02,9.9331843e-01,7.9072430e-02
2.0698626e+00,-2.1218508e-03,-5.2726753e-04,6.1543155e-04,-2.0947921e-01,1.0084677e-02,-2.0883136e-01,3.5854811e-03,3.5758159e-03,-1.7279078e-03,4.4968411e-01,-2.8308209e-01,-1.7504028e-01
2.0798626e+00,2.0540731e-05,2.6761427e-06,-3.9392182e-06,2.1422946e-01,5.3007449e-02,2.1424604e-01,-1.1615133e-05,4.9208566e-05,4.3343824e-05,-3.5970996e-01,-3.5266107e-01,1.7712533e-01
2.0898626e+00,-1.5219931e-04,3.0831816e-04,9.3921873e-06,-1.7283475e-02,3.0626126e-02,-1.7154522e-02,-7.1850409e-06,-3.6037592e-03,-5.3480258e-04,4.4300961e-04,-3.6529713e-01,-5.7814696e-02
2.0998626e+00,-3.9467688e-04,-8.3076783e-04,3.8233357e-05,-2.4634040e-02,-1.1385071e-01,-2.4130568e-02,3.1648485e-03,7.9868179e-04,-1.0677976e-03,3.1720366e-01,4.4024452e-01,-5.3299552e-02
2.1098626e+00,1.6359780e-04,3.9641976e-04,4.9909915e-05,5.5868493e-02,1.2243130e-01,5.6414839e-02,9.2939430e-04,-4.1959067e-03,1.3077857e-03,-2.2354563e-01,-4.9945933e-01,2.3755855e-01
2.1198626e+00,-1.6821811e-04,-6.2649839e-04,1.9426952e-04,-3.3118892e-02,-1.0249383e-01,-3.2616405e-02,-5.4840181e-04,5.5841844e-03,1.9973567e-04,-1.4777975e-01,9.7801005e-01,-1.1080511e-01
2.1298625e+00,-3.0003871e-04,3.0716611e-04,5.3044105e-05,-1.3210143e-02,9.3406278e-02,-1.2868718e-02,-2.0079600e-04,-3.2554511e-03,-7.0751557e-04,3.4760614e-02,-8.8396440e-01,-9.0725210e-02
2.1398625e+00,-1.7286290e-04,2.3602213e-04,-1.2036514e-05,1.2729144e-02,-7.1501984e-03,1.2685924e-02,-7.1936322e-05,-2.8913519e-03,-8.6837076e-04,1.2885980e-02,3.6409959e-02,-1.6085535e-02
2.1498625e+00,1.1955192e-04,-3.8389952e-06,-3.3199414e-05,2.9247160e-02,-2.3996376e-02,2.9227455e-02,1.0191214e-04,-2.4836967e-04,-2.7686005e-04,1.7384863e-02,2.6429847e-01,5.9151128e-02
2.1598625e+00,2.1873910e-04,-4.0044285e-06,-3.7489634e-05,9.9154896e-03,-6.7055027e-06,9.9219747e-03,-5.8342816e-04,4.0828261e-04,3.2713640e-04,-6.8534095e-02,6.5665291e-02,6.0399702e-02
2.1698625e+00,-1.9116276e-04,3.6104028e-04,8.1840254e-05,-4.1022607e-02,3.6672690e-02,-4.0807297e-02,-9.1397601e-05,-4.2053061e-03,-7.0885832e-04,4.9203103e-02,-4.6135931e-01,-1.0359957e-01
2.1798625e+00,-2.0015829e-04,-7.9586233e-04,-2.4316138e-05,-1.2713701e-03,-1.1568696e-01,-8.8898196e-04,3.2050767e-03,7.8861920e-05,-1.1400479e-03,3.2964775e-01,4.2841721e-01,-4.3119004e-02
2.1898625e+00,-2.7588872e-04,-7.6947500e-04,3.2901050e-05,-7.5739525e-03,2.6615831e-03,-7.5641484e-03,3.1116915e-03,9.3164902e-05,-1.2088684e-03,-9.3385348e-03,1.4302996e-03,-6.8820494e-03
2.1998625e+00,1.8099859e-04,-1.9407551e-06,-7.7553587e-06,4.5635040e-02,7.6808528e-02,4.5649982e-02,-5.2014159e-04,6.8472498e-04,3.0211409e-04,-3.6318365e-01,5.9156065e-02,1.5109839e-01
2.2098627e+00,1.6615204e-04,3.4333396e-05,-3.5688616e-05,-1.4864472e-03,3.6260046e-03,-1.4860345e-03,-6.1491151e-04,2.7861442e-04,2.7162760e-04,-9.4767745e-03,-4.0610127e-02,-3.0485795e-03
2.2198627e+00,-3.0712322e-04,-7.5727238e-04,-5.2883958e-05,-4.7630316e-02,-7.9017868e-02,-4.7262421e-02,3.0157680e-03,6.4316823e-06,-1.3580661e-03,3.6306829e-01,-2.7218300e-02,-1.6296952e-01
2.2298627e+00,-3.8677279e-04,-8.0524422e-04,-2.8544394e-06,-7.9912526e-03,-4.7781242e-03,-7.9500800e-03,3.1217502e-03,7.3230874e-04,-1.4260964e-03,1.0598234e-02,7.2587775e-02,-6.8030430e-03
2.2398627e+00,2.1106025e-04,7.7462278e-05,-4.7003246e-05,5.9754426e-02,8.8276397e-02,5.9803925e-02,-2.3631850e-04,-1.4152682e-04,1.3504275e-04,-3.3580719e-01,-8.7383640e-02,1.5611407e-01
2.2498627e+00,4.3266282e-04,3.3017013e-04,4.1378118e-05,2.2153789e-02,2.5165708e-02,2.2286014e-02,1.1495505e-03,-3.5794398e-03,1.6017732e-03,1.3858703e-01,-3.4379162e-01,1.4667319e-01
2.2598627e+00,6.6211107e-04,1.8083539e-04,1.0624263e-05,2.2882971e-02,-1.5025574e-02,2.2946521e-02,1.3136443e-03,-2.6977181e-03,1.8391816e-03,1.6409394e-02,8.8172247e-02,2.3740858e-02
2.2698627e+00,7.4446280e-04,-8.2389920e-04,-3.0417257e-05,7.6835720e-03,-1.0050397e-01,8.3956689e-03,5.3486985e-03,1.4659148e-03,1.7097037e-03,4.0350581e-01,4.1636368e-01,-1.2947803e-02
2.2798626e+00,8.9837342e-04,3.2129468e-04,-1.2846514e-05,1.5449417e-02,1.1445791e-01,1.5785700e-02,7.8687205e-04,-3.1684785e-03,2.0618614e-03,-4.5618308e-01,-4.6343976e-01,3.5215812e-02
2.2898626e+00,7.0757518e-04,8.3521912e-04,8.5193486e-05,-1.9020045e-02,5.1565588e-02,-1.8668079e-02,5.4317716e-04,-8.6150766e-03,1.6694404e-03,-2.4369512e-02,-5.4466033e-01,-3.9242140e-02
2.2998626e+00,3.1132252e-04,3.2441425e-04,1.2873169e-04,-3.9605834e-02,-5.0860377e-02,-3.9926813e-02,1.2086915e-03,-4.3254866e-03,2.0466100e-03,6.6551501e-02,4.2895941e-01,3.7716997e-02
2.3098626e+00,-2.2764647e-05,-6.5149106e-04,-1.7908920e-05,-3.3741266e-02,-9.7506469e-02,-3.3320179e-02,4.0354925e-03,1.5409364e-03,1.8252552e-03,2.8268037e-01,5.8664287e-01,-2.2135506e-02
2.3198626e+00,-2.2843244e-04,1.9703671e-04,-2.2320671e-05,-2.0449083e-02,8.4938513e-02,-2.0329242e-02,1.0965540e-03,-3.0866105e-03,1.1982064e-03,-2.9389413e-01,-4.6275513e-01,-6.2704934e-02
2.3298626e+00,-6.6760823e-04,5.4145096e-04,1.0235615e-04,-4.3925762e-02,3.4788952e-02,-4.3634677e-02,3.7258226e-05,-7.9013967e-03,-2.1463239e-04,-1.0592968e-01,-4.8147908e-01,-1.4128402e-01
2.3398626e+00,-9.5314818e-04,-2.7078472e-05,-8.5464922e-05,-2.8803029e-02,-5.6485104e-02,-2.9030091e-02,4.3743682e-03,-8.4205564e-03,-2.0510997e-05,4.3371141e-01,-5.1916017e-02,1.9412157e-02
2.3498626e+00,-1.3377565e-03,-5.1632024e-04,6.7206410e-05,-3.8635990e-02,-4.8651418e-02,-3.8631026e-02,4.4306899e-03,-2.6426311e-03,1.0724064e-03,5.6321793e-03,5.7779308e-01,1.0929185e-01
2.3598626e+00,-1.7317070e-03,2.1522921e-04,1.8614463e-04,-3.9184721e-02,7.3375094e-02,-3.9195101e-02,1.6255610e-03,-3.9688556e-03,2.3174419e-03,-2.8051316e-01,-1.3262258e-01,1.2450367e-01
2.3698626e+00,-2.3971420e-03,4.7934857e-04,1.2463620e-04,-6.6398130e-02,2.6931690e-02,-6.6480484e-02,1.1187780e-03,-6.6891689e-03,1.7392847e-03,-5.0678343e-02,-2.7203158e-01,-5.7815780e-02
2.3798625e+00,-3.0439175e-03,9.7870178e-04,-2.9273559e-05,-6.4572323e-02,5.0800635e-02,-6.4106470e-02,1.1026749e-03,-1.2325420e-02,7.7570860e-04,-1.6103100e-03,-5.6362569e-01,-9.6357700e-02
2.3898625e+00,-3.6928735e-03,8.1628655e-04,8.8863533e-05,-6.4882791e-02,-1.5426870e-02,-6.5106946e-02,4.2990973e-04,-1.2101880e-02,3.0566572e-04,-6.7276585e-02,2.2354106e-02,-4.7004333e-02
2.3998625e+00,-4.5326142e-03,-2.7426547e-04,2.8172395e-05,-8.4430182e-02,-1.0807915e-01,-8.4775111e-02,4.1701973e-03,-7.4076986e-03,-2.3491076e-05,3.7402912e-01,4.6941855e-01,-3.2915710e-02
2.4098625e+00,-7.0348266e-03,-3.5872116e-03,-4.0188827e-05,-2.5161078e-01,-3.3735100e-01,-2.4054984e-01,-8.0774122e-04,2.3936722e-02,-6.6441688e-03,-4.9779433e-01,3.1344450e+00,-6.6206840e-01
2.4198625e+00,-6.1451280e-03,-5.7003691e-04,3.5615973e-04,8.9442356e-02,3.0202844e-01,8.7428789e-02,1.7253345e-03,5.2665778e-03,5.3961510e-04,2.5330781e-01,-1.8670162e+00,7.1837907e-01
2.4298625e+00,-6.4159422e-03,-1.9479952e-03,-4.9963291e-04,-2.8157391e-02,-1.3775513e-01,-2.6176735e-02,7.4761935e-03,6.2200284e-03,-1.7195504e-03,5.7508645e-01,9.5345151e-02,-2.2591677e-01
2.4398625e+00,-6.6517872e-03,4.6559463e-04,2.3172490e-04,-2.3254857e-02,2.4157084e-01,-2.1667238e-02,1.2257676e-03,-8.0777655e-03,1.4323164e-03,-6.2504319e-01,-1.4297808e+00,3.1518698e-01
2.4498625e+00,-7.9872407e-03,-3.5236525e-03,7.7747450e-04,-1.3256576e-01,-4.0196617e-01,-1.2513807e-01,-4.0252375e-03,1.9426983e-02,-4.7070157e-03,-5.2510101e-01,2.7504775e+00,-6.1393379e-01
2.4598627e+00,-8.2693009e-03,-4.1952200e-03,1.0566779e-03,-2.7895931e-02,-6.8148030e-02,-2.6049407e-02,-6.5204297e-03,2.9939736e-02,-4.5851625e-03,-2.4951351e-01,1.0512512e+00,1.2185033e-02
2.4698627e+00,-7.7343107e-03,-3.7034297e-05,2.1154912e-04,5.3624650e-02,4.1561915e-01,5.4907516e-02,5.6739085e-04,-3.1220480e-03,2.0603589e-03,7.0878273e-01,-3.3061815e+00,6.6455278e-01
2.4798627e+00,-8.4399718e-03,5.1035857e-04,1.5612651e-04,-7.0359263e-02,5.5431759e-02,-7.0231484e-02,1.2136651e-03,-8.6110812e-03,1.9880887e-03,6.4627485e-02,-5.4890384e-01,-7.2270297e-03
2.4898627e+00,-9.5314322e-03,-7.1191592e-04,2.2466991e-04,-1.0959098e-01,-1.2149221e-01,-1.0952077e-01,4.6946633e-03,-2.0257248e-03,1.1699616e-03,3.4810015e-01,6.5853628e-01,-8.1812785e-02
2.4998627e+00,-1.0296852e-02,-6.7712403e-04,2.5829516e-04,-7.6393971e-02,3.7692032e-03,-7.6676116e-02,3.3504599e-03,-4.3793409e-04,1.7749935e-03,-1.3442047e-01,1.5877922e-01,6.0503240e-02
2.5098627e+00,-1.0780577e-02,-2.7888947e-04,2.3282033e-04,-4.8378237e-02,3.9839250e-02,-4.8353899e-02,-8.7135458e-04,-1.1972671e-03,5.9937855e-04,-4.2218185e-01,-7.5933378e-02,-1.1756160e-01
2.5198627e+00,-1.2027898e-02,-1.1486404e-04,2.8420301e-04,-1.2478834e-01,1.6838917e-02,-1.2461790e-01,-4.8369039e-04,-3.9846681e-03,-3.8643274e-04,3.8766456e-02,-2.7874036e-01,-9.8581223e-02
2.5298626e+00,-1.2735104e-02,-2.4501280e-04,2.5153915e-04,-7.0736777e-02,-1.2860814e-02,-7.0732827e-02,-4.7765521e-04,-2.6564566e-03,-3.1525289e-04,6.0351850e-04,1.3282127e-01,7.1179915e-03
2.5398626e+00,-1.3113352e-02,-1.1331663e-03,3.0675735e-04,-3.7707326e-02,-8.9128563e-02,-3.7200450e-02,-1.3118503e-03,7.0264177e-03,2.5278540e-05,-8.3419593e-02,9.6828836e-01,3.4053176e-02
2.5498626e+00,-1.5058669e-02,-2.1445085e-03,3.7881894e-04,-1.9541143e-01,-1.0197186e-01,-1.9320856e-01,4.6544163e-03,9.0056150e-03,-2.1148012e-03,5.9662723e-01,1.9791992e-01,-2.1400817e-01
2.5598626e+00,-1.5033218e-02,-2.0753603e-03,3.5164642e-04,2.5614142e-03,6.9366215e-03,2.4682204e-03,2.3204575e-03,1.1062119e-02,-1.1241892e-04,-2.3339611e-01,2.0565057e-01,2.0023842e-01
2.5698626e+00,-1.5376207e-02,-1.0937036e-03,3.0189633e-04,-3.4109290e-02,9.8304357e-02,-3.4090425e-02,2.2427499e-03,-1.8113817e-03,-8.9359081e-04,-7.7707665e-03,-1.2873513e+00,-7.8117263e-02
2.5798626e+00,-1.5749028e-02,-1.4282553e-03,4.2144973e-04,-3.7300302e-02,-3.3533896e-02,-3.7193179e-02,1.4492915e-03,3.5638275e-03,8.1214771e-04,-7.9345918e-02,5.3752143e-01,1.7057401e-01
2.5898626e+00,-1.6605813e-02,-2.9397275e-03,7.6955224e-05,-8.6239969e-02,-1.5185454e-01,-8.3845314e-02,3.2881806e-03,1.1680770e-02,-7.5705317e-04,1.8388909e-01,8.1169504e-01,-1.5692024e-01
2.5998626e+00,-1.7404939e-02,-2.4150030e-03,5.2470172e-04,-7.9783813e-02,5.1823703e-02,-8.0462854e-02,1.5345090e-03,9.6164213e-03,6.0318849e-04,-1.7536733e-01,-2.0643508e-01,1.3602430e-01
2.6098626e+00,-1.9065112e-02,-2.5821767e-03,6.1617558e-04,-1.6636230e-01,-1.7600057e-02,-1.6558043e-01,2.6412562e-03,7.9760842e-03,-1.8163924e-03,1.1067483e-01,-1.6403387e-01,-2.4195832e-01
2.6198626e+00,-1.9705825e-02,-2.1476969e-03,8.1027741e-04,-6.4092450e-02,4.3217962e-02,-6.4205880e-02,1.5139662e-03,5.1019748e-03,-1.3566344e-03,-1.1272910e-01,-2.8741121e-01,4.5975849e-02
2.6298625e+00,-1.9723102e-02,-1.3087786e-03,6.6157173e-04,-1.8936250e-03,8.3878672e-02,-2.1454554e-03,-1.9819751e-03,4.9779380e-03,1.4658938e-04,-3.4959447e-01,-1.2403695e-02,1.5032252e-01
2.6398625e+00,-2.0740878e-02,-7.1878044e-04,7.7587774e-04,-1.0185325e-01,5.8980369e-02,-1.0171359e-01,-2.1064542e-03,-1.9162239e-03,4.7733243e-04,-1.2447915e-02,-6.8941685e-01,3.3074336e-02
2.6498625e+00,-2.1620346e-02,-1.8789999e-03,7.1545113e-04,-8.8037056e-02,-1.1601085e-01,-8.7871230e-02,1.1264462e-03,1.0000476e-03,4.5893366e-04,3.2329034e-01,2.9162742e-01,-1.8398781e-03
2.6598625e+00,-2.3180381e-02,-2.8320161e-03,1.0222933e-03,-1.5619771e-01,-9.6313782e-02,-1.5518582e-01,1.9126527e-03,8.4236104e-03,-7.7207690e-05,7.8620734e-02,7.4235699e-01,-5.3614187e-02
2.6698625e+00,-2.3865013e-02,-1.5828758e-03,1.0983208e-03,-6.8664247e-02,1.2458618e-01,-6.8858411e-02,-2.0496736e-03,2.7279497e-03,8.0135664e-04,-3.9623301e-01,-5.6956662e-01,8.7856517e-02
2.6798625e+00,-2.4418301e-02,-1.7147625e-03,8.2602912e-04,-5.5285860e-02,-1.3700675e-02,-5.5247516e-02,-2.3218669e-03,6.9366632e-03,2.2229490e-04,-2.7219357e-02,4.2087176e-01,-5.7906229e-02
2.6898625e+00,-2.6183303e-02,-2.6244402e-03,9.7420095e-04,-1.7693687e-01,-9.2092038e-02,-1.7547723e-01,1.0914259e-03,7.4898790e-03,-1.9134280e-03,3.4132961e-01,5.5321631e-02,-2.1357249e-01
2.6998625e+00,-2.7220746e-02,-2.8892356e-03,1.1383320e-03,-1.0395743e-01,-2.7051572e-02,-1.0338299e-01,1.5306486e-03,7.0627041e-03,-1.6650903e-03,4.3922315e-02,-4.2717535e-02,2.4833792e-02
2.7098627e+00,-2.7281624e-02,-1.0956920e-03,1.1155089e-03,-6.5195118e-03,1.7934514e-01,-5.7835909e-03,-2.4306894e-03,-1.7202688e-03,6.7546280e-04,-3.9612473e-01,-8.7827719e-01,2.3404995e-01
2.7198627e+00,-2.9870215e-02,-1.9834640e-03,1.4232324e-03,-2.5929782e-01,-8.8878315e-02,-2.5838544e-01,3.2932688e-03,3.6898699e-03,-5.6993666e-04,5.7239636e-01,5.4101439e-01,-1.2454006e-01
2.7298627e+00,-2.8835231e-02,-2.8881184e-03,8.7795899e-04,1.0329209e-01,-8.9694851e-02,1.0437186e-01,1.3663428e-03,8.7712506e-03,7.9920359e-04,-1.9269278e-01,5.0813855e-01,1.3691416e-01
2.7398627e+00,-3.0394511e-02,-2.9817180e-03,1.2759291e-03,-1.5599147e-01,-1.0077711e-02,-1.5582000e-01,1.8912743e-03,6.4975796e-03,-2.9451997e-04,5.2493200e-02,-2.2736732e-01,-1.0937246e-01
2.7498627e+00,-3.0641313e-02,-1.2887644e-03,1.2477723e-03,-2.4998077e-02,1.6929521e-01,-2.4360386e-02,-2.0352695e-03,-2.0488111e-03,1.0788120e-03,-3.9265476e-01,-8.5463988e-01,1.3733333e-01
2.7598627e+00,-3.2486551e-02,-2.1552559e-03,1.4213838e-03,-1.8452871e-01,-8.7835821e-02,-1.8395745e-01,9.9391887e-04,7.4344050e-03,4.4073875e-04,3.0291912e-01,9.4832252e-01,-6.3807386e-02
2.7698627e+00,-3.3372908e-02,-4.7149198e-03,1.7133980e-03,-8.7836117e-02,-2.5804776e-01,-8.3232758e-02,-3.9781476e-03,2.0162908e-02,-2.4771597e-03,-4.9720712e-01,1.2728515e+00,-2.9179012e-01
2.7798626e+00,-3.4471797e-02,-4.5777187e-03,1.6117238e-03,-1.1027107e-01,1.1174824e-02,-1.0979449e-01,-3.8485672e-03,1.9349853e-02,-3.0085176e-03,1.2958049e-02,-8.1305564e-02,-5.3135841e-02
2.7898626e+00,-3.5537061e-02,-4.0333882e-03,2.0432617e-03,-1.0741858e-01,5.1759528e-02,-1.0696236e-01,-8.2135460e-03,1.6867929e-02,-4.2201319e-03,-4.3649830e-01,-2.4819269e-01,-1.2116155e-01
2.7998626e+00,-3.6639435e-02,-4.6562932e-03,2.1208837e-03,-1.1019420e-01,-6.5939558e-02,-1.0813860e-01,-7.7445955e-03,2.5668149e-02,-4.0209625e-03,4.6895093e-02,8.8002286e-01,1.9916960e-02
2.8098626e+00,-3.7749540e-02,-4.9427536e-03,1.8364135e-03,-1.1125617e-01,-3.1259204e-02,-1.1005548e-01,-2.7754685e-03,2.0884834e-02,-2.9369780e-03,4.9691317e-01,-4.7833193e-01,1.0839856e-01
2.8198626e+00,-3.8723072e-02,-5.1589466e-03,1.8600951e-03,-9.7520521e-02,-2.4204610e-02,-9.6574371e-02,-3.7926616e-03,2.2884647e-02,-2.5704286e-03,-1.0171940e-01,1.9998150e-01,3.6654972e-02
2.8298626e+00,-3.9929252e-02,-4.6434278e-03,2.1546345e-03,-1.2125272e-01,4.7650088e-02,-1.2158268e-01,-6.9807310e-03,2.5284451e-02,-2.3040803e-03,-3.1880724e-01,2.3998059e-01,2.6634862e-02
2.8398626e+00,-4.1377578e-02,-3.9171316e-03,2.2132411e-03,-1.4583870e-01,6.9628353e-02,-1.4529645e-01,-7.1857864e-03,1.3525176e-02,-3.3740354e-03,-2.0505567e-02,-1.1759286e+00,-1.0699562e-01
2.8498626e+00,-4.2533311e-02,-5.3550423e-03,2.0099440e-03,-1.1501054e-01,-1.4853245e-01,-1.1000467e-01,-6.1936224e-03,3.5762656e-02,-2.8586655e-03,9.9216497e-02,2.2237501e+00,5.1537044e-02
2.8598626e+00,-4.3458928e-02,-4.6654283e-03,2.1456911e-03,-9.3286892e-02,6.6295579e-02,-9.3773648e-02,-6.1300921e-03,2.2545816e-02,-3.2910806e-03,6.3530396e-03,-1.3216852e+00,-4.3241556e-02
2.8698626e+00,-4.4390073e-02,-4.3707688e-03,2.1583178e-03,-9.3501741e-02,2.7082324e-02,-9.3449902e-02,-5.1543290e-03,2.0429165e-02,-2.5428202e-03,9.7576401e-02,-2.1166532e-01,7.4826121e-02
2.8798625e+00,-4.5403090e-02,-6.3328442e-03,1.9747265e-03,-1.0101366e-01,-2.0013510e-01,-9.3614828e-02,-2.8684908e-03,3.7372938e-02,-2.7199562e-03,2.2858404e-01,1.6943789e+00,-1.7713622e-02
2.8898625e+00,-4.5771593e-02,-3.2841642e-03,1.9354421e-03,-3.6979062e-02,3.0443572e-01,-4.0149862e-02,-7.7681415e-04,1.0474799e-02,2.9290549e-03,2.0916787e-01,-2.6898165e+00,5.6490165e-01
2.8998625e+00,-4.7042206e-02,-2.9946814e-03,1.8971178e-03,-1.2668016e-01,2.8149081e-02,-1.2762057e-01,7.8299366e-05,6.3449456e-03,2.9787837e-03,8.5511433e-02,-4.1298569e-01,4.9728819e-03
2.9098625e+00,-4.8949357e-02,-4.3508056e-03,1.9927736e-03,-1.9102722e-01,-1.3710161e-01,-1.8933335e-01,3.5776654e-03,1.1426127e-02,9.0134932e-04,3.4993694e-01,5.0811866e-01,-2.0774363e-01
2.9198625e+00,-5.0418674e-02,-4.8199053e-03,1.9236272e-03,-1.4726112e-01,-4.7959707e-02,-1.4626172e-01,5.1378812e-03,1.2317831e-02,-6.1432264e-04,1.5602173e-01,8.9170477e-02,-1.5156734e-01
2.9298625e+00,-5.1044530e-02,-5.2953718e-03,1.8175986e-03,-6.2812570e-02,-4.8080106e-02,-6.1947662e-02,5.4321943e-03,1.4034210e-02,4.8708217e-04,2.9431332e-02,1.7163799e-01,1.1014059e-01
2.9398625e+00,-5.1323218e-02,-5.5255806e-03,2.1857913e-03,-2.7935982e-02,-2.3240282e-02,-2.7618438e-02,5.3661461e-03,1.3295974e-02,2.0074642e-03,-6.6048269e-03,-7.3823637e-02,1.5203834e-01
2.9498625e+00,-5.3965151e-02,-4.8329439e-03,2.1111278e-03,-2.6391380e-01,6.7732997e-02,-2.6486918e-01,4.2803166e-03,1.0059331e-02,-7.2415340e-05,-1.0858305e-01,-3.2366460e-01,-2.0798815e-01
2.9598627e+00,-5.5156715e-02,-4.5495332e-03,2.1189182e-03,-1.1904678e-01,2.7737317e-02,-1.1940205e-01,3.3728924e-03,8.4238921e-03,8.8634167e-05,-9.0740351e-02,-1.6354016e-01,1.6104582e-02
2.9698627e+00,-5.5913681e-02,-3.9886878e-03,2.2525369e-03,-7.5489845e-02,5.5952454e-02,-7.6000442e-02,1.9066560e-03,3.6411863e-03,1.3172981e-03,-1.4662377e-01,-4.7827104e-01,1.2286651e-01
2.9798627e+00,-5.7170663e-02,-3.8257403e-03,2.3099039e-03,-1.2542830e-01,1.6078963e-02,-1.2599552e-01,2.0999633e-03,3.8084216e-03,1.8721111e-03,1.9330742e-02,1.6723551e-02,5.5481354e-02
2.9898627e+00,-5.9047105e-02,-4.9651564e-03,2.5603682e-03,-1.8791765e-01,-1.1525040e-01,-1.8656858e-01,3.8076366e-03,1.0812617e-02,8.4808679e-04,1.7076750e-01,7.0042016e-01,-1.0240253e-01
2.9998627e+00,-5.9811128e-02,-4.0236911e-03,2.5362008e-03,-7.6269136e-02,9.3618142e-02,-7.7180858e-02,1.7552890e-04,7.0511917e-03,1.5260558e-03,-3.6321112e-01,-3.7614284e-01,6.7796968e-02
3.0098627e+00,-6.1240461e-02,-3.9032879e-03,2.5211219e-03,-1.4265570e-01,1.1205882e-02,-1.4327838e-01,3.8020808e-04,6.2048151e-03,1.9093362e-03,2.0467938e-02,-8.4637746e-02,3.8328072e-02
3.0198627e+00,-6.2962026e-02,-4.5268850e-03,2.7689546e-03,-1.7181791e-01,-6.3124063e-02,-1.7221655e-01,2.4795511e-03,6.9090812e-03,2.8587626e-03,2.0993450e-01,7.0426675e-02,9.4942731e-02
3.0298626e+00,-6.4853282e-02,-5.6246851e-03,2.3798810e-03,-1.8960724e-01,-1.1102465e-01,-1.8791323e-01,5.0612697e-03,1.1684247e-02,3.7901269e-04,2.5817210e-01,4.7751705e-01,-2.4797523e-01
3.0398626e+00,-6.5634728e-02,-5.7150752e-03,2.3595143e-03,-7.8114863e-02,-9.5348953e-03,-7.8115642e-02,4.6691295e-03,1.1012897e-02,9.1088535e-04,-3.9214061e-02,-6.7135079e-02,5.3187317e-02
3.0498626e+00,-6.7543898e-02,-6.3884485e-03,3.1415585e-03,-1.9097493e-01,-7.3261817e-02,-1.8866452e-01,-5.1260067e-03,2.6090206e-02,-2.1261488e-03,-9.7951455e-01,1.5077324e+00,-3.0370371e-01
3.0598626e+00,-6.9510170e-02,-6.2631917e-03,3.1760996e-03,-1.9682670e-01,5.9021058e-03,-1.9673835e-01,-4.4617255e-03,2.9224130e-02,-7.3958469e-04,6.6428177e-02,3.1339266e-01,1.3865655e-01
3.0698626e+00,-7.1042862e-02,-6.5681528e-03,3.1553320e-03,-1.5322258e-01,-3.5583407e-02,-1.5221597e-01,-4.3420793e-03,2.8957175e-02,-5.6796597e-04,1.1964632e-02,-2.6695576e-02,1.7161889e-02
3.0798626e+00,-7.3002049e-02,-5.9588866e-03,3.4333767e-03,-1.9637963e-01,5.9616812e-02,-1.9586048e-01,-1.7019137e-03,4.9887044e-03,-1.8257572e-03,2.6401682e-01,-2.3968493e+00,-1.2577924e-01
3.0898626e+00,-7.4907158e-02,-6.1372052e-03,3.5013411e-03,-1.9090276e-01,-1.9119329e-02,-1.8999354e-01,-1.7876255e-03,4.9827226e-03,-2.2270798e-03,-8.5711948e-03,-5.9817782e-04,-4.0132304e-02
3.0998626e+00,-7.7283024e-02,-5.9502862e-03,3.3665393e-03,-2.3814407e-01,1.6584281e-02,-2.3718505e-01,-1.5242817e-03,7.3610595e-03,-2.2291734e-03,2.6334410e-02,2.3783392e-01,-2.0935611e-04
3.1098626e+00,-7.8211003e-02,-7.1270466e-03,3.5758759e-03,-9.2437926e-02,-1.2042020e-01,-8.9581321e-02,-4.2706018e-03,2.5776218e-02,-1.5458275e-03,-2.7463227e-01,1.8415176e+00,6.8334650e-02
3.1198626e+00,-8.0159006e-02,-7.8777524e-03,3.3969360e-03,-1.9525805e-01,-8.0273827e-02,-1.9225108e-01,-2.0148889e-03,2.4896878e-02,-3.1322479e-03,2.2557150e-01,-8.7934072e-02,-1.5864219e-01
3.1298625e+00,-8.2968474e-02,-7.2937929e-03,2.9467924e-03,-2.8199902e-01,5.2817485e-02,-2.8099718e-01,9.8036126e-04,2.0875146e-02,-3.9565706e-03,2.9952530e-01,-4.0217362e-01,-8.2432352e-02
3.1398625e+00,-8.3634052e-02,-8.0136876e-03,3.2165435e-03,-6.6592316e-02,-7.4460863e-02,-6.3745110e-02,-2.1218420e-03,3.5814424e-02,-2.8186906e-03,-3.1022063e-01,1.4939292e+00,1.1378811e-01
3.1498625e+00,-8.5543208e-02,-7.2161888e-03,3.2453212e-03,-1.9094255e-01,7.6948132e-02,-1.9203554e-01,3.4160451e-03,1.8050066e-02,-1.5742773e-03,5.5378924e-01,-1.7764375e+00,1.2444145e-01
3.1598625e+00,-8.6315844e-02,-8.0537555e-03,3.5235989e-03,-7.7262374e-02,-8.5769714e-02,-7.5024257e-02,-1.2596644e-03,2.5174917e-02,-1.3498031e-03,-4.6757140e-01,7.1248576e-01,2.2447445e-02
