time, x, y, z, vx, vy, vz, yaw, pitch, roll, yaw_rate, pitch_rate, roll_rate
0.0000000e+00,0.0000000e+00,0.0000000e+00,0.0000000e+00,0.0000000e+00,0.0000000e+00,0.0000000e+00,0.0000000e+00,0.0000000e+00,0.0000000e+00,0.0000000e+00,0.0000000e+00,0.0000000e+00
9.9999905e-03,-9.0374904e-05,-4.4741666e-04,-1.5728343e-05,-9.1016004e-03,-4.4745156e-02,-8.9557334e-03,1.3955275e-03,1.7900543e-03,-1.8501491e-04,1.3955288e-01,1.7900560e-01,-1.8501508e-02
1.9980431e-02,-1.7475704e-04,-5.9725044e-04,-1.3226341e-04,-8.4978793e-03,-1.5015611e-02,-8.4062784e-03,2.2261966e-03,2.5788078e-03,-1.1512905e-03,8.3229712e-02,7.9029929e-02,-9.6816932e-02
2.9980421e-02,-1.2091295e-04,-1.3947032e-04,-1.1173635e-04,5.4355421e-03,4.5775369e-02,5.3558065e-03,9.9595204e-04,5.0282717e-04,-1.0291002e-03,-1.2302458e-01,-2.0759826e-01,1.2219046e-02
3.9980412e-02,-2.2621006e-04,-1.2672164e-03,-6.4410367e-05,-1.0953165e-02,-1.1279163e-01,-9.8976359e-03,3.6949671e-03,5.5425121e-03,-6.4766754e-04,2.6990177e-01,5.0396897e-01,3.8143298e-02
4.9980402e-02,-1.8120322e-04,-1.1088739e-03,-1.1877110e-07,4.5486331e-03,1.5843119e-02,4.4206156e-03,2.9943907e-03,5.0225364e-03,-1.2236421e-04,-7.0057709e-02,-5.1997618e-02,5.2530383e-02
5.9980392e-02,-2.1135602e-04,-1.1730603e-03,-5.1250407e-05,-3.0415683e-03,-6.4210555e-03,-2.9835788e-03,3.9050244e-03,4.7474382e-03,-4.1246381e-04,9.1063452e-02,-2.7509842e-02,-2.9009988e-02
6.9980383e-02,-8.3842311e-05,-4.5443506e-04,-3.4694166e-05,1.2912731e-02,7.1851350e-02,1.2651978e-02,2.1904513e-03,1.3277373e-03,-3.1113585e-04,-1.7145747e-01,-3.4197042e-01,1.0132806e-02
7.9980373e-02,-5.0100158e-05,-3.7221923e-04,-2.5011118e-05,3.3911352e-03,8.2178136e-03,3.3664520e-03,2.0257826e-03,9.1240148e-04,-7.9593158e-05,-1.6466881e-02,-4.1533618e-02,2.3154291e-02
8.9980364e-02,-2.4376797e-05,-3.4066336e-04,2.5399515e-05,2.5792662e-03,3.1515039e-03,2.5704109e-03,2.1896544e-03,6.0416438e-04,-9.3734774e-06,1.6387190e-02,-3.0823739e-02,7.0219748e-03
9.9980593e-02,-1.4796779e-04,-1.0564357e-03,-1.3061791e-06,-1.2573220e-02,-7.1595599e-02,-1.2022123e-02,2.9606349e-03,4.6683464e-03,-2.0626226e-04,7.7096291e-02,4.0640890e-01,-1.9688427e-02
1.0998058e-01,-1.2663435e-04,-5.3690842e-04,-1.0286151e-04,2.2492421e-03,5.1952474e-02,2.0187063e-03,2.1921996e-03,2.1659326e-03,-9.4267080e-04,-7.6843606e-02,-2.5024162e-01,-7.3640924e-02
1.1998057e-01,-7.7579261e-05,-1.0377028e-05,-1.0161648e-04,4.9535898e-03,5.2646188e-02,4.9322732e-03,8.3366291e-04,-5.8851682e-04,-8.5311034e-04,-1.3585380e-01,-2.7544520e-01,8.9560546e-03
1.2998056e-01,-7.7965964e-05,-5.8177986e-04,-8.5193445e-05,-1.5966104e-04,-5.7140050e-02,1.0185389e-04,2.1168554e-03,2.4569026e-03,-8.5530401e-04,1.2831938e-01,3.0454224e-01,-2.1936763e-04
1.3998055e-01,-1.3122544e-04,-1.0646602e-03,7.5106141e-06,-5.4679963e-03,-4.8295123e-02,-5.1139169e-03,2.9228691e-03,4.3717585e-03,-1.7395737e-04,8.0601445e-02,1.9148577e-01,6.8134729e-02
1.4998055e-01,-1.3148324e-04,-1.0085784e-03,5.6447382e-05,-1.0081912e-05,5.6080653e-03,-4.9965581e-05,2.7994980e-03,4.3128015e-03,-9.3648330e-05,-1.2337123e-02,-5.8957064e-03,8.0309114e-03
1.5998054e-01,-4.1118931e-05,-9.4389365e-06,2.9833774e-05,9.0725263e-03,9.9910039e-02,9.0445877e-03,3.5563315e-04,-8.7126256e-05,-6.1362572e-05,-2.4438672e-01,-4.3999320e-01,3.2285789e-03
1.6998053e-01,-8.2922857e-05,-1.2044261e-04,-6.0931022e-05,-4.1940292e-03,-1.1098812e-02,-4.1708875e-03,8.8573019e-04,5.1311636e-04,-9.0996523e-04,5.3009755e-02,6.0024319e-02,-8.4860347e-02
1.7998052e-01,-2.1512518e-04,-1.3227463e-03,-1.3743745e-04,-1.3675318e-02,-1.2025836e-01,-1.2483215e-02,3.6622913e-03,6.0029351e-03,-1.1235133e-03,2.7765637e-01,5.4898239e-01,-2.1354828e-02
1.8998051e-01,-1.2195944e-04,-1.1065628e-03,-1.0054774e-05,9.3803783e-03,2.1635920e-02,9.2112168e-03,2.9034410e-03,4.8252796e-03,-1.1454601e-04,-7.5885100e-02,-1.1776566e-01,1.0089683e-01
1.9998050e-01,-1.2425698e-04,-1.1231403e-03,-7.9658882e-06,-2.3456498e-04,-1.6582071e-03,-2.2146451e-04,2.8805221e-03,4.9785187e-03,-1.5851790e-04,-2.2918940e-03,1.5323924e-02,-4.3971941e-03
2.0998049e-01,-1.3670983e-04,-1.2136006e-03,-8.2057351e-05,-1.2789563e-03,-9.0478920e-03,-1.1967077e-03,3.6385788e-03,5.2842460e-03,-6.1337328e-04,7.5805748e-02,3.0572757e-02,-4.5485581e-02
2.1998048e-01,-4.5979757e-05,-4.5929788e-04,-7.9178484e-05,9.2401987e-03,7.5423359e-02,8.9616669e-03,2.1583224e-03,1.4170108e-03,-4.8519664e-04,-1.4802579e-01,-3.8672389e-01,1.2817676e-02
2.2998047e-01,-1.0290737e-04,-4.7202445e-04,-6.6271800e-05,-5.6978114e-03,-1.2671976e-03,-5.6889368e-03,2.2857023e-03,1.3276820e-03,-3.7785447e-04,1.2738002e-02,-8.9328897e-03,1.0734228e-02
2.3998046e-01,-1.6063845e-04,-4.2893328e-04,-2.3374429e-05,-5.7645442e-03,4.3151424e-03,-5.7771778e-03,2.3730201e-03,1.3275689e-03,-2.8970135e-04,8.7317909e-03,-1.1305841e-05,8.8153197e-03
2.4998045e-01,-1.6010097e-04,-5.5676817e-04,-4.9604981e-05,1.9295407e-05,-1.2783449e-02,8.2025981e-05,2.6970054e-03,2.2127013e-03,-4.5028849e-04,3.2398559e-02,8.8513322e-02,-1.6058729e-02
2.5998044e-01,-1.1033024e-04,-4.9549730e-04,-6.6715409e-05,4.9942507e-03,6.1260759e-03,4.9611007e-03,2.2233624e-03,2.0260391e-03,-7.1611804e-04,-4.7364346e-02,-1.8666234e-02,-2.6582981e-02
2.6998043e-01,-1.1616625e-04,-5.1705268e-04,-7.3620709e-05,-5.8853034e-04,-2.1555847e-03,-5.7846156e-04,2.0851266e-03,2.1810410e-03,-7.4715452e-04,-1.3823590e-02,1.5500197e-02,-3.1036514e-03
2.7998042e-01,-1.8463126e-04,-4.9339859e-04,-7.6807913e-05,-6.8472573e-03,2.3669029e-03,-6.8452432e-03,2.2005678e-03,1.9828511e-03,-8.7250496e-04,1.1544128e-02,-1.9819007e-02,-1.2535055e-02
2.8998041e-01,-1.7733715e-04,-1.0448121e-03,1.7935364e-05,5.6809915e-04,-5.5139487e-02,9.7584192e-04,2.9291209e-03,4.4719411e-03,-2.8168108e-04,7.2855383e-02,2.4890925e-01,5.9082444e-02
2.9998040e-01,-7.1420911e-05,-1.0366775e-03,5.9207402e-05,1.0594680e-02,8.2956672e-04,1.0587337e-02,2.8220773e-03,4.3444144e-03,-7.4822158e-05,-1.0704368e-02,-1.2752685e-02,2.0685912e-02
3.0998039e-01,-3.4161766e-05,-1.0082547e-03,2.8274816e-05,3.7339000e-03,2.8466938e-03,3.7145412e-03,2.7477750e-03,3.9411450e-03,-4.9939372e-05,-7.4302442e-03,-4.0326982e-02,2.4882809e-03
3.1998038e-01,-1.2077160e-04,-1.1762849e-03,-6.5849655e-05,-8.7243120e-03,-1.6816340e-02,-8.5711444e-03,3.3629065e-03,4.9380824e-03,-7.9259153e-04,6.1513213e-02,9.9693836e-02,-7.4265286e-02
3.2998037e-01,-1.9849027e-04,-1.2738580e-03,-1.4528105e-04,-7.8147438e-03,-9.7729587e-03,-7.7089829e-03,3.5914257e-03,5.6371901e-03,-1.0141494e-03,2.2851938e-02,6.9910835e-02,-2.2155806e-02
3.3998036e-01,-6.1391926e-05,-4.7785780e-04,-7.5656662e-05,1.3839878e-02,7.9599915e-02,1.3579630e-02,1.5633805e-03,1.5650409e-03,-4.0876693e-04,-2.0280471e-01,-4.0721530e-01,6.0538303e-02
3.4998059e-01,-1.0808286e-04,-1.0686251e-03,-1.8713073e-05,-4.8376074e-03,-5.9082011e-02,-4.4059430e-03,2.8446385e-03,4.4425415e-03,-1.2681947e-04,1.2812287e-01,2.8774347e-01,2.8194101e-02
3.5998058e-01,-1.7325877e-04,-1.2134326e-03,-5.6457108e-05,-6.5748136e-03,-1.4487452e-02,-6.4448796e-03,3.7952515e-03,4.8641431e-03,-3.5373460e-04,9.5061392e-02,4.2160197e-02,-2.2691534e-02
3.6998057e-01,-1.6266270e-04,-1.1224411e-03,-9.2607098e-06,1.0935962e-03,9.0999775e-03,1.0172211e-03,3.7140255e-03,4.6363412e-03,-1.8969239e-04,-8.1226112e-03,-2.2780216e-02,1.6404236e-02
3.7998056e-01,-2.6882265e-04,-1.2933907e-03,-1.3080923e-04,-1.0694031e-02,-1.7116428e-02,-1.0502517e-02,3.8438541e-03,5.9117723e-03,-1.1681033e-03,1.2982879e-02,1.2754324e-01,-9.7841183e-02
3.8998055e-01,-1.3688452e-04,-4.2623436e-04,-4.5856413e-05,1.3330235e-02,8.6716436e-02,1.3051208e-02,1.5313059e-03,1.6024767e-03,-2.7565247e-04,-2.3125504e-01,-4.3092997e-01,8.9245167e-02
3.9998055e-01,-1.6852013e-04,-4.4271011e-04,-5.9121879e-05,-3.1686410e-03,-1.6434207e-03,-3.1606447e-03,2.5460072e-03,1.2345992e-03,-2.8196818e-04,1.0147022e-01,-3.6787786e-02,-6.3157157e-04
4.0998054e-01,-1.4267507e-04,-3.8525250e-04,-1.9123388e-05,2.5986912e-03,5.7417617e-03,2.5791835e-03,2.4936555e-03,9.5174093e-04,5.3192230e-05,-5.2351700e-03,-2.8285854e-02,3.3516073e-02
4.1998053e-01,-1.2146990e-04,-5.1966971e-04,-6.0530879e-05,2.0924617e-03,-1.3441383e-02,2.1504033e-03,2.2039045e-03,2.3382078e-03,-7.4142334e-04,-2.8975133e-02,1.3864682e-01,-7.9461632e-02
4.2998052e-01,5.0920717e-05,2.0201132e-05,3.8476594e-05,1.7252212e-02,5.3981318e-02,1.7244154e-02,2.4532304e-04,-9.1989736e-05,6.3734696e-06,-1.9585833e-01,-2.4301999e-01,7.4779752e-02
4.3998051e-01,-2.3738363e-05,-4.1584148e-04,-1.6269554e-05,-7.5252206e-03,-4.3604046e-02,-7.4076490e-03,1.3118808e-03,1.2876593e-03,-2.8243274e-04,1.0665588e-01,1.3796504e-01,-2.8880648e-02
4.4998050e-01,-3.3225314e-06,-3.8580180e-04,-4.2867892e-05,2.0458660e-03,3.0037265e-03,2.0376565e-03,1.2700101e-03,1.1524133e-03,-2.2898033e-04,-4.1870782e-03,-1.3524614e-02,5.3452460e-03
4.5998049e-01,-1.2542461e-04,-1.2371810e-03,-7.5708238e-05,-1.2516306e-02,-8.5160914e-02,-1.1731144e-02,3.4820566e-03,5.5108148e-03,-7.9521866e-04,2.2120487e-01,4.3584056e-01,-5.6623887e-02
4.6998048e-01,7.7873967e-05,-5.3491265e-05,7.5235004e-05,2.0366365e-02,1.1836058e-01,2.0342920e-02,3.2549575e-04,-9.2939530e-05,1.0030570e-04,-3.1565639e-01,-5.6037596e-01,8.9552522e-02
4.7998047e-01,-5.9074302e-05,-1.0323394e-03,6.7710043e-05,-1.3970472e-02,-9.7903480e-02,-1.3277304e-02,2.8134448e-03,4.2629596e-03,-2.1391919e-05,2.4879514e-01,4.3559033e-01,-1.2169774e-02
4.8998046e-01,-6.3206754e-05,-1.0387123e-03,5.2395762e-05,-4.1509910e-04,-6.3794344e-04,-4.1037661e-04,2.8633487e-03,4.4557650e-03,-7.3582133e-05,4.9903901e-03,1.9280557e-02,-5.2190264e-03
4.9998045e-01,-1.7047163e-04,-1.2521721e-03,-7.8731414e-05,-1.0813673e-02,-2.1368436e-02,-1.0593454e-02,3.5691914e-03,5.7127192e-03,-1.0312362e-03,7.0584336e-02,1.2569553e-01,-9.5765496e-02
5.0998044e-01,-2.2789518e-04,-1.2908033e-03,-9.3562241e-05,-5.7609996e-03,-3.8765977e-03,-5.7145480e-03,3.5994377e-03,5.9658643e-03,-8.3125945e-04,3.0246404e-03,2.5314538e-02,1.9997693e-02
5.1998043e-01,-1.6004478e-04,-5.7807904e-04,-1.3524592e-04,6.9445392e-03,7.1275502e-02,6.5892759e-03,2.1567844e-03,2.6638794e-03,-8.5356080e-04,-1.4426547e-01,-3.3019881e-01,-2.2301371e-03
5.2998042e-01,-1.5826328e-04,-5.5625002e-04,-1.5826676e-04,1.8348379e-04,2.1828781e-03,1.7298740e-04,2.3856343e-03,2.3053130e-03,-7.1242055e-04,2.2885011e-02,-3.5856673e-02,1.4114038e-02
5.3998041e-01,-1.2172813e-04,-5.1116311e-04,-1.1221629e-04,3.6665791e-03,4.5067545e-03,3.6428136e-03,2.4238740e-03,1.8998128e-03,-5.8656004e-04,3.8239716e-03,-4.0550058e-02,1.2586063e-02
5.4998040e-01,-1.5337468e-04,-5.8060411e-04,-1.1907254e-04,-3.1842119e-03,-6.9441059e-03,-3.1449834e-03,2.4351368e-03,2.4501105e-03,-8.3887290e-04,1.1262828e-03,5.5029826e-02,-2.5231310e-02
5.5998039e-01,-1.4171868e-04,-5.1886881e-04,-4.4951479e-05,1.1798547e-03,6.1735365e-03,1.1511675e-03,2.2233113e-03,2.2511623e-03,-4.5616561e-04,-2.1182565e-02,-1.9894842e-02,3.8270766e-02
5.6998038e-01,-7.7645218e-05,-3.1816957e-04,4.8661428e-05,6.4477746e-03,2.0062275e-02,6.3907950e-03,2.0616255e-03,8.7263682e-04,1.4686752e-04,-1.6168600e-02,-1.3785268e-01,6.0303370e-02
5.7998037e-01,-1.0621518e-04,-4.2247714e-04,-9.6817077e-06,-2.8808387e-03,-1.0428604e-02,-2.8409124e-03,2.1926829e-03,1.4484828e-03,-3.4151542e-04,1.3105757e-02,5.7584649e-02,-4.8838341e-02
5.8998036e-01,-6.9178488e-05,-9.0815042e-04,6.5023456e-05,3.5762474e-03,-4.8562611e-02,3.8868260e-03,2.6198226e-03,3.7674573e-03,4.7169731e-05,4.2714009e-02,2.3189768e-01,3.8868552e-02
5.9998059e-01,-5.8813623e-05,-1.0222019e-03,4.7203491e-05,1.0036636e-03,-1.1403620e-02,1.0817480e-03,2.8950946e-03,3.9893551e-03,-2.1557550e-04,2.7526568e-02,2.2189273e-02,-2.6273922e-02
6.0998058e-01,-1.5242069e-04,-1.3073080e-03,-8.9486366e-05,-9.4761702e-03,-2.8531897e-02,-9.1779770e-03,3.6559311e-03,6.0101501e-03,-1.2062762e-03,7.6083724e-02,2.0207969e-01,-9.9070165e-02
6.1998057e-01,2.4110720e-05,-4.1983970e-05,-2.8625709e-05,1.7755352e-02,1.2652026e-01,1.7638572e-02,6.9267447e-04,-4.1134523e-07,-8.2473820e-04,-2.9632595e-01,-6.0105672e-01,3.8153837e-02
6.2998056e-01,9.2217732e-05,7.7233935e-05,3.1221393e-05,6.8105708e-03,1.1917347e-02,6.8186366e-03,-4.4501306e-05,-6.9821235e-04,-5.7794624e-05,-7.3717648e-02,-6.9780167e-02,7.6694430e-02
6.3998055e-01,-9.8767175e-05,-1.0595359e-03,-3.8904576e-05,-1.9423399e-02,-1.1370382e-01,-1.8605348e-02,2.8063660e-03,4.2855736e-03,-3.1139428e-04,2.8508701e-01,4.9837907e-01,-2.5359990e-02
6.4998055e-01,2.6492945e-05,-1.5410138e-05,-2.6869443e-06,1.2549557e-02,1.0440829e-01,1.2539032e-02,2.1973074e-04,-1.3025732e-04,-4.7157417e-05,-2.5866378e-01,-4.4158351e-01,2.6423712e-02
6.5998054e-01,-1.3016794e-04,-2.4634282e-04,-1.3863963e-04,-1.5707704e-02,-2.3094923e-02,-1.5621980e-02,1.1242746e-03,1.2317614e-03,-9.9927136e-04,9.0454469e-02,1.3620200e-01,-9.5211486e-02
6.6998053e-01,-2.1187591e-04,-1.2611768e-03,-5.2118514e-05,-8.5611736e-03,-1.0149304e-01,-7.6349932e-03,3.8177502e-03,5.2494748e-03,-3.6611714e-04,2.6934782e-01,4.0177173e-01,6.3315483e-02
6.7998052e-01,-1.2224063e-04,-1.0608641e-03,2.9787626e-05,9.0188581e-03,2.0047691e-02,8.8709117e-03,2.8220602e-03,4.6839023e-03,1.3073914e-04,-9.9569092e-02,-5.6557300e-02,4.9685675e-02
6.8998051e-01,-6.3477830e-05,-3.7784206e-04,2.1966134e-05,5.9683335e-03,6.8302482e-02,5.7802324e-03,1.3589270e-03,1.4177554e-03,1.3014452e-04,-1.4631346e-01,-3.2661500e-01,-5.9462513e-05
6.9998050e-01,-1.7288146e-04,-5.3895989e-04,-8.5657814e-05,-1.0982453e-02,-1.6116995e-02,-1.0890443e-02,2.0850501e-03,2.5701413e-03,-7.7818242e-04,7.2612378e-02,1.1523870e-01,-9.0832780e-02
7.0998049e-01,-1.3601650e-04,-4.0904997e-04,-4.8288367e-05,3.7171923e-03,1.2987011e-02,3.6697092e-03,2.2858203e-03,1.2147549e-03,-2.7345274e-04,2.0077041e-02,-1.3553877e-01,5.0473016e-02
7.1998048e-01,-5.8742694e-05,-4.1981380e-04,4.4453835e-06,7.7257397e-03,-1.0865347e-03,7.7276160e-03,2.4451276e-03,1.1311320e-03,-1.3024983e-04,1.5930738e-02,-8.3622949e-03,1.4320304e-02
7.2998047e-01,-9.9899882e-05,-5.3997541e-04,-8.4233629e-05,-4.1475892e-03,-1.2015836e-02,-4.0845973e-03,2.3563388e-03,2.2923715e-03,-8.6628161e-04,-8.8788895e-03,1.1612406e-01,-7.3603248e-02
7.3998046e-01,-1.5979060e-04,-6.4118270e-04,-1.4983306e-04,-6.0197490e-03,-1.0125427e-02,-5.9502768e-03,2.3206555e-03,3.1199951e-03,-1.2031219e-03,-3.5683270e-03,8.2762439e-02,-3.3684062e-02
7.4998045e-01,-8.1994642e-05,-4.8890150e-04,-5.9040387e-05,7.8176332e-03,1.5224372e-02,7.7487818e-03,2.1654717e-03,1.6903675e-03,-6.5223809e-04,-1.5518399e-02,-1.4296289e-01,5.5088434e-02
7.5998044e-01,-1.2952024e-04,-1.1907110e-03,-8.0886332e-05,-5.0118834e-03,-7.0186028e-02,-4.3989653e-03,3.6402869e-03,4.9806536e-03,-8.1501108e-04,1.4748166e-01,3.2902892e-01,-1.6277314e-02
7.6998043e-01,-3.1601639e-05,-1.0047902e-03,5.1644382e-05,9.8434312e-03,1.8605324e-02,9.7147482e-03,2.7716444e-03,4.1459446e-03,-6.9836824e-06,-8.6864330e-02,-8.3470984e-02,8.0802817e-02
7.7998042e-01,-4.5250189e-05,-1.0093227e-03,6.6148477e-05,-1.3659612e-03,-4.5535161e-04,-1.3630533e-03,2.7515084e-03,4.2882161e-03,1.0042007e-04,-2.0136071e-03,1.4227163e-02,1.0740386e-02
7.8998041e-01,-1.5933964e-04,-1.2761482e-03,-6.6799929e-05,-1.1514558e-02,-2.6710406e-02,-1.1236431e-02,3.5193934e-03,6.0221700e-03,-1.0318247e-03,7.6788576e-02,1.7339556e-01,-1.1322459e-01
7.9998040e-01,-1.4888637e-04,-1.2319907e-03,-8.5058983e-05,1.0616733e-03,4.4181445e-03,1.0183981e-03,3.4296524e-03,5.8218525e-03,-1.1551813e-03,-8.9741106e-03,-2.0031773e-02,-1.2335667e-02
8.0998039e-01,2.7184729e-05,-6.4600055e-06,1.9324126e-05,1.7635928e-02,1.2254481e-01,1.7636604e-02,2.2475354e-04,-2.5081293e-04,-7.1402497e-05,-3.2049019e-01,-6.0726712e-01,1.0837798e-01
8.1998038e-01,-3.3589997e-05,2.2142461e-05,-2.8145211e-05,-6.0773797e-03,2.8624814e-03,-6.0765260e-03,1.9205222e-04,-1.7523517e-04,-7.4177455e-05,-3.2701354e-03,7.5577828e-03,-2.7749608e-04
8.2998037e-01,-2.6778931e-04,-1.5199103e-03,7.6017826e-05,-2.4144625e-02,-1.5423906e-01,-2.2442112e-02,4.7158444e-03,6.3579607e-03,9.7090512e-05,4.5237965e-01,6.5332021e-01,1.7126813e-02
8.3998036e-01,-2.3360955e-04,-1.5025013e-03,6.8869226e-05,3.4259415e-03,1.7460336e-03,3.4073721e-03,4.7018244e-03,6.2186626e-03,5.4095373e-05,-1.4020061e-03,-1.3929818e-02,-4.2995180e-03
8.4998059e-01,-1.4482397e-04,-7.0152516e-04,-1.5599335e-04,9.0737644e-03,8.0104810e-02,8.5947788e-03,2.2967396e-03,3.3942962e-03,-1.2931976e-03,-2.4050297e-01,-2.8243018e-01,-1.3472621e-01
8.5998058e-01,-1.2723666e-04,-4.5904838e-04,-9.0503391e-05,1.7965807e-03,2.4248043e-02,1.7152186e-03,1.5357090e-03,1.7688645e-03,-3.4824920e-04,-7.6103137e-02,-1.6254333e-01,9.4494930e-02
8.6998057e-01,-1.4283690e-04,-4.0357996e-04,-4.6168091e-05,-1.5462385e-03,5.5492895e-03,-1.5650579e-03,2.5087162e-03,9.3055072e-04,-8.5479406e-05,9.7300817e-02,-8.3831455e-02,2.6277005e-02
8.7998056e-01,-7.4310762e-05,-3.3116919e-04,4.2589965e-05,6.8672888e-03,7.2307156e-03,6.8488836e-03,2.2828117e-03,7.7254799e-04,2.6898962e-04,-2.2590474e-02,-1.5800289e-02,3.5446936e-02
8.8998055e-01,-8.4828842e-05,-4.0187033e-05,-5.7170516e-05,-1.0291908e-03,2.9098949e-02,-1.0546516e-03,8.0384315e-04,1.2366494e-04,-7.3475648e-04,-1.4789699e-01,-6.4888366e-02,-1.0037470e-01
8.9998055e-01,3.8586278e-06,-7.9138191e-06,8.1866935e-06,8.8706687e-03,3.2221996e-03,8.8687054e-03,3.6342192e-04,-2.1442157e-04,-8.3556896e-05,-4.4042166e-02,-3.3808683e-02,6.5120020e-02
9.0998054e-01,-1.2549423e-04,-1.0899649e-03,-4.8655053e-05,-1.3272779e-02,-1.0822267e-01,-1.2437837e-02,3.0759090e-03,4.5531678e-03,-3.6442033e-04,2.7124897e-01,4.7675939e-01,-2.8086371e-02
9.1998053e-01,-1.3096617e-04,-1.1641659e-03,-5.5719740e-05,-5.7518293e-04,-7.4204247e-03,-5.1313085e-04,3.7224255e-03,4.5384531e-03,-6.8028955e-04,6.4651712e-02,-1.4714651e-03,-3.1586952e-02
9.2998052e-01,1.9051683e-06,-1.2152987e-04,-3.4538978e-05,1.3377269e-02,1.0426285e-01,1.3203132e-02,7.4430771e-04,6.8490869e-04,-9.4287329e-04,-2.9781207e-01,-3.8535481e-01,-2.6258399e-02
9.3998051e-01,9.3807152e-05,-3.7849749e-05,7.6485460e-05,9.1917871e-03,8.3660934e-03,9.1903816e-03,2.9728708e-04,8.7633816e-05,9.8726665e-05,-4.4702106e-02,-5.9727545e-02,1.0416009e-01
9.4998050e-01,-7.0188078e-05,-1.0294860e-03,4.1886313e-05,-1.6683573e-02,-9.9182728e-02,-1.5993049e-02,2.8432432e-03,4.0776454e-03,-1.3138491e-04,2.5459585e-01,3.9900154e-01,-2.3011180e-02
9.5998049e-01,-1.3794367e-04,-1.0831974e-03,-2.6728068e-05,-6.7940042e-03,-5.3803969e-03,-6.7497110e-03,3.0629021e-03,4.4416023e-03,-2.9797808e-04,2.1965912e-02,3.6395724e-02,-1.6659333e-02
9.6998048e-01,-2.6114680e-04,-1.3916834e-03,-1.7852710e-04,-1.2454496e-02,-3.0879962e-02,-1.2105050e-02,3.7566793e-03,6.3779237e-03,-1.4922299e-03,6.9377793e-02,1.9363233e-01,-1.1942529e-01
9.7998047e-01,-2.4551609e-04,-1.3781227e-03,-1.3527112e-04,1.5697549e-03,1.3603197e-03,1.5526485e-03,3.6617333e-03,6.4107609e-03,-1.1058788e-03,-9.4946126e-03,3.2837299e-03,3.8635141e-02
9.8998046e-01,-1.9764138e-04,-1.2534852e-03,-6.2026329e-05,4.8349132e-03,1.2473649e-02,4.7134666e-03,3.5899827e-03,5.7188426e-03,-5.6919772e-04,-7.1750684e-03,-6.9191903e-02,5.3668163e-02
9.9998045e-01,-7.5134920e-05,-5.1373166e-04,-6.0113840e-05,1.2411132e-02,7.3976928e-02,1.2078873e-02,2.1132639e-03,2.2654251e-03,-3.4059913e-04,-1.4767202e-01,-3.4534207e-01,2.2859881e-02
1.0099804e+00,-1.0260712e-04,-4.9902076e-04,-1.0306886e-04,-2.7456749e-03,1.4709901e-03,-2.7488227e-03,2.1147343e-03,2.1501792e-03,-5.7155349e-04,1.4703519e-04,-1.1524608e-02,-2.3095458e-02
1.0199804e+00,-1.5560069e-04,-5.7675998e-04,-1.5641164e-04,-5.3230374e-03,-7.7733221e-03,-5.2764763e-03,2.4194129e-03,2.3152460e-03,-9.2161781e-04,3.0467895e-02,1.6506695e-02,-3.5006465e-02
1.0299804e+00,-1.3587759e-04,-5.8210513e-04,-1.2732403e-04,1.9724253e-03,-5.3498472e-04,1.9720730e-03,2.5024162e-03,2.2649026e-03,-7.3869446e-04,8.3003368e-03,-5.0343407e-03,1.8292352e-02
1.0399804e+00,-9.6592912e-05,-5.4596273e-04,-3.7492006e-05,3.9385878e-03,3.6131237e-03,3.9193612e-03,2.3811181e-03,2.1014368e-03,-3.8748278e-04,-1.2129823e-02,-1.6346599e-02,3.5121201e-02
1.0499804e+00,-5.9393371e-05,-4.0359650e-04,4.1757508e-05,3.7518325e-03,1.4232715e-02,3.7029100e-03,2.1865006e-03,1.1444147e-03,-2.0308204e-04,-1.9461772e-02,-9.5702295e-02,1.8440092e-02
1.0599804e+00,-1.9781569e-04,-1.1157133e-03,-2.0083005e-05,-1.4123820e-02,-7.1224313e-02,-1.3488641e-02,3.8249906e-03,4.8337452e-03,-6.7157759e-04,1.6384915e-01,3.6893340e-01,-4.6849601e-02
1.0699804e+00,-1.6739689e-04,-5.2771796e-04,-1.0832145e-04,3.1796714e-03,5.8799366e-02,2.9020987e-03,2.2774847e-03,2.3084337e-03,-1.2768531e-03,-1.5475073e-01,-2.5253139e-01,-6.0527604e-02
1.0798702e+00,-5.3051180e-05,-5.9044259e-05,-5.5065566e-05,1.1615469e-02,4.7378268e-02,1.1553924e-02,9.1686991e-04,-4.4805297e-05,-8.7292794e-04,-1.3757702e-01,-2.3794508e-01,4.0842428e-02
1.0898702e+00,-1.4973333e-04,-1.2805076e-03,-8.9251260e-05,-1.0128091e-02,-1.2216095e-01,-8.9904659e-03,3.6976993e-03,5.4782605e-03,-8.5610093e-04,2.7808321e-01,5.5230711e-01,1.6827027e-03
1.0998704e+00,-2.1119968e-05,-1.0160431e-03,4.3941978e-05,1.2932847e-02,2.6464516e-02,1.2750162e-02,2.7320214e-03,4.2091289e-03,3.0874117e-05,-9.6565578e-02,-1.2691026e-01,8.8695475e-02
1.1098704e+00,-2.6748356e-05,-1.0356740e-03,6.3476794e-05,-5.6825168e-04,-1.9639350e-03,-5.5441077e-04,2.7569989e-03,4.2932276e-03,-3.8151610e-06,2.4977530e-03,8.4098843e-03,-3.4689311e-03
1.1198704e+00,5.4337727e-05,-7.6072929e-07,1.3378331e-05,8.1330589e-03,1.0348726e-01,8.1372592e-03,2.3630805e-04,-2.7665312e-04,1.5757495e-06,-2.5206933e-01,-4.5698851e-01,5.3909157e-04
1.1298704e+00,-6.8408372e-05,-8.2768486e-05,-1.3362610e-04,-1.2293752e-02,-8.1886148e-03,-1.2263596e-02,9.1284784e-04,-7.8318110e-05,-9.4949609e-04,6.7654044e-02,1.9833520e-02,-9.5107275e-02
1.1398704e+00,-1.5784794e-04,-1.2359646e-03,-6.1219053e-05,-9.3669458e-03,-1.1533117e-01,-8.3431495e-03,3.6234973e-03,5.1634346e-03,-5.7928088e-04,2.7106521e-01,5.2417577e-01,3.7021557e-02
1.1498704e+00,-1.4074539e-04,-1.1293084e-03,-5.8231602e-06,1.7429955e-03,1.0668417e-02,1.6590612e-03,3.0588580e-03,4.7888490e-03,-7.1679618e-05,-5.6463982e-02,-3.7458589e-02,5.0760175e-02
1.1598704e+00,-1.7199119e-04,-1.0990159e-03,-1.2449787e-05,-3.1156027e-03,3.0238241e-03,-3.1387797e-03,2.9934290e-03,4.7171069e-03,-3.2590738e-05,-6.5429065e-03,-7.1742200e-03,3.9088918e-03
1.1698704e+00,-1.4771495e-04,-4.4687096e-04,-6.7419389e-05,2.5743262e-03,6.5212561e-02,2.3279155e-03,2.2360745e-03,1.5147041e-03,-3.6337836e-04,-7.5735521e-02,-3.2024058e-01,-3.3078794e-02
1.1798704e+00,-1.2952022e-04,-3.4209123e-04,-4.6653083e-05,1.8433976e-03,1.0474879e-02,1.8132541e-03,2.2638904e-03,5.7391553e-04,-1.1351920e-04,2.7815846e-03,-9.4078948e-02,2.4985939e-02
1.1898704e+00,-1.4247426e-04,-4.1543128e-04,-4.5053314e-05,-1.3123858e-03,-7.3329699e-03,-1.2841631e-03,2.2278499e-03,1.4440919e-03,-4.9812799e-04,-3.6040453e-03,8.7017716e-02,-3.8460915e-02
1.1998703e+00,-1.0588726e-04,-4.4459741e-04,1.1252196e-05,3.6543717e-03,-2.9155515e-03,3.6638772e-03,1.5977258e-03,1.8863831e-03,-9.1007131e-05,-6.3012478e-02,4.4229169e-02,4.0712125e-02
1.2098703e+00,-1.1482021e-04,-5.8027145e-04,-2.0139745e-05,-9.2739725e-04,-1.3567413e-02,-8.5791109e-04,2.4896185e-03,2.5832498e-03,-3.6594900e-04,8.9189358e-02,6.9686735e-02,-2.7494213e-02
1.2198703e+00,-9.8019622e-05,-4.2320863e-04,-6.3103151e-05,1.7157515e-03,1.5704658e-02,1.6591795e-03,2.2260681e-03,1.2820544e-03,-4.3593903e-04,-2.6355063e-02,-1.3011966e-01,-6.9990100e-03
1.2298703e+00,-1.6338155e-05,4.0203708e-05,-6.5254998e-05,8.2109105e-03,4.6326570e-02,8.2086198e-03,7.9221675e-04,-1.0045860e-03,-7.4049181e-04,-1.4338527e-01,-2.2866426e-01,-3.0455306e-02
1.2398703e+00,9.4629211e-05,4.9691005e-05,3.7173980e-05,1.1096582e-02,9.3921861e-04,1.1097721e-02,1.1321196e-04,-7.4393009e-04,2.4513956e-05,-6.7900544e-02,2.6065612e-02,7.6500649e-02
1.2498703e+00,-2.9529512e-05,-1.0434567e-03,5.9040791e-05,-1.2725081e-02,-1.0933206e-01,-1.1942425e-02,2.8343373e-03,4.3370254e-03,4.7400801e-05,2.7211280e-01,5.0809604e-01,2.2886866e-03
1.2598703e+00,-1.7727276e-05,-1.1048516e-03,6.4452968e-05,1.1621832e-03,-6.1374305e-03,1.2085286e-03,2.9344079e-03,4.6062635e-03,1.7616205e-05,1.0007061e-02,2.6923834e-02,-2.9784624e-03
1.2698703e+00,-8.3919513e-05,-1.2458834e-03,-6.8895981e-05,-6.6758899e-03,-1.4115391e-02,-6.5358182e-03,3.5991735e-03,5.4916679e-03,-8.9823407e-04,6.6476625e-02,8.8540524e-02,-9.1585115e-02
1.2798703e+00,-1.5130244e-05,-1.5810659e-04,-7.5033770e-05,6.9690310e-03,1.0877754e-01,6.7916313e-03,7.5614001e-04,7.2949597e-04,-1.1415779e-03,-2.8430362e-01,-4.7621765e-01,-2.4334404e-02
1.2898703e+00,-8.4722966e-05,-1.4521845e-04,-8.1568681e-05,-6.9661433e-03,1.2882318e-03,-6.9525157e-03,7.3628880e-04,8.2096274e-04,-1.1236390e-03,-1.9851233e-03,9.1466850e-03,1.7938886e-03
1.2998703e+00,-8.4255290e-05,-4.4704890e-04,-6.1447694e-06,3.2925250e-06,-3.0182967e-02,1.0398560e-04,1.4405525e-03,1.8957127e-03,-1.1274772e-04,7.0426437e-02,1.0747510e-01,1.0108923e-01
1.3098702e+00,-2.0802515e-04,-1.2138928e-03,-2.3365018e-05,-1.2677764e-02,-7.6699494e-02,-1.1972853e-02,3.8405935e-03,5.1866019e-03,-5.1272865e-04,2.4000433e-01,3.2908924e-01,-3.9998131e-02
1.3198702e+00,-8.0073600e-05,-5.3722958e-04,-3.9492474e-05,1.2941639e-02,6.7671529e-02,1.2619464e-02,2.0565568e-03,2.4873175e-03,-5.7370058e-04,-1.7840384e-01,-2.6992870e-01,-6.0971990e-03
1.3298702e+00,-1.6001972e-04,-5.4900872e-04,-1.2417884e-04,-8.0034603e-03,-1.1798404e-03,-7.9854842e-03,2.1475195e-03,2.3909936e-03,-7.9208374e-04,9.0962751e-03,-9.6323995e-03,-2.1838337e-02
1.3398702e+00,-1.8405378e-04,-5.5567540e-04,-1.4608199e-04,-2.4066503e-03,-6.6602900e-04,-2.4003410e-03,2.4178911e-03,2.1544535e-03,-6.8110821e-04,2.7037190e-02,-2.3654038e-02,1.1097564e-02
1.3498704e+00,-1.2347770e-04,-4.6214340e-04,-6.2172257e-05,6.0824379e-03,9.3462060e-03,6.0428972e-03,2.4218215e-03,1.3089534e-03,-3.8546482e-04,3.9303142e-04,-8.4548071e-02,2.9563662e-02
1.3598704e+00,-5.8573765e-05,-4.5057235e-04,2.1479176e-05,6.4946508e-03,1.1540089e-03,6.4866972e-03,2.1934983e-03,1.7174255e-03,-2.6639497e-04,-2.2832342e-02,4.0847248e-02,1.1906996e-02
1.3698704e+00,-1.4961594e-04,-6.0284590e-04,-3.2910438e-05,-9.1469939e-03,-1.5235847e-02,-9.0469941e-03,2.2628092e-03,3.2098649e-03,-9.1587424e-04,6.9310959e-03,1.4924408e-01,-6.4947989e-02
1.3798704e+00,-6.9662803e-05,-4.3441571e-04,-1.2044065e-05,8.0361589e-03,1.6834644e-02,7.9720179e-03,2.2237139e-03,1.1813720e-03,-4.2577115e-04,-3.9095345e-03,-2.0284948e-01,4.9010356e-02
1.3898704e+00,-6.4481784e-05,-4.2857278e-04,-4.9859308e-05,5.1974176e-04,5.8388363e-04,5.1692050e-04,2.0906395e-03,1.3049664e-03,-8.0905895e-04,-1.3307458e-02,1.2359455e-02,-3.8328816e-02
1.3998704e+00,-3.1352376e-05,-9.8013542e-04,5.0041430e-05,3.1630275e-03,-5.5151947e-02,3.5253889e-03,2.7337345e-03,3.8667305e-03,-2.6518643e-04,6.4309568e-02,2.5617665e-01,5.4387304e-02
1.4098704e+00,-5.1549016e-05,-1.0304799e-03,4.4996286e-05,-2.0336677e-03,-5.0374394e-03,-1.9980578e-03,2.7204487e-03,4.2304492e-03,-1.5513463e-04,-1.3285863e-03,3.6371909e-02,1.1005191e-02
1.4198704e+00,-8.6143028e-05,-1.1528728e-03,-1.9522889e-05,-3.5025519e-03,-1.2244562e-02,-3.3967984e-03,3.3818528e-03,4.9695912e-03,-5.1342741e-04,6.6140470e-02,7.3914273e-02,-3.5829312e-02
1.4298704e+00,1.2986765e-05,-7.1520273e-05,-4.7435486e-05,9.9908749e-03,1.0812842e-01,9.9104370e-03,6.4982614e-04,-4.7417451e-05,-7.6888971e-04,-2.7320292e-01,-5.0170135e-01,-2.5546255e-02
1.4398704e+00,5.5054124e-05,1.0480525e-05,2.0481977e-05,4.2079974e-03,8.1979945e-03,4.2095608e-03,1.2466269e-04,-3.7275357e-04,-5.5918834e-05,-5.2516395e-02,-3.2533642e-02,7.1297156e-02
1.4498703e+00,-1.4721901e-04,-1.0903950e-03,-2.0186635e-05,-2.0560344e-02,-1.1011589e-01,-1.9731836e-02,2.9888377e-03,4.4640261e-03,-2.0112479e-04,2.8641777e-01,4.8367842e-01,-1.4520609e-02
1.4598703e+00,-7.6912529e-05,-5.1521277e-04,-6.4374378e-06,7.1217983e-03,5.7520300e-02,6.9215194e-03,1.5701844e-03,1.8827889e-03,-1.1921267e-04,-1.4186546e-01,-2.5812396e-01,8.1912192e-03
1.4698703e+00,-2.1419658e-04,-1.2603281e-03,-4.8724384e-05,-1.4008010e-02,-7.4535541e-02,-1.3309683e-02,3.6532473e-03,5.5183374e-03,-5.4463017e-04,2.0830648e-01,3.6355520e-01,-4.2541791e-02
1.4798703e+00,-5.0057921e-05,-5.1850307e-04,4.9778134e-06,1.6562715e-02,7.4186354e-02,1.6246456e-02,1.8765393e-03,2.1259733e-03,-5.8846731e-04,-1.7767097e-01,-3.3923674e-01,-4.3837176e-03
1.4898703e+00,-1.6095893e-04,-5.9589376e-04,-1.3524870e-04,-1.1119543e-02,-7.7405118e-03,-1.1059595e-02,2.3607880e-03,2.4969221e-03,-1.0097865e-03,4.8424920e-02,3.7094910e-02,-4.2131963e-02
1.4998703e+00,-1.5495599e-04,-4.1873844e-04,-7.7534860e-05,6.4435788e-04,1.7714700e-02,5.7930417e-04,2.4748165e-03,1.1713561e-03,-3.7209669e-04,1.1402858e-02,-1.3255673e-01,6.3769046e-02
1.5098703e+00,-1.2403991e-04,-4.0116358e-04,-5.0441727e-05,3.0959764e-03,1.7537431e-03,3.0893686e-03,2.3424602e-03,1.1334851e-03,-8.3011062e-05,-1.3235646e-02,-3.7870993e-03,2.8908590e-02
1.5198703e+00,-9.9237426e-05,-4.7200909e-04,-4.5643951e-05,2.4661830e-03,-7.0854066e-03,2.4918255e-03,2.1068072e-03,1.7542633e-03,-3.4824866e-04,-2.3565320e-02,6.2077878e-02,-2.6523785e-02
1.5298703e+00,-7.0829324e-05,-5.1547269e-04,-2.8382565e-05,2.8333142e-03,-4.3467095e-03,2.8477647e-03,2.1153503e-03,1.9884630e-03,-5.9917768e-04,8.5431285e-04,2.3419996e-02,-2.5092926e-02
1.5398703e+00,-4.7983232e-05,-3.6668081e-04,1.3867042e-05,2.3052529e-03,1.4878619e-02,2.2676089e-03,1.3580575e-03,1.1132241e-03,-1.9120170e-04,-7.5729352e-02,-8.7523977e-02,4.0797636e-02
1.5498703e+00,-1.1100079e-04,-4.6534532e-04,-8.4865281e-05,-6.3301326e-03,-9.8601941e-03,-6.2831063e-03,2.3366264e-03,1.3491636e-03,-8.4678884e-04,9.7856980e-02,2.3593975e-02,-6.5558776e-02
1.5598702e+00,-2.2111013e-05,-3.5191322e-05,-3.0833419e-05,8.9314518e-03,4.3004987e-02,8.8969940e-03,8.0946113e-04,-3.6492287e-04,-8.6092371e-04,-1.5271667e-01,-1.7140881e-01,-1.4134884e-03
1.5698702e+00,-1.0062365e-04,-1.2555444e-03,-7.7759815e-05,-8.2790293e-03,-1.2205171e-01,-7.1250453e-03,3.4346046e-03,5.8763498e-03,-1.1038924e-03,2.6251460e-01,6.2412786e-01,-2.4296891e-02
1.5798702e+00,-1.1256098e-04,-1.2617971e-03,-4.4598712e-05,-1.1970625e-03,-6.2817485e-04,-1.1888675e-03,3.4287283e-03,5.8777051e-03,-9.9868135e-04,-5.8762848e-04,1.3552884e-04,1.0521113e-02
1.5898702e+00,-1.4966607e-04,-1.2040261e-03,-9.3637365e-05,-3.6944522e-03,5.7697989e-03,-3.7377977e-03,3.4690049e-03,5.4103217e-03,-1.0793991e-03,4.0276592e-03,-4.6738379e-02,-8.0717780e-03
1.5998704e+00,3.5259906e-05,2.6899826e-05,2.3821130e-05,1.8521340e-02,1.2307388e-01,1.8568674e-02,2.1069283e-04,-6.4785244e-04,-1.7479141e-04,-3.2582375e-01,-6.0580355e-01,9.0458694e-02
1.6098704e+00,-6.9662553e-05,-1.0497935e-03,1.4470806e-05,-1.0796308e-02,-1.0768292e-01,-1.0035488e-02,2.7972509e-03,4.2147675e-03,-2.7786492e-04,2.5865605e-01,4.8626246e-01,-1.0307361e-02
1.6198704e+00,-7.7870173e-05,-5.7095327e-04,-8.6748374e-05,-7.2302236e-04,4.7883668e-02,-9.2903940e-04,2.0560894e-03,2.2743521e-03,-8.7173696e-04,-7.4116221e-02,-1.9404172e-01,-5.9387261e-02
1.6298704e+00,-9.0266208e-05,-5.6446115e-04,-4.6455918e-05,-1.2387750e-03,6.4875838e-04,-1.2406717e-03,2.1311755e-03,2.4959861e-03,-4.4912141e-04,7.5086233e-03,2.2163414e-02,4.2261595e-02
1.6398704e+00,-1.2544993e-04,-5.7688574e-04,-4.5889387e-05,-3.5225196e-03,-1.2440377e-03,-3.5136681e-03,2.1754968e-03,2.6268950e-03,-4.1210835e-04,4.4321273e-03,1.3090910e-02,3.7013100e-03
1.6498704e+00,-1.2644045e-04,-4.2179127e-04,-8.1650664e-05,-7.6292639e-05,1.5509439e-02,-1.2053787e-04,1.4695009e-03,1.3869231e-03,-3.2251171e-04,-7.0599652e-02,-1.2399732e-01,8.9596723e-03
1.6598704e+00,-1.5761379e-04,-4.3675012e-04,-9.6882568e-05,-3.1227166e-03,-1.4930627e-03,-3.1133057e-03,2.2265720e-03,1.3230992e-03,-6.5969481e-04,7.5707178e-02,-6.3823899e-03,-3.3718342e-02
1.6698704e+00,-1.3417461e-04,-4.2426604e-04,-2.6969410e-05,2.3467594e-03,1.2460651e-03,2.3423280e-03,2.2461491e-03,1.2478731e-03,-1.7073807e-05,1.9577155e-03,-7.5226218e-03,6.4262162e-02
1.6798704e+00,-6.8557236e-05,-3.6435301e-04,5.2681399e-05,6.5731220e-03,5.9825501e-03,6.5583447e-03,2.1957255e-03,8.6328579e-04,2.6828716e-04,-5.0423610e-03,-3.8458765e-02,2.8536124e-02
1.6898704e+00,-6.1893190e-05,-4.5285427e-04,9.4029654e-06,6.4622977e-04,-8.8505041e-03,6.8119168e-04,2.3068130e-03,1.6970768e-03,-3.6300137e-04,1.1108756e-02,8.3379180e-02,-6.3128913e-02
1.6998703e+00,-1.0950567e-04,-6.0219223e-04,-1.1945036e-04,-4.8018010e-03,-1.4935417e-02,-4.7152709e-03,2.2903950e-03,2.6506363e-03,-1.3358780e-03,-1.6417998e-03,9.5356038e-02,-9.7287758e-02
1.7098703e+00,-4.6689750e-06,-6.0266486e-05,-4.0987980e-05,1.0530418e-02,5.4186060e-02,1.0470769e-02,6.7795875e-04,5.2887971e-05,-9.5435920e-04,-1.6124378e-01,-2.5977508e-01,3.8151918e-02
1.7198703e+00,-7.0720642e-05,-1.0407830e-03,1.7220778e-06,-6.9487476e-03,-9.8052279e-02,-6.2343487e-03,3.4739627e-03,3.7503116e-03,-4.5233319e-04,2.7960066e-01,3.6974272e-01,5.0202649e-02
1.7298703e+00,-3.9487669e-05,-1.0919451e-03,6.6591641e-05,3.1069009e-03,-5.1131220e-03,3.1446506e-03,3.4553891e-03,4.4220630e-03,-4.1559043e-04,-1.8573628e-03,6.7175204e-02,3.6742802e-03
1.7398703e+00,-8.2966969e-06,-1.0365828e-03,1.1425350e-04,3.1345343e-03,5.5405347e-03,3.0959054e-03,2.8375657e-03,4.2390866e-03,8.4237646e-05,-6.1782392e-02,-1.8297665e-02,4.9982855e-02
1.7498703e+00,-1.0392737e-04,-1.0857261e-03,1.4339711e-05,-9.5793952e-03,-4.9298496e-03,-9.5387256e-03,2.9476424e-03,4.5788523e-03,-1.9604849e-04,1.1007680e-02,3.3976610e-02,-2.8028640e-02
1.7598703e+00,-9.3041543e-05,-5.4762902e-04,-9.7323386e-05,1.2019837e-03,5.3809353e-02,9.8444436e-04,2.0913278e-03,1.9175515e-03,-7.9821504e-04,-8.5631549e-02,-2.6613034e-01,-6.0216712e-02
1.7698703e+00,-7.8323281e-05,-5.0515637e-04,-7.1569912e-05,1.4815209e-03,4.2465899e-03,1.4640409e-03,2.1040587e-03,1.6539116e-03,-5.1661148e-04,1.2730995e-03,-2.6364014e-02,2.8160382e-02
1.7798703e+00,-8.6079837e-05,-6.1363270e-04,-6.3449130e-05,-7.9779998e-04,-1.0848260e-02,-7.4392443e-04,1.9789984e-03,2.8610988e-03,-8.7410110e-04,-1.2506048e-02,1.2071884e-01,-3.5748996e-02
1.7898703e+00,-1.3414741e-05,-2.2135957e-05,-3.2567455e-06,7.2749908e-03,5.9148911e-02,7.2647107e-03,1.4964152e-04,3.6912159e-05,5.1877854e-05,-1.8293586e-01,-2.8241894e-01,9.2597984e-02
1.7998703e+00,-8.4250037e-05,-4.3952090e-04,-2.5895040e-05,-7.1752635e-03,-4.1733492e-02,-7.0206462e-03,2.1815775e-03,1.4904308e-03,-9.7158101e-05,2.0319379e-01,1.4535200e-01,-1.4903610e-02
1.8098702e+00,-1.1431425e-04,-4.0677710e-04,-6.4590391e-05,-2.9994423e-03,3.2781972e-03,-3.0092401e-03,2.3486068e-03,1.0764662e-03,-2.3835376e-04,1.6702948e-02,-4.1396503e-02,-1.4119580e-02
1.8198702e+00,-1.5950434e-04,-5.2654330e-04,-1.0769093e-04,-4.5503939e-03,-1.1974591e-02,-4.4928540e-03,2.3149357e-03,1.8768411e-03,-8.1189510e-04,-3.3671053e-03,8.0037572e-02,-5.7354188e-02
1.8298702e+00,-1.6417604e-04,-5.4777592e-04,-8.6867300e-05,-4.7246877e-04,-2.1231670e-03,-4.6225437e-04,2.3200585e-03,2.1380361e-03,-7.9979652e-04,5.1228043e-04,2.6119519e-02,1.2098589e-03
1.8398702e+00,-7.2831334e-05,-3.0652114e-04,5.8196869e-05,9.1877298e-03,2.4108525e-02,9.1258921e-03,2.3182796e-03,4.6700568e-04,2.9059938e-04,-1.7789323e-04,-1.6710320e-01,1.0903969e-01
1.8498704e+00,-5.9769560e-05,-3.4435002e-04,3.6577791e-05,1.2969270e-03,-3.7852996e-03,1.3080969e-03,2.4050596e-03,4.8373812e-04,9.1068377e-05,8.6778026e-03,1.6732054e-03,-1.9952644e-02
1.8598704e+00,-3.3463304e-05,1.4546077e-05,-2.9828926e-05,2.6620446e-03,3.5885966e-02,2.6491348e-03,8.1719108e-04,-5.7459877e-04,-7.9434385e-04,-1.5878701e-01,-1.0583379e-01,-8.8541308e-02
1.8698704e+00,-2.8775978e-05,-5.8227600e-05,-5.8630490e-05,4.6332752e-04,-7.2777159e-03,4.6880857e-04,8.1444070e-04,8.1217637e-05,-1.1134020e-03,-2.7503802e-04,6.5581703e-02,-3.1905846e-02
1.8798704e+00,-3.8528598e-05,-4.6625421e-04,-2.6141072e-05,-1.0645988e-03,-4.0801688e-02,-9.2273005e-04,2.1735482e-03,1.2700977e-03,-6.6848355e-04,1.3591088e-01,1.1888812e-01,4.4491888e-02
1.8898704e+00,-9.6663707e-05,-1.1828359e-03,-3.0168726e-05,-6.0650188e-03,-7.1667212e-02,-5.4335244e-03,3.4540707e-03,5.2446494e-03,-6.9258673e-04,1.2805237e-01,3.9745555e-01,-2.4103202e-03
1.8998704e+00,1.5693712e-04,-1.2045390e-05,9.9184439e-05,2.5368531e-02,1.1706878e-01,2.5399592e-02,1.1963776e-04,-2.8956170e-04,2.2012503e-04,-3.3344361e-01,-5.5342164e-01,9.1271263e-02
1.9098704e+00,9.4321041e-05,7.3351633e-06,4.7403348e-05,-6.2614104e-03,1.9416956e-03,-6.2606909e-03,1.2261326e-04,-4.5847587e-04,-5.4010355e-06,2.9755067e-04,-1.6891433e-02,-2.2552628e-02
1.9198704e+00,-1.1211115e-04,-5.1914071e-04,-1.1664194e-04,-2.0776362e-02,-5.2637380e-02,-2.0535564e-02,2.1887908e-03,1.7031946e-03,-8.6932824e-04,2.0661795e-01,2.1616725e-01,-8.6392803e-02
1.9298704e+00,-1.7538999e-04,-6.4918823e-04,-1.5045115e-04,-6.3644615e-03,-1.3008249e-02,-6.2838962e-03,2.2991084e-03,2.8667079e-03,-1.0577041e-03,1.1031766e-02,1.1635144e-01,-1.8837601e-02
1.9398704e+00,-2.5988563e-04,-1.3780214e-03,-1.3918300e-04,-8.7315256e-03,-7.2903620e-02,-7.9750602e-03,3.7363896e-03,6.3736407e-03,-1.1477306e-03,1.4372826e-01,3.5069362e-01,-9.0026613e-03
1.9498703e+00,-1.1164528e-04,-1.1153788e-03,4.4363410e-05,1.4898614e-02,2.6292827e-02,1.4698169e-02,2.8930696e-03,4.8461339e-03,9.1623316e-05,-8.4332081e-02,-1.5275082e-01,1.2393551e-01
1.9598703e+00,-5.8879945e-05,-3.9586946e-04,2.3814556e-05,5.4313968e-03,7.1946067e-02,5.1859380e-03,2.1643141e-03,1.2715478e-03,1.6173214e-04,-7.2875621e-02,-3.5745896e-01,7.0108889e-03
1.9698703e+00,-1.9048439e-04,-4.5838561e-04,-1.0922075e-04,-1.3179689e-02,-6.2444621e-03,-1.3144601e-02,2.2304282e-03,1.6890193e-03,-4.0437833e-04,6.6114259e-03,4.1747186e-02,-5.6611101e-02
1.9798703e+00,-1.8257917e-04,-4.9159365e-04,-1.2846630e-04,7.8382267e-04,-3.3212643e-03,7.9526061e-04,2.2350027e-03,1.6421208e-03,-9.1573863e-04,4.5744191e-04,-4.6898484e-03,-5.1136078e-02
1.9898703e+00,-1.0606209e-04,-4.9568280e-04,-6.8093617e-05,7.6552796e-03,-4.0794515e-04,7.6482014e-03,1.6318529e-03,1.7594570e-03,-5.5449317e-04,-6.0315038e-02,1.1733628e-02,3.6124580e-02
1.9998703e+00,-6.4991532e-05,-4.4594515e-04,-1.0139221e-05,4.1153512e-03,4.9749209e-03,4.0973536e-03,1.4999284e-03,1.7839217e-03,-2.0355630e-04,-1.3192455e-02,2.4464736e-03,3.5093721e-02
2.0098703e+00,-8.2774208e-05,-4.2062851e-04,8.3342293e-06,-1.7728911e-03,2.5330414e-03,-1.7816788e-03,2.1763592e-03,1.3987843e-03,-7.6401838e-05,6.7643140e-02,-3.8513774e-02,1.2715458e-02
2.0198703e+00,-6.3512102e-05,-3.4738567e-04,-1.6170498e-05,1.9405674e-03,7.3225721e-03,1.9183234e-03,1.8866938e-03,1.0032104e-03,-2.8028811e-04,-2.8966566e-02,-3.9557432e-02,-2.0388647e-02
2.0298703e+00,-1.5054963e-05,-4.1567163e-04,-1.0242255e-05,4.8364708e-03,-6.8315103e-03,4.8508571e-03,1.8544057e-03,1.2518257e-03,-7.0676450e-04,-3.2288095e-03,2.4861560e-02,-4.2647680e-02
2.0398703e+00,-4.8397347e-05,-9.8761282e-04,1.8437794e-05,-3.4894430e-03,-5.7197629e-02,-3.1085059e-03,2.6982591e-03,3.9307520e-03,-2.6669784e-04,8.4385419e-02,2.6789288e-01,4.4006708e-02
2.0498703e+00,-1.3935444e-04,-1.2561515e-03,-5.3842216e-05,-9.2008076e-03,-2.6871370e-02,-8.9370356e-03,3.5977362e-03,5.5891510e-03,-9.3887374e-04,8.9947788e-02,1.6584006e-01,-6.7217654e-02
2.0598702e+00,-6.6492483e-05,-1.1836905e-03,3.7587265e-05,7.3142934e-03,7.2576607e-03,7.2464576e-03,3.4799128e-03,5.0853901e-03,-4.0074275e-04,-1.1782343e-02,-5.0376143e-02,5.3813150e-02
2.0698702e+00,-6.9747110e-05,-1.1633076e-03,1.3803970e-05,-3.1875536e-04,2.0377194e-03,-3.3548690e-04,3.3934746e-03,5.0186149e-03,-6.4891305e-04,-8.6438303e-03,-6.6775223e-03,-2.4817054e-02
2.0798702e+00,2.1538883e-05,1.9051908e-05,6.4175989e-06,9.1528185e-03,1.1822995e-01,9.1834044e-03,1.9671584e-04,-4.7153515e-04,-1.0426041e-04,-3.1967618e-01,-5.4901553e-01,5.4465316e-02
2.0898702e+00,-1.1035672e-04,-4.3302827e-04,-6.7206481e-05,-1.3254973e-02,-4.5208329e-02,-1.3122925e-02,1.3640302e-03,1.3912461e-03,-2.8411644e-04,1.1673155e-01,1.8627830e-01,-1.7985620e-02
2.0998704e+00,-9.7719907e-05,-5.4672535e-04,-6.2592146e-05,1.2378529e-03,-1.1369617e-02,1.2874406e-03,2.3016560e-03,2.1240497e-03,-2.9453512e-04,9.3760434e-02,7.3278681e-02,-1.0418433e-03
2.1098704e+00,-1.6698120e-04,-1.4968300e-03,1.7490280e-04,-7.3633575e-03,-9.5016593e-02,-6.3700062e-03,4.6481811e-03,5.9025939e-03,6.2464423e-04,2.3465273e-01,3.7785478e-01,9.1918022e-02
2.1198704e+00,-2.3649123e-04,-1.3216312e-03,-1.1740278e-04,-6.8902097e-03,1.7504141e-02,-7.0505298e-03,3.7648226e-03,5.9732846e-03,-7.4954636e-04,-8.8335931e-02,7.0690841e-03,-1.3741919e-01
2.1298704e+00,-1.7872509e-04,-5.9834512e-04,-1.4100718e-04,5.9548399e-03,7.2328298e-02,5.5976399e-03,2.4009388e-03,2.4094725e-03,-7.9334462e-04,-1.3638851e-01,-3.5638155e-01,-4.3798297e-03
2.1398704e+00,-1.2422185e-04,-3.7486441e-04,-2.0641939e-05,5.5033018e-03,2.2339377e-02,5.4328005e-03,2.4070983e-03,8.2121428e-04,1.4792865e-04,6.1594697e-04,-1.5882598e-01,9.4127416e-02
2.1498704e+00,-6.8108327e-05,-2.4718465e-04,8.8346514e-05,5.6371384e-03,1.2756262e-02,5.6121840e-03,2.2131814e-03,1.2917688e-04,4.3884336e-04,-1.9391712e-02,-6.9203807e-02,2.9091499e-02
2.1598704e+00,-6.5355697e-05,-4.8158196e-04,3.6482958e-05,2.2337013e-04,-2.3439693e-02,3.2317558e-04,2.2162462e-03,2.0459706e-03,-2.0259302e-04,3.0648266e-04,1.9167955e-01,-6.4143700e-02
2.1698704e+00,-4.7824591e-05,-4.5784762e-04,1.2822188e-05,1.7586369e-03,2.3727821e-03,1.7484577e-03,2.0634857e-03,1.6960290e-03,-3.5990032e-04,-1.5276059e-02,-3.4994191e-02,-1.5730745e-02
2.1798704e+00,-5.4744322e-05,-4.2218717e-04,-4.1909542e-05,-6.8436870e-04,3.5668634e-03,-6.9532882e-04,2.2266512e-03,1.0339680e-03,-4.8715557e-04,1.6316565e-02,-6.6206165e-02,-1.2725537e-02
2.1898704e+00,-1.1681154e-04,-1.1885379e-03,-4.8332890e-05,-6.4965267e-03,-7.6640186e-02,-5.8369491e-03,3.7122298e-03,4.7526094e-03,-8.6315372e-04,1.4855800e-01,3.7186450e-01,-3.7599850e-02
2.1998703e+00,-1.3576015e-04,-1.2944973e-03,-8.5525045e-05,-1.9361713e-03,-1.0599641e-02,-1.8313779e-03,3.6894195e-03,5.7773808e-03,-1.1769372e-03,-2.2810283e-03,1.0247723e-01,-3.1378377e-02
2.2098703e+00,-3.4848571e-05,-8.9341636e-05,-5.8779810e-05,1.0192852e-02,1.2050989e-01,1.0058108e-02,7.7626552e-04,2.0614060e-04,-8.0655228e-04,-2.9131568e-01,-5.5712455e-01,3.7038526e-02
2.2198703e+00,-1.3595598e-04,-1.2152220e-03,-4.8839322e-05,-1.0511014e-02,-1.1260321e-01,-9.5174454e-03,3.5255106e-03,5.2388255e-03,-3.3592287e-04,2.7492477e-01,5.0326897e-01,4.7062986e-02
2.2298703e+00,-1.6058784e-04,-1.2899702e-03,-7.5527951e-05,-2.4913142e-03,-7.4794180e-03,-2.4205976e-03,3.5384590e-03,5.4703653e-03,-6.8728671e-04,1.2948439e-03,2.3153999e-02,-3.5136417e-02
2.2398703e+00,-1.5771472e-04,-1.2580767e-03,-5.2414447e-05,2.9674791e-04,3.1899586e-03,2.7050165e-04,2.9423526e-03,5.2538841e-03,-1.8400014e-04,-5.9610704e-02,-2.1648143e-02,5.0328704e-02
2.2498703e+00,-3.2661280e-04,-1.2904056e-03,-7.8582659e-05,-1.6899982e-02,-3.2778976e-03,-1.6870978e-02,2.9550584e-03,5.6240240e-03,-4.0147988e-05,1.2705888e-03,3.7014031e-02,1.4385229e-02
2.2598703e+00,-6.1063104e-04,-1.5923212e-03,1.1580387e-04,-2.8520945e-02,-3.0223219e-02,-2.8248455e-02,4.8696571e-03,6.0090599e-03,9.7097272e-04,1.9146005e-01,3.8503624e-02,1.0111217e-01
2.2698703e+00,-9.8106368e-04,-1.5951557e-03,1.2653091e-04,-3.7002026e-02,-3.4854876e-04,-3.7083972e-02,5.1086738e-03,6.8584400e-03,1.1395853e-03,2.3901692e-02,8.4938096e-02,1.6861270e-02
2.2798703e+00,-1.4270183e-03,-1.7064158e-03,9.1161821e-06,-4.4656763e-02,-1.1260408e-02,-4.4500363e-02,5.0392987e-03,8.0650292e-03,-1.2921441e-04,-6.9375116e-03,1.2065903e-01,-1.2688009e-01
2.2898703e+00,-1.8336146e-03,-1.6073610e-03,1.3630301e-05,-4.0623888e-02,9.7746742e-03,-4.0727040e-02,4.4357349e-03,7.6450155e-03,-2.1042528e-04,-6.0356439e-02,-4.2001414e-02,-8.1210947e-03
2.2998703e+00,-2.2005858e-03,-1.5659913e-03,4.5857236e-05,-3.6689027e-02,4.0805426e-03,-3.6711595e-02,5.2115662e-03,6.7477946e-03,-3.7970843e-04,7.7583203e-02,-8.9722173e-02,-1.6928331e-02
2.3098702e+00,-2.3158446e-03,-1.4546720e-03,2.3079805e-04,-1.1458961e-02,1.1129412e-02,-1.1594857e-02,5.1373317e-03,5.3254642e-03,8.3160863e-04,-7.4234589e-03,-1.4223317e-01,1.2113182e-01
2.3198702e+00,-2.3716700e-03,-1.6320829e-03,2.6338294e-04,-5.6677069e-03,-1.7748200e-02,-5.4731088e-03,5.0576657e-03,6.4298410e-03,8.0524408e-04,-7.9666067e-03,1.1043778e-01,-2.6364580e-03
2.3298702e+00,-2.5294466e-03,-1.6424809e-03,3.2054922e-04,-1.5780555e-02,-1.0561923e-03,-1.5773701e-02,5.3035683e-03,6.3437923e-03,1.5277204e-04,2.4590289e-02,-8.6048759e-03,-6.5247266e-02
2.3398702e+00,-2.9497965e-03,-1.1681301e-03,2.3254531e-04,-4.1855959e-02,4.7454503e-02,-4.2191573e-02,4.1321289e-03,3.6554289e-03,-4.1132868e-04,-1.1714406e-01,-2.6883659e-01,-5.6410126e-02
2.3498704e+00,-3.5518775e-03,-1.2025821e-03,8.0840396e-05,-6.0259764e-02,-3.4400880e-03,-6.0153923e-02,3.7178473e-03,3.6373828e-03,-6.7538399e-04,-4.1427216e-02,-1.8045740e-03,-2.6404927e-02
2.3598704e+00,-3.9772929e-03,-1.1469066e-03,2.3549490e-04,-4.2518495e-02,5.5595114e-03,-4.2565702e-02,2.7699289e-03,2.9574583e-03,1.7626324e-04,-9.4791929e-02,-6.7992510e-02,8.5164805e-02
2.3698704e+00,-4.5186135e-03,-1.6866204e-03,4.1689138e-04,-5.4279272e-02,-5.4065909e-02,-5.3889930e-02,3.9257536e-03,5.6879477e-03,1.1870741e-03,1.1558258e-01,2.7304919e-01,1.0108118e-01
2.3798704e+00,-5.0613150e-03,-1.3779614e-03,2.7942729e-04,-5.4144714e-02,3.0749685e-02,-5.4461194e-02,3.0978706e-03,5.2265571e-03,5.4537171e-04,-8.2788379e-02,-4.6139095e-02,-6.4170302e-02
2.3898704e+00,-5.4408114e-03,-9.5041338e-04,3.7716052e-04,-3.7838079e-02,4.2713088e-02,-3.8107810e-02,2.0976339e-03,3.1878474e-03,5.7522478e-04,-1.0002377e-01,-2.0387117e-01,2.9853099e-03
2.3998704e+00,-5.9092425e-03,-1.2495362e-03,4.7553176e-04,-4.6894588e-02,-2.9985492e-02,-4.6744790e-02,2.7704251e-03,4.3382780e-03,6.6692333e-04,6.7279194e-02,1.1504317e-01,9.1698640e-03
2.4098704e+00,-6.5093537e-03,-1.7181026e-03,4.2132825e-04,-6.0200554e-02,-4.6969288e-02,-5.9732833e-02,4.0614279e-03,5.9579639e-03,7.2225268e-06,1.2910040e-01,1.6196873e-01,-6.5970143e-02
2.4198704e+00,-6.6953815e-03,-1.7918044e-03,5.4515537e-04,-1.8617232e-02,-7.4069961e-03,-1.8573722e-02,4.2622679e-03,6.2469005e-03,9.0346186e-04,2.0084011e-02,2.8893690e-02,8.9624019e-02
2.4298704e+00,-6.9391944e-03,-1.8825358e-03,5.4239700e-04,-2.4381369e-02,-9.1292744e-03,-2.4360289e-02,4.3556246e-03,6.6584086e-03,1.6076077e-03,9.3356847e-03,4.1150848e-02,7.0414656e-02
2.4398704e+00,-6.8705576e-03,-3.0737008e-04,7.5249547e-04,7.0580296e-03,1.5748873e-01,7.2952899e-03,1.3323628e-03,-2.6391006e-03,2.2579504e-03,-3.0232647e-01,-9.2975180e-01,6.5034331e-02
2.4498703e+00,-7.7462853e-03,-1.9711743e-03,4.1779180e-04,-8.8184809e-02,-1.6669136e-01,-8.6359344e-02,4.3079242e-03,7.9244703e-03,1.1866734e-03,2.9755642e-01,1.0563581e+00,-1.0712780e-01
2.4598703e+00,-8.4930937e-03,-2.0314419e-03,3.8922624e-04,-7.4664028e-02,-6.3654690e-03,-7.4669690e-02,3.9357671e-03,8.4699674e-03,5.3579354e-04,-3.7215746e-02,5.4549768e-02,-6.5088053e-02
2.4698703e+00,-9.3265086e-03,-1.7541026e-03,5.8374518e-04,-8.3185802e-02,2.7571654e-02,-8.3550776e-02,3.9545417e-03,5.8903553e-03,5.4505485e-04,1.8774578e-03,-2.5796146e-01,9.2613219e-04
2.4798703e+00,-9.9286892e-03,-1.3251394e-03,6.9791741e-04,-6.0084752e-02,4.2880630e-02,-6.0362381e-02,2.9511923e-03,3.2054150e-03,1.0815207e-04,-1.0033503e-01,-2.6849428e-01,-4.3690320e-02
2.4898703e+00,-1.0230412e-02,-1.4604235e-03,7.5807237e-04,-3.0214909e-02,-1.3542172e-02,-3.0123546e-02,3.3258344e-03,3.7867416e-03,7.4988994e-05,3.7464237e-02,5.8132720e-02,-3.3163104e-03
2.4998703e+00,-1.0378085e-02,-1.5360659e-03,7.9184743e-04,-1.4784442e-02,-7.5707070e-03,-1.4746684e-02,3.3310561e-03,3.7732484e-03,5.3511621e-04,5.2217209e-04,-1.3493300e-03,4.6012765e-02
2.5098703e+00,-1.0662176e-02,-1.8383300e-03,5.8098410e-04,-2.8501040e-02,-3.0307806e-02,-2.8229958e-02,3.5393450e-03,6.4285431e-03,5.2650573e-04,2.0828915e-02,2.6552973e-01,-8.6104836e-04
2.5198703e+00,-1.0972504e-02,-1.8745104e-03,7.4925400e-04,-3.0999972e-02,-3.6967593e-03,-3.1056331e-02,4.3710686e-03,6.9007885e-03,1.5568055e-03,8.3172433e-02,4.7224580e-02,1.0303008e-01
2.5298703e+00,-1.1632954e-02,-1.9748993e-03,7.9521022e-04,-6.6023588e-02,-1.0198366e-02,-6.6042204e-02,4.2895404e-03,6.7022350e-03,9.6826064e-04,-8.1528228e-03,-1.9855369e-02,-5.8854543e-02
2.5398703e+00,-1.2286537e-02,-1.7779147e-03,9.7318805e-04,-6.5203180e-02,1.9672836e-02,-6.5520787e-02,3.9443918e-03,4.3264257e-03,1.1763363e-03,-3.4514898e-02,-2.3758116e-01,2.0807590e-02
2.5498703e+00,-1.2956460e-02,-2.0669384e-03,1.0652053e-03,-6.7032688e-02,-2.9035742e-02,-6.6894222e-02,4.4002621e-03,6.3955095e-03,1.2854451e-03,4.5587080e-02,2.0690858e-01,1.0910884e-02
2.5598702e+00,-1.3486530e-02,-2.2811536e-03,1.0380039e-03,-5.3026309e-02,-2.1587596e-02,-5.2920451e-02,4.4671226e-03,7.6045406e-03,1.4318916e-03,6.6860532e-03,1.2090323e-01,1.4644661e-02
2.5698702e+00,-1.3852127e-02,-2.3690620e-03,1.0228425e-03,-3.6547901e-02,-8.9532686e-03,-3.6532195e-02,4.2324120e-03,8.6745080e-03,1.3322448e-03,-2.3471086e-02,1.0699684e-01,-9.9646846e-03
2.5798702e+00,-1.4312054e-02,-1.8691196e-03,8.1364787e-04,-4.5839275e-02,4.9773485e-02,-4.6383701e-02,2.6386827e-03,7.4025844e-03,4.6406828e-04,-1.5937308e-01,-1.2719248e-01,-8.6817735e-02
2.5898702e+00,-1.4878345e-02,-1.5270117e-03,8.1745083e-04,-5.6511758e-02,3.4040004e-02,-5.6848886e-02,2.5722146e-03,5.5743372e-03,5.1524248e-04,-6.6468077e-03,-1.8282489e-01,5.1174254e-03
2.5998704e+00,-1.5481014e-02,-2.5115703e-04,1.6642285e-03,-5.9892712e-02,1.2806306e-01,-5.9614530e-02,1.7356742e-03,-6.2667150e-03,2.5072400e-03,-8.3652130e-02,-1.1840781e+00,1.9919520e-01
2.6098704e+00,-1.6100342e-02,-8.3867178e-04,1.5354603e-03,-6.1989435e-02,-5.8425631e-02,-6.2184040e-02,2.2886052e-03,-2.9631780e-03,1.2540590e-03,5.5293149e-02,3.3035402e-01,-1.2531822e-01
2.6198704e+00,-1.6558925e-02,-1.3876807e-03,1.8266553e-03,-4.5956873e-02,-5.4680924e-02,-4.6022319e-02,3.6991571e-03,-1.0873161e-03,2.2708572e-03,1.4105533e-01,1.8758636e-01,1.0167992e-01
2.6298704e+00,-1.6876296e-02,-4.8095990e-04,1.4360249e-03,-3.1578191e-02,9.0845170e-02,-3.1399081e-02,1.3321082e-03,-4.1411283e-03,1.1997522e-03,-2.3670512e-01,-3.0538151e-01,-1.0711060e-01
2.6398704e+00,-1.7008457e-02,-1.1727907e-03,2.0914537e-03,-1.3446056e-02,-6.9081563e-02,-1.3512354e-02,4.1049513e-03,-3.4907028e-03,4.0781190e-03,2.7728458e-01,6.5042617e-02,2.8783695e-01
2.6498704e+00,-1.7728273e-02,-1.4435699e-03,1.7813906e-03,-7.1859218e-02,-2.6825229e-02,-7.2198173e-02,3.7919886e-03,2.8300390e-04,3.1146001e-03,-3.1296296e-02,3.7737103e-01,-9.6351989e-02
2.6598704e+00,-1.8289602e-02,-1.5473535e-03,1.9286885e-03,-5.5991922e-02,-1.0187854e-02,-5.6308442e-02,3.6043873e-03,2.1084331e-04,3.1674200e-03,-1.8760153e-02,-7.2160662e-03,5.2819961e-03
2.6698704e+00,-1.9304719e-02,-2.4795333e-03,1.3600861e-03,-1.0174634e-01,-9.3664646e-02,-1.0086387e-01,3.8036234e-03,8.2308295e-03,1.1745403e-03,1.9923629e-02,8.0199938e-01,-1.9928816e-01
2.6798704e+00,-2.0227444e-02,-2.3340915e-03,1.2078302e-03,-9.2188276e-02,1.4193316e-02,-9.2411451e-02,3.2210330e-03,7.0161854e-03,4.0104690e-04,-5.8259089e-02,-1.2146452e-01,-7.7349412e-02
2.6898704e+00,-2.0888913e-02,-2.3303952e-03,1.3407822e-03,-6.6118895e-02,1.4487238e-04,-6.6175965e-02,3.4361575e-03,6.8311219e-03,3.9968679e-04,2.1512467e-02,-1.8506370e-02,-1.3601048e-04
2.6998703e+00,-2.1442967e-02,-2.4055554e-03,1.2976151e-03,-5.5443177e-02,-7.7767973e-03,-5.5331487e-02,3.1167351e-03,7.8301051e-03,-2.6469417e-04,-3.1942269e-02,9.9898417e-02,-6.6438160e-02
2.7098703e+00,-2.2037551e-02,-2.3787698e-03,1.6295946e-03,-5.9382097e-02,2.4889311e-03,-5.9542960e-02,3.5657084e-03,6.7461846e-03,1.1167424e-03,4.4897371e-02,-1.0839216e-01,1.3814379e-01
2.7198703e+00,-2.2893613e-02,-2.3743545e-03,1.6428782e-03,-8.5483156e-02,2.4855906e-04,-8.5730045e-02,3.7926407e-03,6.0381501e-03,1.4107507e-03,2.2693255e-02,-7.0803517e-02,2.9400849e-02
2.7298703e+00,-2.3687702e-02,-2.3416864e-03,1.7535768e-03,-7.9268177e-02,3.1167773e-03,-7.9555674e-02,3.4339936e-03,5.3138395e-03,1.6254136e-03,-3.5864748e-02,-7.2431125e-02,2.1466316e-02
2.7398703e+00,-2.4520190e-02,-2.6699853e-03,1.6840276e-03,-8.3307234e-02,-3.3191285e-02,-8.3046955e-02,3.3770891e-03,7.7270319e-03,6.2484470e-04,-5.6904560e-03,2.4131947e-01,-1.0005699e-01
2.7498703e+00,-2.5307552e-02,-2.8029288e-03,1.5862858e-03,-7.8802788e-02,-1.3645775e-02,-7.8609347e-02,3.8801778e-03,8.3521102e-03,-1.9820296e-04,5.0308921e-02,6.2507888e-02,-8.2304844e-02
2.7598703e+00,-2.5889008e-02,-2.4665366e-03,1.4367190e-03,-5.8075407e-02,3.3427754e-02,-5.8337547e-02,2.9902296e-03,6.6157965e-03,-5.2615916e-04,-8.8994905e-02,-1.7363154e-01,-3.2795652e-02
2.7698703e+00,-2.6436659e-02,-1.8946890e-03,1.3576349e-03,-5.4717559e-02,5.6962644e-02,-5.5043641e-02,1.1984222e-03,5.2422368e-03,-3.8237787e-04,-1.7918091e-01,-1.3735609e-01,1.4378143e-02
2.7798703e+00,-2.7013332e-02,-1.5727558e-03,1.5901987e-03,-5.7608630e-02,3.2056213e-02,-5.7802267e-02,9.3792403e-04,3.3109990e-03,4.9401866e-04,-2.6049843e-02,-1.9312396e-01,8.7639737e-02
2.7898703e+00,-2.7813204e-02,-1.3164693e-03,1.7052073e-03,-7.9962305e-02,2.5550093e-02,-8.0037441e-02,2.6103170e-04,1.2428668e-03,2.2895744e-04,-6.7689297e-02,-2.0681342e-01,-2.6506147e-02
2.7998703e+00,-2.8712421e-02,-9.2077227e-04,1.5957001e-03,-9.0039053e-02,3.9574468e-02,-8.9802151e-02,-1.1142790e-03,-1.1683375e-03,-8.1545767e-04,-1.3753120e-01,-2.4112066e-01,-1.0444161e-01
2.8098702e+00,-2.9609626e-02,-1.1102350e-03,1.5723751e-03,-8.9758381e-02,-1.8995898e-02,-8.9672361e-02,-1.0965120e-03,-5.4379732e-04,-6.5316502e-04,1.7767072e-03,6.2454077e-02,1.6229280e-02
2.8198702e+00,-3.0380337e-02,-1.3382453e-03,1.5974418e-03,-7.7102469e-02,-2.2931030e-02,-7.7001215e-02,-1.0159652e-03,6.7122495e-04,-7.0779130e-04,8.0546828e-03,1.2150234e-01,-5.4626333e-03
2.8298702e+00,-3.1289379e-02,-3.1724405e-03,1.6379033e-03,-9.1509480e-02,-1.8411299e-01,-8.8872899e-02,2.6553624e-03,1.0412158e-02,-1.3038992e-03,3.6713311e-01,9.7409426e-01,-5.9610851e-02
2.8398702e+00,-3.2104187e-02,-3.6020227e-03,1.7744606e-03,-8.1724420e-02,-4.3662226e-02,-8.0860332e-02,3.7244046e-03,1.2421248e-02,-1.0334220e-03,1.0690432e-01,2.0090912e-01,2.7047745e-02
2.8498704e+00,-3.2764927e-02,-9.2835328e-04,2.0732189e-03,-6.6469689e-02,2.6751192e-01,-6.5054776e-02,-1.3255805e-03,-3.6453494e-03,-6.4772305e-04,-5.0498695e-01,-1.6066229e+00,3.8569017e-02
2.8598704e+00,-3.3635124e-02,-9.2764110e-04,2.1295600e-03,-8.7094306e-02,3.6903130e-04,-8.6944400e-02,-1.2053302e-03,-4.6316752e-03,-8.5674424e-04,1.2025037e-02,-9.8632673e-02,-2.0902139e-02
2.8698704e+00,-3.4333851e-02,-2.3497201e-03,2.5364972e-03,-7.0092181e-02,-1.4210710e-01,-6.9858347e-02,1.9329760e-03,4.9205394e-04,7.9156787e-04,3.1383092e-01,5.1237340e-01,1.6483137e-01
2.8798704e+00,-3.5021917e-02,-3.1198720e-03,2.7832535e-03,-6.8908355e-02,-7.7070883e-02,-6.8642411e-02,3.5068727e-03,4.3220787e-03,2.4381402e-03,1.5738982e-01,3.8300284e-01,1.6465739e-01
2.8898704e+00,-3.5983792e-02,-1.9169098e-03,2.0126685e-03,-9.6255018e-02,1.1986990e-01,-9.6651453e-02,-9.8045132e-04,3.4430907e-03,5.2489595e-04,-4.4873283e-01,-8.7898882e-02,-1.9132460e-01
2.8998704e+00,-3.6884494e-02,-1.8534331e-03,2.1453798e-03,-9.0039660e-02,6.0241796e-03,-9.0122979e-02,-9.5324142e-04,2.6369990e-03,4.0595059e-04,2.7209932e-03,-8.0609248e-02,-1.1894547e-02
2.9098704e+00,-3.8105724e-02,-1.8477459e-03,2.0934426e-03,-1.2221008e-01,8.4924691e-05,-1.2203742e-01,-1.2471021e-03,2.7163654e-03,-7.0717411e-04,-2.9386092e-02,7.9366452e-03,-1.1131258e-01
2.9198704e+00,-3.9247941e-02,-3.0814342e-03,2.7885850e-03,-1.1458395e-01,-1.2336028e-01,-1.1386800e-01,3.6520179e-03,3.5875184e-03,7.6741740e-04,4.8991246e-01,8.7115388e-02,1.4745929e-01
2.9298704e+00,-4.0245080e-02,-2.9143235e-03,2.9620318e-03,-9.9518263e-02,1.6844864e-02,-9.9886761e-02,2.8875428e-03,1.5427550e-03,1.4731829e-03,-7.6447580e-02,-2.0447654e-01,7.0576615e-02
2.9398704e+00,-4.1172634e-02,-1.0624978e-03,2.5414674e-03,-9.3053006e-02,1.8569576e-01,-9.1422439e-02,-1.6005830e-03,-7.1855745e-03,-1.2520419e-05,-4.4881301e-01,-8.7283378e-01,-1.4857047e-01
2.9498703e+00,-4.1907446e-02,-1.5051849e-03,2.3970035e-03,-7.3426255e-02,-4.4107908e-02,-7.3632833e-02,-1.1245100e-03,-3.3094952e-03,7.0609410e-05,4.7607342e-02,3.8760829e-01,8.3129908e-03
2.9598703e+00,-4.2836837e-02,-2.9912978e-03,2.3838311e-03,-9.3088404e-02,-1.4913223e-01,-9.1950246e-02,1.3601016e-03,7.0004243e-03,5.6754614e-04,2.4846140e-01,1.0309929e+00,4.9693720e-02
2.9698703e+00,-4.4106383e-02,-3.5126675e-03,2.5997616e-03,-1.2708434e-01,-5.2978513e-02,-1.2647582e-01,2.7378146e-03,9.3848579e-03,9.9838183e-05,1.3777143e-01,2.3844358e-01,-4.6770840e-02
2.9798703e+00,-4.5360217e-02,-2.6725558e-03,3.0711799e-03,-1.2514479e-01,8.4266819e-02,-1.2545047e-01,2.0941549e-03,5.4333418e-05,4.9840274e-04,-6.4366032e-02,-9.3305334e-01,3.9856494e-02
2.9898703e+00,-4.6633741e-02,-2.8682800e-03,3.1398960e-03,-1.2730338e-01,-1.9257008e-02,-1.2744977e-01,2.4926136e-03,1.6237019e-05,7.6581962e-04,3.9845905e-02,-3.8096436e-03,2.6741714e-02
2.9998703e+00,-4.8055011e-02,-3.9256143e-03,2.6849271e-03,-1.4253684e-01,-1.0650512e-01,-1.4113721e-01,3.2663772e-03,8.7315400e-03,-4.5837985e-04,7.7376437e-02,8.7153113e-01,-1.2242006e-01
3.0098703e+00,-4.9316855e-02,-3.7869073e-03,2.5656301e-03,-1.2632187e-01,1.3088004e-02,-1.2613070e-01,3.0220165e-03,9.2329739e-03,-1.4262478e-03,-2.4436095e-02,5.0143437e-02,-9.6786889e-02
3.0198703e+00,-5.0334662e-02,-3.3113150e-03,3.2572091e-03,-1.0149710e-01,4.7639557e-02,-1.0202639e-01,3.6490539e-03,2.8521415e-03,1.0756739e-03,6.2703801e-02,-6.3808385e-01,2.5019241e-01
3.0298703e+00,-5.1999936e-02,-3.4367238e-03,2.7306036e-03,-1.6660909e-01,-1.3333819e-02,-1.6638435e-01,2.0154212e-03,6.7811655e-03,-3.3989892e-04,-1.6336342e-01,3.9290278e-01,-1.4155742e-01
3.0398703e+00,-5.3570590e-02,-4.4059875e-03,2.8612271e-03,-1.5741235e-01,-9.7832879e-02,-1.5615373e-01,4.5035336e-03,1.0307610e-02,5.6082031e-04,2.4881147e-01,3.5264481e-01,9.0072009e-02
3.0498703e+00,-5.5120545e-02,-3.9229871e-03,3.3760078e-03,-1.5447792e-01,4.8199186e-02,-1.5554292e-01,4.3857063e-03,5.0199428e-03,1.9619493e-03,-1.1782736e-02,-5.2876725e-01,1.4011304e-01
3.0598702e+00,-5.6923471e-02,-3.7903918e-03,3.3793529e-03,-1.7986560e-01,1.3137830e-02,-1.8072772e-01,4.0631470e-03,4.7270020e-03,2.0598582e-03,-3.2255961e-02,-2.9294110e-02,9.7908918e-03
3.0698702e+00,-5.9051099e-02,-4.0277426e-03,3.0807390e-03,-2.1272744e-01,-2.4550259e-02,-2.1270602e-01,3.8644433e-03,7.6952916e-03,5.9051577e-04,-1.9870393e-02,2.9682925e-01,-1.4693438e-01
3.0798702e+00,-6.0661279e-02,-3.9481652e-03,3.1843972e-03,-1.6081054e-01,7.5654684e-03,-1.6124453e-01,3.9184845e-03,6.3464058e-03,1.0879139e-03,5.4041276e-03,-1.3488871e-01,4.9739855e-02
3.0898702e+00,-6.2588427e-02,-3.5356318e-03,2.6231692e-03,-1.9295847e-01,4.0424233e-02,-1.9264704e-01,2.1177965e-03,6.4264246e-03,-1.7204995e-03,-1.8006897e-01,8.0018863e-03,-2.8084161e-01
3.0998704e+00,-6.4384072e-02,-5.4122360e-03,2.2331961e-03,-1.8102904e-01,-1.9005617e-01,-1.7551592e-01,5.8233849e-03,1.9446349e-02,-2.1123589e-03,3.7055036e-01,1.3019626e+00,-3.9185046e-02
3.1098704e+00,-6.5984414e-02,-2.9244026e-03,3.2369082e-03,-1.5933937e-01,2.4888904e-01,-1.6056281e-01,1.7113889e-03,1.0474971e-03,1.6788995e-03,-4.1119999e-01,-1.8398869e+00,3.7912621e-01
3.1198704e+00,-6.8358382e-02,-5.1826017e-03,2.9010908e-03,-2.3874400e-01,-2.2803388e-01,-2.3390459e-01,6.0589974e-03,1.5514795e-02,7.1566648e-05,4.3476126e-01,1.4467311e+00,-1.6073344e-01
3.1298704e+00,-7.0396845e-02,-3.3740996e-03,3.4372761e-03,-2.0313026e-01,1.8084859e-01,-2.0456167e-01,2.9989755e-03,2.9972667e-03,8.4775465e-04,-3.0600248e-01,-1.2517540e+00,7.7618875e-02
3.1398704e+00,-7.2398751e-02,-3.1404143e-03,3.8392156e-03,-1.9983071e-01,2.4269381e-02,-2.0044333e-01,3.0303004e-03,-1.4681332e-03,1.4396335e-03,3.1324875e-03,-4.4654041e-01,5.9187941e-02
3.1498704e+00,-7.4795728e-02,-4.8371928e-03,3.0320404e-03,-2.4090515e-01,-1.7136243e-01,-2.3727709e-01,4.9591753e-03,1.2065227e-02,-1.5395510e-03,1.9288767e-01,1.3533373e+00,-2.9791873e-01
3.1598704e+00,-7.6700687e-02,-4.1252242e-03,4.2236400e-03,-1.8959188e-01,7.1759146e-02,-1.9118584e-01,5.4549204e-03,2.4901484e-03,2.6891031e-03,4.9574560e-02,-9.5750878e-01,4.2286582e-01
