time, x, y, z, vx, vy, vz, yaw, pitch, roll, yaw_rate, pitch_rate, roll_rate
0.0000000e+00,0.0000000e+00,0.0000000e+00,0.0000000e+00,0.0000000e+00,0.0000000e+00,0.0000000e+00,0.0000000e+00,0.0000000e+00,0.0000000e+00,0.0000000e+00,0.0000000e+00,0.0000000e+00
9.9999905e-03,-3.3934717e-05,3.3286616e-05,-3.3886451e-05,-3.3930930e-03,3.3300499e-03,-3.3924978e-03,2.2385849e-05,-3.8582964e-04,9.0598491e-05,2.2385871e-03,-3.8583001e-02,9.0598577e-03
1.9999981e-02,-7.8885894e-05,-1.2833677e-04,-3.9664279e-05,-4.4961765e-03,-1.6168964e-02,-4.4702288e-03,7.9591505e-05,1.5542503e-03,5.1586040e-05,5.7205710e-03,1.9400818e-01,-3.9012487e-03
2.9999971e-02,2.1333317e-04,1.3955894e-04,3.6011534e-05,2.9182682e-02,2.6744850e-02,2.9302038e-02,-1.5282349e-04,-1.6807533e-03,1.2024008e-03,-2.3241521e-02,-3.2350066e-01,1.1508158e-01
3.9999962e-02,2.5110311e-04,9.6395898e-05,1.0067990e-04,3.7728631e-03,-4.3207909e-03,3.7760034e-03,-1.4401580e-04,-1.3303079e-03,1.2583766e-03,8.8076927e-04,3.5044571e-02,5.5975908e-03
4.9999952e-02,2.8227626e-04,5.3950716e-05,7.0180325e-05,3.1143585e-03,-4.2461650e-03,3.1180401e-03,-2.9181052e-04,-8.1822185e-04,1.3459726e-03,-1.4779486e-02,5.1208653e-02,8.7596036e-03
5.9999943e-02,4.3509418e-06,-3.9920405e-04,5.1271431e-05,-2.7766148e-02,-4.5467984e-02,-2.7569050e-02,-2.5028446e-04,5.2552307e-03,5.4202125e-04,4.1526104e-03,6.0734584e-01,-8.0395208e-02
6.9999933e-02,4.6424123e-04,1.1696874e-04,3.5054028e-05,4.5862861e-02,5.1549184e-02,4.6191101e-02,-7.4584382e-04,-2.2203139e-03,1.9051528e-03,-4.9555983e-02,-7.4755517e-01,1.3631328e-01
7.9999924e-02,5.0667537e-04,2.8946445e-04,2.9400875e-05,4.2214879e-03,1.7236225e-02,4.3189189e-03,-8.1716583e-04,-3.9262577e-03,1.8443739e-03,-7.1322080e-03,-1.7059454e-01,-6.0778893e-03
8.9999914e-02,-3.7101821e-04,-8.1823740e-04,-8.2166929e-04,-8.8063595e-02,-1.1168868e-01,-8.6298610e-02,-1.3051265e-04,1.0438892e-02,-3.5223694e-03,6.8665383e-02,1.4365163e+00,-5.3667485e-01
9.9999905e-02,2.7273524e-05,7.0981401e-06,-5.4106459e-05,3.9829094e-02,8.2529859e-02,3.9837146e-02,5.6180896e-05,-3.8541058e-05,1.1934927e-04,1.8669373e-02,-1.0477443e+00,3.6417222e-01
1.0999990e-01,2.5655752e-04,1.2670210e-04,1.0691852e-05,2.2895106e-02,1.1921065e-02,2.2982139e-02,-3.6857832e-04,-2.0806854e-03,1.2598997e-03,-4.2475962e-02,-2.0421463e-01,1.1405515e-01
1.1999989e-01,2.4825040e-04,3.0083279e-04,6.2845832e-05,-8.2464852e-04,1.7416664e-02,-7.5860249e-04,2.9864032e-04,-4.1899133e-03,1.0391865e-03,6.6721928e-02,-2.1092300e-01,-2.2071345e-02
1.2999988e-01,-5.4587765e-04,-1.7837886e-03,-1.1264626e-03,-8.0283281e-02,-2.0946640e-01,-7.5814097e-02,2.3126610e-03,1.5348763e-02,-4.9044051e-03,2.0140226e-01,1.9538695e+00,-5.9435972e-01
1.3999987e-01,-4.2956849e-04,-1.8636483e-03,-1.0257290e-03,1.1663240e-02,-7.8310281e-03,1.1703705e-02,2.3445493e-03,1.5650673e-02,-4.4004284e-03,3.1888358e-03,3.0191012e-02,5.0397713e-02
1.4999986e-01,9.5932056e-05,-5.5983764e-04,6.2807871e-05,5.2541453e-02,1.3065107e-01,5.1884267e-02,1.3748933e-04,5.3053073e-03,5.0562465e-04,-2.2070621e-01,-1.0345375e+00,4.9060578e-01
1.5999985e-01,4.8139612e-04,-1.0903359e-04,9.1035999e-05,3.8434090e-02,4.5090308e-02,3.8646968e-02,-6.8507622e-04,-4.2799119e-04,2.1110690e-03,-8.2256634e-02,-5.7333040e-01,1.6054459e-01
1.6999984e-01,4.9966106e-04,3.6005998e-05,8.3672334e-05,1.8110781e-03,1.4502603e-02,1.8525371e-03,-7.9230323e-04,-1.5270875e-03,2.1469338e-03,-1.0722711e-02,-1.0990974e-01,3.5864868e-03
1.7999983e-01,1.1986394e-04,-3.5129318e-04,1.2001053e-05,-3.7962197e-02,-3.8878512e-02,-3.7845275e-02,1.7979269e-06,3.9193152e-03,4.6383794e-04,7.9410191e-02,5.4464080e-01,-1.6830975e-01
1.8999982e-01,6.4722806e-05,-2.1178535e-04,-3.3413998e-05,-5.5113470e-03,1.3940831e-02,-5.5420221e-03,9.6705220e-05,1.8989135e-03,2.5786893e-04,9.4907384e-03,-2.0204036e-01,-2.0596921e-02
1.9999981e-01,4.0988556e-04,4.4170272e-04,-9.6202134e-07,3.4433209e-02,6.5134353e-02,3.5001369e-02,-3.7687766e-04,-6.5401478e-03,1.6924858e-03,-4.7358333e-02,-8.4390694e-01,1.4346183e-01
2.0999980e-01,-6.0995005e-04,-8.3543075e-04,6.9431954e-04,-1.0149595e-01,-1.3050218e-01,-9.8892958e-02,-2.5932087e-03,2.5115822e-02,1.5302734e-03,-2.2163332e-01,3.1656000e+00,-1.6221257e-02
2.1999979e-01,1.9789583e-04,3.0572544e-04,-1.6365133e-05,8.0743842e-02,1.1372869e-01,8.1369159e-02,3.3973225e-04,-4.4329137e-03,9.8469019e-04,2.9329438e-01,-2.9548764e+00,-5.4558373e-02
2.2999978e-01,2.8874227e-05,-2.2775613e-04,-6.9896387e-05,-1.6920973e-02,-5.3377603e-02,-1.6790195e-02,3.7742149e-04,2.1236902e-03,7.9087655e-05,3.7689281e-03,6.5566102e-01,-9.0560340e-02
2.3999977e-01,3.5715132e-05,-3.4364528e-04,1.7510342e-05,6.8138932e-04,-1.1586603e-02,7.2492398e-04,2.1302637e-04,3.5037342e-03,3.4060191e-04,-1.6439528e-02,1.3800453e-01,2.6151451e-02
2.5000000e-01,2.1469572e-04,-4.3334535e-04,4.9954144e-04,1.7884321e-02,-8.5299460e-03,1.8124573e-02,-5.0855585e-03,1.9329315e-02,3.2751383e-03,-5.2984636e-01,1.5825219e+00,2.9344692e-01
2.5999761e-01,4.7240732e-04,-1.1305809e-04,1.1241401e-04,2.5709464e-02,3.2035808e-02,2.5845744e-02,-4.3469559e-04,-4.5625327e-04,2.0902417e-03,4.6519764e-01,-1.9790306e+00,-1.1851803e-01
2.6999760e-01,1.1022110e-04,-6.1032591e-04,2.1255168e-05,-3.6208250e-02,-4.9924959e-02,-3.5955539e-02,1.5294388e-04,5.6424077e-03,4.9716407e-04,5.8764002e-02,6.0986668e-01,-1.5930791e-01
2.7999759e-01,-1.9557675e-04,-1.1275024e-03,-6.8432760e-04,-3.0676140e-02,-5.2084998e-02,-2.9851256e-02,1.8949626e-04,1.2365510e-02,-2.8335248e-03,3.6552413e-03,6.7231089e-01,-3.3306920e-01
2.8999758e-01,-4.1567232e-04,-1.4167814e-03,-9.9351301e-04,-2.2148849e-02,-2.9175496e-02,-2.1538034e-02,1.4772642e-03,1.2893329e-02,-4.3969475e-03,1.2877692e-01,5.2781971e-02,-1.5634242e-01
2.9999757e-01,4.7410489e-04,2.9616890e-04,-6.2506802e-06,8.8769910e-02,1.7085291e-01,9.0029590e-02,-3.4708027e-04,-5.2819860e-03,1.6668567e-03,-1.8243462e-01,-1.8175333e+00,6.0638099e-01
3.0999756e-01,2.5401875e-05,-1.1566592e-04,-3.1583866e-05,-4.4882560e-02,-4.1180702e-02,-4.4860712e-02,3.2030350e-04,2.5755970e-04,2.1686464e-05,6.6738441e-02,5.5395510e-01,-1.6451718e-01
3.1999755e-01,5.5203610e-05,-1.8022160e-04,-3.6918707e-05,2.9774275e-03,-6.4523836e-03,2.9898195e-03,4.0471632e-04,1.4729652e-03,4.5611733e-05,8.4412898e-03,1.2154067e-01,2.3925291e-03
3.2999754e-01,-5.8916209e-04,-1.8303319e-03,-1.1698907e-03,-6.5139038e-02,-1.6586629e-01,-6.1466503e-02,2.2640726e-03,1.5949468e-02,-5.1185993e-03,1.8593581e-01,1.4476517e+00,-5.1642160e-01
3.3999753e-01,2.7656063e-04,-6.5733366e-05,7.2177189e-05,8.6501797e-02,1.7638319e-01,8.6799146e-02,2.3333274e-04,-6.5275194e-04,1.2897556e-03,-2.0307418e-01,-1.6602236e+00,6.4083610e-01
3.4999752e-01,4.3958698e-04,-1.2458568e-04,6.0123249e-05,1.6272355e-02,-5.8859770e-03,1.6332624e-02,-4.4766980e-04,-4.9212834e-04,2.0177904e-03,-6.8100319e-02,1.6062375e-02,7.2803547e-02
3.5999751e-01,4.3681984e-04,-7.6325111e-05,6.4414449e-05,-2.7828982e-04,4.8261733e-03,-2.7316795e-04,-4.4411025e-04,-8.5319681e-04,2.0500940e-03,3.5595523e-04,-3.6106881e-02,3.2303690e-03
3.6999750e-01,6.7659266e-05,-4.3048612e-04,5.0987266e-05,-3.6897396e-02,-3.5586386e-02,-3.6770773e-02,3.4745760e-05,4.6544801e-03,5.3965808e-04,4.7885647e-02,5.5076821e-01,-1.5104374e-01
3.7999749e-01,2.6243885e-05,-3.8425227e-04,-1.5908409e-05,-4.1401329e-03,4.6076579e-03,-4.1604404e-03,3.2546487e-05,3.8218252e-03,3.0387913e-04,-2.1992747e-04,-8.3265572e-02,-2.3577918e-02
3.8999748e-01,2.8764098e-04,3.8319599e-04,1.5672584e-05,2.6128576e-02,7.6574334e-02,2.6646199e-02,1.9927670e-04,-6.2619464e-03,1.0114207e-03,1.6673037e-02,-1.0083781e+00,7.0754226e-02
3.9999747e-01,4.1621055e-04,3.4941413e-04,-1.2631526e-05,1.2836867e-02,-3.4499598e-03,1.2857998e-02,-3.3354820e-04,-5.9107240e-03,1.6497741e-03,-5.3282541e-02,3.5122270e-02,6.3835397e-02
4.0999746e-01,-6.8216222e-05,-1.2158047e-04,-3.8283428e-05,-4.8466501e-02,-4.7090816e-02,-4.8427385e-02,4.4423194e-04,2.6500371e-04,-5.9030869e-05,7.7778088e-02,6.1757336e-01,-1.7088066e-01
4.1999745e-01,-5.1572361e-05,-2.0915873e-04,-5.3407911e-05,1.6603223e-03,-8.7559358e-03,1.6783755e-03,4.5956128e-04,1.5926734e-03,2.4288622e-05,1.5329350e-03,1.3276710e-01,8.3319571e-03
4.2999744e-01,1.2392514e-05,-2.7128946e-04,2.1486400e-05,6.3922216e-03,-6.2001284e-03,6.4133077e-03,4.4043201e-04,2.4613898e-03,2.3991914e-04,-1.9129288e-03,8.6871718e-02,2.1563073e-02
4.3999743e-01,3.8714323e-05,-4.2141315e-04,6.0044841e-05,2.6253116e-03,-1.5003365e-02,2.6898409e-03,3.9865688e-04,3.7827374e-03,3.3686782e-04,-4.1775166e-03,1.3213489e-01,9.6948769e-03
4.4999743e-01,1.0648992e-04,-4.8206709e-04,5.6619291e-05,6.7732518e-03,-6.0375591e-03,6.8066736e-03,2.7308834e-04,4.3705269e-03,3.9199707e-04,-1.2556866e-02,5.8779004e-02,5.5129305e-03
4.5999742e-01,1.3746121e-04,-4.9168469e-04,7.5593077e-05,3.0952127e-03,-9.4642067e-04,3.1037708e-03,1.1150464e-04,5.0575529e-03,5.8516834e-04,-1.6158385e-02,6.8702666e-02,1.9317146e-02
4.6999741e-01,1.3033575e-04,-4.3939501e-04,6.3795880e-05,-7.1175481e-04,5.2253081e-03,-7.3970770e-04,6.9178067e-05,5.1137584e-03,6.0407149e-04,-4.2326614e-03,5.6205546e-03,1.8903163e-03
4.7999740e-01,1.2004868e-04,-3.1844625e-04,2.7460651e-04,-1.0764091e-03,1.2074582e-02,-1.2035729e-03,-4.0915698e-03,1.4318410e-02,1.7256537e-03,-4.1607518e-01,9.2046605e-01,1.1215833e-01
4.8999739e-01,5.1599508e-05,-3.1101246e-04,-1.8626416e-05,-6.8428085e-03,7.2515506e-04,-6.8489932e-03,2.1032638e-04,2.8715239e-03,2.8617164e-04,4.3019002e-01,-1.1446897e+00,-1.4394834e-01
4.9999762e-01,3.3509459e-04,2.0755967e-04,7.7297145e-06,2.8279597e-02,5.1749398e-02,2.8611664e-02,-3.6533267e-04,-4.1038623e-03,1.7732760e-03,-5.7564587e-02,-6.9752266e-01,1.4870703e-01
5.0999761e-01,3.4435384e-04,2.7539874e-04,4.4088257e-05,9.2170102e-04,6.7800629e-03,9.5779620e-04,-3.5459537e-04,-4.4319298e-03,1.9635629e-03,1.0737304e-03,-3.2806784e-02,1.9028709e-02
5.1999760e-01,1.4982309e-04,9.4830800e-04,1.9531144e-04,-1.9595029e-02,6.7342139e-02,-1.9130975e-02,-2.5883542e-03,-5.2685008e-03,1.6524414e-03,-2.2337610e-01,-8.3657172e-02,-3.1112175e-02
5.2999759e-01,-4.2875213e-06,-2.3445070e-04,-7.0099281e-05,-1.5465139e-02,-1.1829828e-01,-1.5184099e-02,4.7304013e-04,1.9349171e-03,1.2230797e-04,3.0613973e-01,7.2034247e-01,-1.5301349e-01
5.3999758e-01,2.3925046e-04,8.0935221e-05,2.9647359e-05,2.4332565e-02,3.1467604e-02,2.4466674e-02,2.5687010e-04,-2.6514579e-03,1.2047260e-03,-2.1617023e-02,-4.5863794e-01,1.0824190e-01
5.4999757e-01,1.8816848e-04,-3.2982642e-05,3.7685931e-04,-5.0402633e-03,-1.1478038e-02,-4.9810548e-03,-4.5493130e-03,1.2492592e-02,3.1395750e-03,-4.8061877e-01,1.5144064e+00,1.9348508e-01
5.5999756e-01,4.5302628e-04,7.1745364e-05,9.0603887e-05,2.6424131e-02,1.0429058e-02,2.6564555e-02,-5.3154765e-04,-2.1778798e-03,2.1160196e-03,4.0177692e-01,-1.4670486e+00,-1.0235564e-01
5.6999755e-01,1.2160097e-04,-4.6025832e-04,-6.3833851e-06,-3.3126395e-02,-5.3364579e-02,-3.2893878e-02,2.8298750e-05,4.9988538e-03,5.3310426e-04,5.5984693e-02,7.1767405e-01,-1.5829168e-01
5.7999754e-01,1.1983464e-04,-3.6356040e-04,-2.0725925e-06,-1.7562624e-04,9.6690531e-03,-2.1451828e-04,9.7166273e-05,3.9111154e-03,3.8071432e-04,6.8867589e-03,-1.0877395e-01,-1.5239009e-02
5.8999753e-01,5.6709454e-05,-2.8700100e-04,2.9712877e-05,-6.3094530e-03,7.6418300e-03,-6.3326696e-03,1.9551913e-04,2.4277699e-03,2.4940317e-04,9.8352954e-03,-1.4833469e-01,-1.3131128e-02
5.9999752e-01,4.7922807e-04,2.7099290e-04,6.3346641e-05,4.2145577e-02,5.5618372e-02,4.2595438e-02,-4.5069560e-04,-4.7124099e-03,1.9192929e-03,-6.4621535e-02,-7.1401866e-01,1.6698913e-01
6.0999751e-01,1.9972230e-05,-1.6383973e-04,3.6977763e-06,-4.5933215e-02,-4.3526541e-02,-4.5877057e-02,3.5429974e-04,1.2963643e-03,1.7016413e-04,8.0499611e-02,6.0087800e-01,-1.7491305e-01
6.1999750e-01,-6.0032676e-04,-2.0209493e-03,-1.3641661e-03,-6.2846534e-02,-1.8654358e-01,-5.8616240e-02,2.5028731e-03,1.6431281e-02,-5.6903602e-03,2.1485754e-01,1.5134931e+00,-5.8605300e-01
6.2999749e-01,-6.4723966e-04,-2.1828673e-03,-1.3988325e-03,-4.7634436e-03,-1.6255999e-02,-4.3867196e-03,2.7841731e-03,1.7084344e-02,-5.7907410e-03,2.8130023e-02,6.5306371e-02,-1.0038085e-02
6.3999748e-01,4.1657321e-04,5.4661775e-05,7.7713635e-05,1.0608642e-01,2.2358729e-01,1.0702266e-01,-3.9053038e-04,-1.9414066e-03,1.9493390e-03,-3.1747065e-01,-1.9025769e+00,7.7400874e-01
6.4999747e-01,2.4386208e-04,-2.2833134e-04,1.0696985e-04,-1.7232426e-02,-2.8339344e-02,-1.7244173e-02,-3.1049791e-04,2.0057342e-03,1.7306698e-03,8.0032552e-03,3.9471445e-01,-2.1866948e-02
6.5999746e-01,1.0194072e-04,-4.6738680e-04,2.1061142e-05,-1.4189623e-02,-2.3963461e-02,-1.4096722e-02,1.5625849e-04,4.2487907e-03,4.4110843e-04,4.6675684e-02,2.2430586e-01,-1.2895626e-01
6.6999745e-01,1.3380549e-04,-4.4411090e-04,1.4209100e-05,3.1850540e-03,2.3425391e-03,3.1769400e-03,7.6507038e-05,4.7730415e-03,5.0349302e-04,-7.9751527e-03,5.2425135e-02,6.2384646e-03
6.7999744e-01,-1.8327648e-05,-3.8841699e-04,5.6137455e-05,-1.5204194e-02,5.5030165e-03,-1.5246580e-02,1.1780152e-04,4.4749176e-03,5.5712161e-04,4.1294517e-03,-2.9812421e-02,5.3628640e-03
6.8999743e-01,2.3671900e-04,9.3025999e-05,7.1109289e-05,2.5420391e-02,4.8124991e-02,2.5625090e-02,-5.7973671e-04,-1.3336336e-03,2.2082390e-03,-6.9753889e-02,-5.8085567e-01,1.6511190e-01
6.9999743e-01,4.0618159e-04,1.9811946e-04,-2.8781905e-06,1.6912670e-02,1.0447358e-02,1.7018030e-02,-3.4979364e-04,-3.9962485e-03,1.7645101e-03,2.2994329e-02,-2.6626175e-01,-4.4372935e-02
7.0999742e-01,-5.4574446e-05,-1.2516531e-04,-4.5480257e-05,-4.6082786e-02,-3.2343471e-02,-4.6058004e-02,2.9780736e-04,6.2271316e-04,5.3977636e-05,6.4760161e-02,4.6189661e-01,-1.7105341e-01
7.1999741e-01,-2.4879988e-05,-6.1225883e-05,-3.2567682e-05,2.9718869e-03,6.3939620e-03,2.9669791e-03,4.0017270e-04,4.0505611e-04,4.0451294e-05,1.0236543e-02,-2.1765726e-02,-1.3526355e-03
7.2999740e-01,3.9513418e-05,-7.9995064e-05,-7.6737244e-06,6.4384261e-03,-1.8765144e-03,6.4403855e-03,3.4691110e-04,4.0982482e-04,4.1795297e-05,-5.3261649e-03,4.7687211e-04,1.3440043e-04
7.3999739e-01,1.3520809e-06,-2.6621242e-04,-6.3775165e-06,-3.8212315e-03,-1.8628779e-02,-3.7765435e-03,3.0881890e-04,2.1611722e-03,1.7200727e-04,-3.8092237e-03,1.7513491e-01,1.3021210e-02
7.4999762e-01,-7.4791539e-06,-3.8169399e-04,5.1645226e-05,-8.8577169e-04,-1.1550869e-02,-8.4047653e-04,2.6280476e-04,3.7226771e-03,4.1480133e-04,-4.6013086e-03,1.5614692e-01,2.4278850e-02
7.5999761e-01,4.9206884e-04,-6.2559883e-05,6.1946924e-05,4.9840398e-02,3.1887937e-02,5.0085281e-02,-3.8382955e-04,-8.9223713e-04,2.0436854e-03,-6.4663493e-02,-4.6149187e-01,1.6288856e-01
7.6999760e-01,1.9419758e-04,-5.4103817e-04,7.2978227e-05,-2.9779032e-02,-4.8000779e-02,-2.9548310e-02,1.4598555e-04,5.2991510e-03,5.0702538e-04,5.2981561e-02,6.1913940e-01,-1.5366615e-01
7.7999759e-01,1.9838726e-04,-5.3511960e-04,-5.2820898e-07,4.1879905e-04,5.9414299e-04,4.1588953e-04,6.2012458e-05,5.5370158e-03,4.8995956e-04,-8.3973168e-03,2.3786499e-02,-1.7065839e-03
7.8999758e-01,8.8519267e-05,-4.1208717e-04,4.9208070e-05,-1.0979699e-02,1.2252834e-02,-1.1050081e-02,1.3351836e-04,4.7079490e-03,4.9749311e-04,7.1505967e-03,-8.2906752e-02,7.5335552e-04
7.9999757e-01,4.5586689e-04,1.3790448e-04,5.0890103e-05,3.6653453e-02,5.4891176e-02,3.6976855e-02,-2.5226751e-04,-3.1799462e-03,1.8349631e-03,-3.8578623e-02,-7.8879027e-01,1.3374713e-01
8.0999756e-01,4.6790299e-04,1.7611744e-04,1.4203780e-05,1.2003282e-03,3.8171004e-03,1.2201017e-03,-3.2271027e-04,-3.7823177e-03,1.7016477e-03,-7.0442827e-03,-6.0237209e-02,-1.3331556e-02
8.1999755e-01,5.9897909e-05,-1.8517796e-04,-6.3744422e-05,-4.0809428e-02,-3.6182723e-02,-4.0744529e-02,3.7909754e-04,1.6828721e-03,1.1796714e-04,7.0180847e-02,5.4651950e-01,-1.5836821e-01
8.2999754e-01,2.1511159e-05,-1.3242813e-04,-6.3072999e-05,-3.8363768e-03,5.2715156e-03,-3.8457437e-03,3.7155897e-04,1.2748966e-03,8.8975632e-05,-7.5385776e-04,-4.0797595e-02,-2.8991532e-03
8.3999753e-01,4.3663632e-04,2.2199583e-04,1.9725733e-05,4.1420662e-02,3.5297739e-02,4.1727074e-02,-4.4141740e-04,-3.9131104e-03,1.8349755e-03,-8.1297715e-02,-5.1880119e-01,1.7460015e-01
8.4999752e-01,5.5401709e-04,-1.8140417e-04,-9.1070846e-05,1.1723078e-02,-4.0336223e-02,1.1766167e-02,-2.3319081e-04,9.1555070e-05,2.0779522e-03,2.0822679e-02,4.0046693e-01,2.4297692e-02
8.5999751e-01,-6.7505065e-05,-4.3768368e-04,2.1079297e-05,-6.2132415e-02,-2.5915009e-02,-6.2053033e-02,1.8042993e-04,4.8015408e-03,3.9384078e-04,4.1362113e-02,4.7099902e-01,-1.6841130e-01
8.6999750e-01,6.3679047e-05,-4.0824670e-04,1.8930237e-05,1.3112899e-02,3.0007289e-03,1.3111024e-02,1.6727335e-04,4.5147136e-03,4.5853941e-04,-1.3156593e-03,-2.8682744e-02,6.4698683e-03
8.7999749e-01,9.4333799e-05,-3.7720451e-04,5.1987184e-05,3.0647618e-03,3.1151517e-03,3.0550894e-03,1.8885011e-04,3.7598483e-03,4.2479356e-04,2.1576785e-03,-7.5486603e-02,-3.3745880e-03
8.8999748e-01,4.6305313e-04,1.0340937e-04,3.6115070e-05,3.6789223e-02,4.7964832e-02,3.7079825e-02,-3.0161364e-04,-2.9105798e-03,1.8492331e-03,-4.9046422e-02,-6.6704345e-01,1.4244409e-01
8.9999747e-01,4.1828577e-04,1.5516831e-04,1.4147933e-05,-4.4699750e-03,5.1903911e-03,-4.4667110e-03,-2.3557286e-04,-3.4735639e-03,1.7820076e-03,6.6040847e-03,-5.6298460e-02,-6.7225593e-03
9.0999746e-01,4.4348284e-05,-2.0328266e-04,-1.1143736e-05,-3.7398921e-02,-3.5886594e-02,-3.7348851e-02,3.5174267e-04,1.4613576e-03,1.9972858e-04,5.8731609e-02,4.9349261e-01,-1.5822805e-01
9.1999745e-01,1.4160557e-04,-1.7373485e-04,-2.8840894e-05,9.7260233e-03,2.9623854e-03,9.7231387e-03,4.2881466e-04,1.2105756e-03,1.0079181e-04,7.7072063e-03,-2.5078218e-02,-9.8936869e-03
9.2999744e-01,7.1734327e-05,-2.6469991e-04,-5.9402735e-05,-6.9903753e-03,-9.1090179e-03,-6.9675674e-03,4.1942394e-04,2.2121378e-03,8.1563212e-05,-9.3907285e-04,1.0015631e-01,-1.9228616e-03
9.3999743e-01,1.6482652e-05,-2.5403376e-04,3.1151663e-05,-5.5238082e-03,1.0552899e-03,-5.5287110e-03,2.9015648e-04,2.3390507e-03,1.9091278e-04,-1.2926758e-02,1.2691300e-02,1.0934967e-02
9.4999743e-01,4.9896770e-04,4.6221356e-06,5.1719975e-05,4.8145230e-02,2.5791321e-02,4.8391321e-02,-2.8423759e-04,-1.8195235e-03,1.9870393e-03,-5.7439462e-02,-4.1585782e-01,1.7961282e-01
9.5994878e-01,4.7970733e-05,-4.3700457e-04,5.8635869e-05,-4.5311338e-02,-4.4548560e-02,-4.5161928e-02,2.4727573e-04,4.0045469e-03,4.3680734e-04,5.3411161e-02,5.8525412e-01,-1.5578102e-01
9.6994877e-01,7.3879266e-05,-4.5816317e-04,2.4505141e-05,2.5894040e-03,-2.1036475e-03,2.6022288e-03,1.2290756e-04,4.8258209e-03,4.5982947e-04,-1.2436829e-02,8.2127477e-02,2.3022152e-03
9.7994876e-01,7.4790593e-05,-4.0397146e-04,4.0984505e-05,9.2010281e-05,5.4195003e-03,6.8052677e-05,1.7031403e-04,4.2673367e-03,4.9948057e-04,4.7406507e-03,-5.5848472e-02,3.9651135e-03
9.8994875e-01,4.8317769e-04,5.8107329e-05,4.5244018e-05,4.0742068e-02,4.6118130e-02,4.1036336e-02,-3.6810818e-04,-2.5580768e-03,1.9488917e-03,-5.3842272e-02,-6.8254200e-01,1.4494125e-01
9.9994898e-01,3.9464616e-04,9.7691600e-05,1.6166739e-05,-8.8370759e-03,3.9809669e-03,-8.8586603e-03,-2.8838933e-04,-2.8410291e-03,1.9201363e-03,7.9717025e-03,-2.8294579e-02,-2.8754723e-03
1.0099490e+00,-8.2915356e-05,-2.3035909e-04,-2.5657083e-05,-4.7760753e-02,-3.2882028e-02,-4.7698701e-02,3.1663475e-04,1.9285634e-03,1.2206205e-04,6.0502466e-02,4.7695970e-01,-1.7980760e-01
1.0199490e+00,2.1594255e-04,2.0872072e-04,2.1517236e-05,2.9866885e-02,4.3790366e-02,3.0076765e-02,3.1277888e-04,-3.6104982e-03,1.0924344e-03,-3.8558757e-04,-5.5390669e-01,9.7037324e-02
1.0299470e+00,3.7852899e-04,1.9739516e-04,1.6371538e-06,1.6232527e-02,-1.1805739e-03,1.6287548e-02,-3.7503822e-04,-3.3088647e-03,1.8221135e-03,-6.8794897e-02,3.0169133e-02,7.2981901e-02
1.0399470e+00,3.6192466e-04,1.0695326e-04,-1.2621947e-05,-1.6544333e-03,-9.0399392e-03,-1.6893663e-03,-3.2278204e-04,-2.8600781e-03,1.8540843e-03,5.2256227e-03,4.4878700e-02,3.1970823e-03
1.0499470e+00,4.0163562e-04,8.6024079e-05,1.4148084e-05,3.9641336e-03,-2.1033555e-03,3.9725462e-03,-2.6330154e-04,-2.8879457e-03,1.8911974e-03,5.9480557e-03,-2.7867598e-03,3.7113172e-03
1.0599470e+00,6.1208616e-05,-3.2229703e-04,4.7698070e-05,-3.4042573e-02,-4.0918205e-02,-3.3939411e-02,2.6772927e-04,2.7994049e-03,3.2575136e-04,5.3103132e-02,5.6873559e-01,-1.5654475e-01
1.0699470e+00,1.1909316e-04,-3.7779862e-04,3.4786158e-05,5.7845467e-03,-5.5312865e-03,5.8103986e-03,2.8455106e-04,3.5382548e-03,4.0300177e-04,1.6821799e-03,7.3885064e-02,7.7250476e-03
1.0799470e+00,7.9928379e-05,-4.6055470e-04,1.1054490e-05,-3.9173514e-03,-8.2915077e-03,-3.8818474e-03,3.0843896e-04,4.3844975e-03,4.2945088e-04,2.3887927e-03,8.4624352e-02,2.6449137e-03
1.0899470e+00,9.1119854e-05,-3.7566713e-04,5.5045223e-05,1.1210101e-03,8.4923313e-03,1.0898478e-03,2.6908372e-04,3.5008972e-03,3.7754907e-04,-3.9355273e-03,-8.8360111e-02,-5.1901857e-03
1.0999470e+00,5.7331583e-05,-3.5614884e-04,3.3266093e-05,-3.3774473e-03,1.9417891e-03,-3.3859911e-03,2.4758323e-04,3.2156036e-03,2.6623602e-04,-2.1500511e-03,-2.8529389e-02,-1.1131316e-02
1.1099470e+00,5.3545840e-05,-2.6633032e-04,1.6141324e-05,-3.7557155e-04,8.9810037e-03,-4.0123688e-04,3.2192887e-04,2.5108824e-03,2.9473539e-04,7.4345706e-03,-7.0472186e-02,2.8499396e-03
1.1199470e+00,6.9579262e-05,-2.4657042e-04,-2.2500898e-05,1.6038154e-03,1.9791965e-03,1.5989125e-03,3.5855908e-04,2.3608384e-03,1.4765304e-04,3.6630246e-03,-1.5004415e-02,-1.4708249e-02
1.1299469e+00,3.9715053e-05,-2.6728040e-04,-8.9565940e-06,-2.9870245e-03,-2.0755641e-03,-2.9826522e-03,4.9150643e-04,2.0209604e-03,1.3957185e-04,1.3294747e-02,-3.3987834e-02,-8.0811954e-04
1.1399469e+00,4.2814613e-04,1.2314341e-04,2.3316456e-05,3.8757547e-02,3.8932089e-02,3.9038895e-02,-3.0002345e-04,-3.1295292e-03,1.9002696e-03,-7.9153063e-02,-5.1504945e-01,1.7606994e-01
1.1499469e+00,3.8851433e-04,1.1846323e-04,3.8837089e-05,-3.9554140e-03,-4.5717786e-04,-3.9722013e-03,-2.4396814e-04,-2.9731489e-03,1.9298236e-03,5.6055358e-03,1.5638046e-02,2.9554078e-03
1.1599469e+00,3.9573512e-04,8.6118932e-05,4.4786185e-05,7.2193167e-04,-3.2359173e-03,7.1554769e-04,-4.0104185e-04,-2.4659666e-03,1.9997679e-03,-1.5707385e-02,5.0718280e-02,6.9944377e-03
1.1699469e+00,2.9671784e-04,5.1338125e-05,5.6319992e-05,-9.8902902e-03,-3.4530246e-03,-9.9219283e-03,2.9249563e-04,-2.2346174e-03,1.2580023e-03,6.9353814e-02,2.3134942e-02,-7.4176639e-02
1.1799469e+00,1.2799988e-05,-3.6376759e-04,-7.7370234e-06,-2.8393988e-02,-4.1602014e-02,-2.8255525e-02,2.5576730e-04,3.4830044e-03,2.9723744e-04,-3.6728362e-03,5.7176273e-01,-9.6076573e-02
1.1899469e+00,4.0854795e-04,1.0247785e-04,1.2645450e-05,3.9476511e-02,4.6531626e-02,3.9781906e-02,-3.8551379e-04,-2.7245411e-03,2.0281771e-03,-6.4128171e-02,-6.2075514e-01,1.7309413e-01
1.1999469e+00,4.1215255e-04,3.7207847e-04,1.2877387e-04,3.9484016e-04,2.6957464e-02,4.9544414e-04,1.3041486e-03,-4.9754569e-03,2.1588584e-03,1.6896640e-01,-2.2509180e-01,1.3068146e-02
1.2099469e+00,4.3165103e-04,1.3749442e-04,-5.4612982e-07,1.9528747e-03,-2.3463850e-02,1.8803389e-03,-2.8727654e-04,-3.1213918e-03,1.9029549e-03,-1.5914267e-01,1.8540669e-01,-2.5590375e-02
1.2199469e+00,2.6723114e-05,-2.1051600e-04,-1.7726175e-05,-4.0500446e-02,-3.4851343e-02,-4.0441948e-02,4.4761274e-04,1.6899895e-03,1.9649505e-04,7.3488999e-02,4.8113859e-01,-1.7064615e-01
1.2299469e+00,-3.5261114e-05,-1.9457024e-04,2.2683168e-06,-6.1966901e-03,1.5878323e-03,-6.2018977e-03,4.7350454e-04,1.5611408e-03,1.5855238e-04,2.5891825e-03,-1.2884880e-02,-3.7942705e-03
1.2399468e+00,4.7011332e-04,1.7573689e-04,3.8446543e-05,5.0434400e-02,3.6862968e-02,5.0762636e-02,-2.2833614e-04,-3.5370409e-03,1.8708149e-03,-7.0184135e-02,-5.0981866e-01,1.7122641e-01
1.2499471e+00,8.2661368e-05,-2.6794363e-04,1.7206497e-05,-3.8750961e-02,-4.4436146e-02,-3.8658359e-02,3.2192731e-04,2.1078336e-03,1.9685073e-04,5.5025086e-02,5.6447453e-01,-1.6739258e-01
1.2599471e+00,-3.8729749e-04,-1.4522850e-03,-8.9415818e-04,-4.7360381e-02,-1.1897209e-01,-4.5238738e-02,1.5493836e-03,1.3270401e-02,-3.8590244e-03,1.2274575e-01,1.1162578e+00,-4.0558790e-01
1.2699471e+00,9.4663163e-05,-4.2438989e-04,3.0214834e-05,4.8209650e-02,1.0298777e-01,4.7757538e-02,3.5731104e-04,4.4883872e-03,4.8096556e-04,-1.1920737e-01,-8.7820225e-01,4.3399941e-01
1.2799470e+00,3.4969655e-04,-5.3785404e-05,9.3212934e-05,2.5478811e-02,3.7027010e-02,2.5576419e-02,2.5628725e-04,-1.0539676e-03,1.3342070e-03,-1.0102388e-02,-5.5423601e-01,8.5324227e-02
1.2899470e+00,4.9409112e-04,-2.5827700e-05,6.1110636e-05,1.4408263e-02,2.7835356e-03,1.4472970e-02,-3.7432494e-04,-1.2191255e-03,2.0865240e-03,-6.3061279e-02,-1.6515807e-02,7.5231770e-02
1.2999470e+00,-3.1590802e-06,-3.5911280e-04,3.7385145e-05,-4.9713886e-02,-3.3495110e-02,-4.9624223e-02,2.6481897e-04,3.6175594e-03,4.0224554e-04,6.3914452e-02,4.8366895e-01,-1.6842801e-01
1.3099470e+00,2.6325820e-04,1.4137875e-04,6.3721237e-05,2.6624529e-02,4.9951668e-02,2.6841274e-02,3.3465789e-04,-3.3116697e-03,1.2743427e-03,6.9838978e-03,-6.9292357e-01,8.7209802e-02
1.3199470e+00,4.1941895e-04,1.8918224e-04,1.9634503e-05,1.5584137e-02,4.7258554e-03,1.5664524e-02,-3.3340221e-04,-3.8136537e-03,1.9421972e-03,-6.6806074e-02,-5.0198450e-02,6.6785515e-02
1.3299470e+00,3.3345991e-04,2.5554114e-04,-4.0504378e-05,-8.5825871e-03,6.6710488e-03,-8.5820077e-03,-3.3139296e-04,-4.4204749e-03,1.8043777e-03,2.0092568e-04,-6.0682179e-02,-1.3781967e-02
1.3399470e+00,3.5334852e-04,2.1072736e-04,-4.9230824e-05,1.9871234e-03,-4.4886512e-03,1.9741556e-03,-4.3570261e-04,-4.1023037e-03,1.8548519e-03,-1.0430975e-02,3.1817154e-02,5.0474278e-03
1.3499470e+00,4.0065323e-04,8.5682791e-04,1.5737686e-04,4.4878243e-03,6.4611303e-02,4.9457976e-03,-3.5651422e-03,-3.1519125e-03,2.5921343e-03,-3.1294425e-01,9.5039213e-02,7.3728306e-02
1.3599470e+00,4.1006128e-04,8.3913351e-05,2.3561393e-05,9.6652105e-04,-7.7293284e-02,7.5159354e-04,-3.5547665e-04,-2.4713943e-03,1.8686472e-03,3.2096686e-01,6.8051878e-02,-7.2348781e-02
1.3699470e+00,-1.1712750e-05,-3.4962573e-04,9.7835104e-06,-4.2174724e-02,-4.3480901e-02,-4.2049283e-02,2.5752131e-04,3.2719257e-03,3.2908609e-04,6.1299854e-02,5.7433255e-01,-1.5395625e-01
1.3799469e+00,4.1878740e-05,-3.3400598e-04,4.6240860e-05,5.3573318e-03,1.5787736e-03,5.3560529e-03,2.8917575e-04,3.4238708e-03,4.2417437e-04,3.1654471e-03,1.5194526e-02,9.5088364e-03
1.3899469e+00,2.9956613e-04,1.9180991e-05,1.0216045e-04,2.5746383e-02,3.5253168e-02,2.5880669e-02,3.7257027e-04,-2.1654329e-03,1.3781259e-03,8.3394598e-03,-5.5893090e-01,9.5395248e-02
1.3999469e+00,4.7698456e-04,9.4966640e-06,5.0613022e-05,1.7706997e-02,-1.0012868e-03,1.7774834e-02,-2.3868232e-04,-2.0864186e-03,1.9760441e-03,-6.1125318e-02,7.9014374e-03,5.9791870e-02
1.4099469e+00,7.0699761e-05,-3.3634091e-04,1.4172390e-05,-4.0628588e-02,-3.4693000e-02,-4.0535234e-02,2.7934706e-04,2.9704421e-03,2.3601778e-04,5.1802988e-02,5.0568656e-01,-1.7400279e-01
1.4199469e+00,-5.0103990e-04,-1.7841174e-03,-1.1661908e-03,-5.7789485e-02,-1.4546919e-01,-5.4748836e-02,2.2891002e-03,1.4738040e-02,-4.9833500e-03,2.0097551e-01,1.1767609e+00,-5.2193728e-01
1.4299469e+00,4.5096155e-05,-2.2958193e-04,-1.1918965e-06,5.4661889e-02,1.5554393e-01,5.4307635e-02,3.5793072e-04,2.0158097e-03,1.3562239e-04,-1.9311713e-01,-1.2722242e+00,5.1189773e-01
1.4399469e+00,2.2325790e-04,1.5257320e-04,6.3749343e-05,1.7807449e-02,3.8151195e-02,1.7962255e-02,2.8181704e-04,-3.3147976e-03,1.0945571e-03,-7.6113753e-03,-5.3306124e-01,9.5893566e-02
1.4499469e+00,4.2044342e-04,1.0322789e-04,3.4217751e-05,1.9682426e-02,-4.9829376e-03,1.9742496e-02,-3.5458446e-04,-2.8048526e-03,1.9198710e-03,-6.3640211e-02,5.0994551e-02,8.2531466e-02
1.4599469e+00,1.0222571e-04,-3.3764803e-04,1.9293944e-05,-3.1825664e-02,-4.4161958e-02,-3.1714699e-02,3.8545745e-04,2.7252045e-03,4.1247644e-04,7.4004261e-02,5.5300623e-01,-1.5073960e-01
1.4699469e+00,2.5787846e-05,-3.4447413e-04,4.4531188e-05,-7.6410060e-03,-7.0351148e-04,-7.6446859e-03,4.5834766e-04,3.1918904e-03,4.0545789e-04,7.2890278e-03,4.6668640e-02,-7.0185523e-04
1.4799469e+00,3.3909354e-04,3.5742113e-05,6.3044742e-05,3.1251596e-02,3.7972690e-02,3.1468590e-02,-3.7651653e-04,-1.9332076e-03,2.0624847e-03,-8.3486498e-02,-5.1251029e-01,1.6570283e-01
1.4899468e+00,1.9376854e-04,3.5263350e-05,7.7913692e-05,-1.4499710e-02,-4.4682111e-05,-1.4565255e-02,-4.5079295e-04,-6.6908786e-04,2.2531728e-03,-7.4276498e-03,1.2641209e-01,1.9068833e-02
1.4999471e+00,4.0416163e-04,1.3250239e-04,2.8596185e-05,2.0994329e-02,9.6680617e-03,2.1108796e-02,-4.3445431e-04,-3.0700602e-03,1.9123528e-03,1.6338266e-03,-2.4009174e-01,-3.4081219e-02
1.5099471e+00,2.2494516e-04,1.3043942e-04,3.9526512e-05,-1.7901266e-02,-1.4498989e-04,-1.7942640e-02,2.4471139e-04,-3.1724752e-03,1.1403308e-03,6.7916635e-02,-1.0241510e-02,-7.7202275e-02
1.5199471e+00,4.2574852e-04,2.0504512e-04,3.6876856e-06,2.0039149e-02,7.3903730e-03,2.0147368e-02,-4.7568427e-04,-3.9614430e-03,1.8734757e-03,-7.2039635e-02,-7.8896861e-02,7.3314563e-02
1.5299470e+00,2.8667917e-04,3.7664590e-04,7.2640581e-05,-1.3887375e-02,1.7245015e-02,-1.3821199e-02,2.9314288e-04,-5.8281516e-03,1.0451456e-03,7.6882789e-02,-1.8667103e-01,-8.2833096e-02
1.5399470e+00,-4.6146690e-05,-1.8678176e-04,1.0829429e-05,-3.3298299e-02,-5.6370311e-02,-3.3220324e-02,3.6603206e-04,1.1931553e-03,1.4839479e-04,7.2889248e-03,7.0213136e-01,-8.9675163e-02
1.5499470e+00,-4.0889423e-05,-2.4324868e-04,1.5053768e-05,5.2348570e-04,-5.6460477e-03,5.3485498e-04,3.9055869e-04,1.6101955e-03,6.8566072e-05,2.4526659e-03,4.1704057e-02,-7.9828794e-03
1.5599470e+00,5.5044312e-05,-2.6767196e-04,3.3127635e-05,9.5910723e-03,-2.4241883e-03,9.6002917e-03,2.2715742e-04,2.1172767e-03,1.8295280e-04,-1.6340143e-02,5.0708175e-02,1.1438684e-02
1.5699470e+00,8.5799047e-05,-2.9920310e-04,5.2842434e-05,3.0735887e-03,-3.1449146e-03,3.0857450e-03,2.9246086e-04,2.9540942e-03,3.1384092e-04,6.5303501e-03,8.3681831e-02,1.3088824e-02
1.5799470e+00,4.3166178e-05,-4.1217031e-04,3.7889047e-05,-4.2641050e-03,-1.1313862e-02,-4.2167962e-03,2.0511512e-04,4.2457895e-03,3.5248947e-04,-8.7345822e-03,1.2916964e-01,3.8648591e-03
1.5899470e+00,2.8527546e-05,-4.6701794e-04,3.0434832e-05,-1.4651558e-03,-5.4906208e-03,-1.4404453e-03,3.2514181e-04,4.3575441e-03,3.3610237e-04,1.2002681e-02,1.1175474e-02,-1.6387116e-03
1.5999470e+00,7.6135372e-05,-4.5048719e-04,7.4335224e-05,4.7590238e-03,1.6739822e-03,4.7552420e-03,1.5112426e-04,4.5440252e-03,4.2276016e-04,-1.7401772e-02,1.8648123e-02,8.6657872e-03
1.6099470e+00,1.2518451e-04,-3.3298242e-04,7.7677831e-05,4.9050271e-03,1.1765931e-02,4.8676459e-03,1.8239612e-04,3.3430458e-03,4.1466790e-04,3.1271887e-03,-1.2009805e-01,-8.0922669e-04
1.6199470e+00,8.3545935e-05,-2.8937699e-04,3.5159409e-05,-4.1610930e-03,4.3510232e-03,-4.1765729e-03,2.8838066e-04,2.5714366e-03,3.6271019e-04,1.0598464e-02,-7.7160992e-02,-5.1957764e-03
1.6299469e+00,6.9813861e-06,-3.2650909e-04,1.0676140e-06,-7.6549594e-03,-3.7316167e-03,-7.6490145e-03,2.5745169e-04,2.6618357e-03,3.2106113e-04,-3.0929000e-03,9.0399166e-03,-4.1649094e-03
1.6399469e+00,2.0515829e-04,1.4222244e-04,5.4309340e-05,1.9751499e-02,4.6839878e-02,1.9962064e-02,-4.9570722e-04,-2.1664999e-03,2.1660539e-03,-7.5315964e-02,-4.8283402e-01,1.8449945e-01
1.6499469e+00,-6.1419738e-04,-7.8246361e-04,2.4093087e-05,-8.2150882e-02,-9.3274126e-02,-8.0799315e-02,1.6331136e-03,1.1549178e-02,-7.8548777e-04,2.1288228e-01,1.3715691e+00,-2.9515444e-01
1.6599469e+00,4.0648188e-04,2.4624234e-04,-2.5947631e-05,1.0184555e-01,1.0250346e-01,1.0265801e-01,-4.3597534e-04,-4.0187327e-03,1.7386352e-03,-2.0690909e-01,-1.5567926e+00,2.5241254e-01
1.6699469e+00,7.2036627e-05,-1.7062643e-04,-4.0096424e-05,-3.3451827e-02,-4.1729220e-02,-3.3384479e-02,2.4179708e-04,1.5079700e-03,8.4003605e-05,6.7777306e-02,5.5267079e-01,-1.6546332e-01
1.6799469e+00,4.3328903e-04,2.0239695e-04,1.5409794e-05,3.6046590e-02,3.7182113e-02,3.6327288e-02,-3.5341835e-04,-3.6687711e-03,1.8114774e-03,-5.9521600e-02,-5.1767460e-01,1.7274754e-01
1.6899469e+00,2.6044139e-04,9.6126256e-05,9.8800767e-05,-1.7240899e-02,-1.0617911e-02,-1.7334170e-02,-4.3157574e-04,-9.5950754e-04,2.2707392e-03,-7.8157457e-03,2.7092662e-01,4.5926232e-02
1.6999469e+00,4.3730131e-04,2.9949615e-05,6.6826039e-05,1.7653143e-02,-6.6456923e-03,1.7708322e-02,-3.0029443e-04,-1.8816817e-03,1.9686691e-03,1.3128143e-02,-9.2217508e-02,-3.0207044e-02
1.7099469e+00,9.6711248e-05,-3.5418211e-04,6.0900989e-05,-3.4057644e-02,-3.8522636e-02,-3.3936621e-02,3.8441050e-04,3.6029583e-03,4.7430126e-04,6.8470559e-02,5.4846453e-01,-1.4943692e-01
1.7199469e+00,1.0289053e-04,-3.2640467e-04,6.1685521e-05,6.1872115e-04,2.7795508e-03,6.0896076e-04,3.7321200e-04,3.3155698e-03,3.9508751e-04,-1.1198512e-03,-2.8738887e-02,-7.9213821e-03
1.7299469e+00,4.8773932e-04,1.5472015e-04,5.8553105e-05,3.8395099e-02,4.7998551e-02,3.8716253e-02,-3.4598038e-04,-3.2944515e-03,1.8994266e-03,-7.1919307e-02,-6.6100275e-01,1.5043405e-01
1.7399468e+00,4.4590549e-04,1.8136987e-04,3.6997157e-05,-4.1767899e-03,2.6780222e-03,-4.1816464e-03,-3.3419799e-04,-3.4508134e-03,1.7882380e-03,1.1782409e-03,-1.5636211e-02,-1.1118875e-02
1.7499471e+00,5.8211737e-05,-1.6861156e-04,-1.8338388e-05,-3.8777441e-02,-3.5047274e-02,-3.8714390e-02,4.3338272e-04,1.7224771e-03,1.6019044e-04,7.6756314e-02,5.1731721e-01,-1.6280103e-01
1.7599471e+00,-3.9627891e-04,-1.2750010e-03,-9.2300698e-04,-4.5781623e-02,-1.1112708e-01,-4.3898248e-02,1.3427146e-03,1.2318100e-02,-4.0567334e-03,9.0933279e-02,1.0595633e+00,-4.2169278e-01
1.7699471e+00,3.3494891e-04,2.2205868e-04,9.0246771e-05,7.3077529e-02,1.4941738e-01,7.3755975e-02,3.0403867e-04,-3.6264891e-03,1.2414608e-03,-1.0386770e-01,-1.5944604e+00,5.2981992e-01
1.7799470e+00,2.6846093e-04,1.0185302e-04,1.1234828e-04,-6.6293528e-03,-1.2013602e-02,-6.6807566e-03,-3.1046874e-04,-1.3545936e-03,2.3613736e-03,-6.1450800e-02,2.2718977e-01,1.1199139e-01
1.7899470e+00,4.1033664e-04,3.1506774e-05,6.4994763e-05,1.4159579e-02,-7.0595729e-03,1.4203164e-02,-2.6588309e-04,-2.0206394e-03,2.1034698e-03,4.4585698e-03,-6.6604648e-02,-2.5790411e-02
1.7999470e+00,5.3296851e-05,-3.1267808e-04,3.6272962e-05,-3.5700484e-02,-3.4522337e-02,-3.5607180e-02,4.0758381e-04,3.3190953e-03,4.9155733e-04,6.7346753e-02,5.3397398e-01,-1.6119140e-01
1.8099470e+00,1.9584288e-04,7.7939646e-04,1.9808044e-04,1.3912071e-02,1.0921366e-01,1.4543372e-02,-2.8903400e-03,-2.4037232e-03,1.8810706e-03,-3.2979269e-01,-5.7228239e-01,1.3895146e-01
1.8199470e+00,1.5507170e-04,-2.6255975e-04,4.4920296e-04,-3.5627502e-03,-1.0426913e-01,-2.2909616e-03,-4.8055198e-03,1.7248530e-02,3.3336268e-03,-1.9151816e-01,1.9652272e+00,1.4525576e-01
1.8299470e+00,2.3706936e-04,1.9745186e-04,6.8472398e-05,8.1580648e-03,4.5986827e-02,8.3211280e-03,-4.9396234e-04,-2.2276977e-03,2.3126629e-03,4.3115615e-01,-1.9476246e+00,-1.0209649e-01
1.8399470e+00,4.7124210e-04,2.2889183e-04,1.5156851e-07,2.3369806e-02,3.0582915e-03,2.3476015e-02,-4.4074519e-04,-4.0916384e-03,1.9667829e-03,5.3217192e-03,-1.8639424e-01,-3.4588033e-02
1.8499470e+00,-5.8966536e-04,-1.6147593e-03,-1.2318143e-03,-1.0701314e-01,-1.8562524e-01,-1.0292013e-01,2.0383455e-03,1.4166437e-02,-5.1666512e-03,2.4790931e-01,1.8258092e+00,-7.1334409e-01
1.8599470e+00,1.5467790e-05,3.2645829e-05,2.1336562e-04,5.9837038e-02,1.6551522e-01,5.9054765e-02,-3.5644223e-03,9.3584791e-03,1.4654814e-03,-5.6027731e-01,-4.8079621e-01,6.6321390e-01
1.8699470e+00,4.7840185e-04,2.7082505e-04,5.1970907e-05,4.6195052e-02,2.3625057e-02,4.6490165e-02,-3.4866968e-04,-4.5013331e-03,1.9441968e-03,3.2157556e-01,-1.3859825e+00,4.7871585e-02
1.8799469e+00,5.0757655e-04,1.4221908e-04,6.4729377e-05,2.9156317e-03,-1.2868652e-02,2.8836491e-03,-3.0327198e-04,-3.0752157e-03,1.9657579e-03,4.5397736e-03,1.4261188e-01,2.1561089e-03
1.8899469e+00,1.2234523e-04,-3.8583820e-04,2.6571892e-05,-3.8520993e-02,-5.2934832e-02,-3.8347828e-02,2.7969611e-04,3.6372503e-03,4.3972386e-04,5.8296865e-02,6.7124724e-01,-1.5260355e-01
1.8999469e+00,-3.6733840e-04,-1.5225878e-03,-8.6041615e-04,-4.9346580e-02,-1.1426822e-01,-4.7175425e-02,1.7410848e-03,1.4142444e-02,-3.6893522e-03,1.4613901e-01,1.0505204e+00,-4.1290800e-01
1.9099469e+00,7.1304616e-05,-1.7946150e-04,2.8531494e-04,4.3277819e-02,1.3502240e-01,4.2238122e-02,-3.8012724e-03,1.2622134e-02,1.7231585e-03,-5.5423625e-01,-1.5203120e-01,5.4125159e-01
1.9199469e+00,4.5318956e-04,1.2236486e-05,6.3790717e-05,3.8103245e-02,1.9133482e-02,3.8291803e-02,-4.0871305e-04,-1.3569211e-03,2.0259854e-03,3.3925626e-01,-1.3979068e+00,3.0282718e-02
1.9299469e+00,4.6140404e-04,7.8806811e-05,5.9576896e-05,8.1793103e-04,6.6554105e-03,8.3798632e-04,-2.8482893e-04,-2.2419351e-03,1.9719962e-03,1.2388424e-02,-8.8501485e-02,-5.3989199e-03
1.9399469e+00,7.5961863e-05,-2.6851108e-04,1.2807924e-05,-3.8541926e-02,-3.4823067e-02,-3.8464172e-02,3.0140355e-04,2.6710434e-03,3.3190114e-04,5.8623304e-02,4.9129833e-01,-1.6400967e-01
1.9499469e+00,5.4979645e-05,-1.0601861e-04,3.7566729e-05,-2.0926979e-03,1.6246952e-02,-2.1215078e-03,3.0143300e-04,1.3944700e-03,2.9912245e-04,2.9455925e-06,-1.2765746e-01,-3.2778726e-03
1.9599469e+00,4.1363457e-04,3.5300600e-04,2.1905136e-05,3.5777529e-02,4.5728179e-02,3.6174770e-02,-3.7595220e-04,-5.2087969e-03,1.9703738e-03,-6.7738585e-02,-6.6032733e-01,1.6712529e-01
1.9699469e+00,3.7199954e-04,2.9149119e-04,3.1264475e-05,-4.1536232e-03,-6.1334221e-03,-4.1998727e-03,-3.0783107e-04,-4.6220909e-03,1.9172910e-03,6.8121190e-03,5.8670658e-02,-5.3082827e-03
1.9799469e+00,4.1027457e-05,-2.0433043e-04,2.7407289e-05,-3.3157693e-02,-4.9622069e-02,-3.2976773e-02,2.0657375e-03,3.2771641e-03,1.2651557e-03,2.3735708e-01,7.8992625e-01,-6.5213589e-02
1.9899468e+00,-5.6805100e-04,-7.6290861e-04,7.1048829e-04,-6.0651032e-02,-5.7536380e-02,-5.9587452e-02,-2.8808880e-03,2.4930525e-02,1.5699760e-03,-4.9466302e-01,2.1653382e+00,3.0482055e-02
1.9999471e+00,3.9644120e-04,8.6248083e-04,2.1235712e-04,9.5564005e-02,1.6268915e-01,9.7064472e-02,-3.7271545e-03,-2.1096989e-03,2.8632462e-03,-8.4624709e-02,-2.7039605e+00,1.2932406e-01
2.0099471e+00,3.4313925e-04,1.1971407e-04,5.8503252e-05,-5.3398088e-03,-7.4262065e-02,-5.5217102e-03,2.2529449e-04,-2.4825117e-03,1.3357645e-03,3.9524528e-01,-3.7281315e-02,-1.5274832e-01
2.0199471e+00,4.9407193e-04,5.2182995e-05,3.0525759e-05,1.5066553e-02,-6.7798155e-03,1.5108011e-02,-4.1236535e-04,-2.1783043e-03,1.9534883e-03,-6.3766045e-02,3.0420772e-02,6.1772441e-02
2.0299470e+00,4.2745797e-04,7.2802918e-04,2.1504724e-04,-6.9045170e-03,6.7562725e-02,-6.6365484e-03,-3.8856149e-03,-6.6615079e-04,2.9143790e-03,-3.4732529e-01,1.5121549e-01,9.6089161e-02
2.0399470e+00,4.5700614e-04,8.3733270e-04,2.5183351e-04,2.9029923e-03,1.0937138e-02,2.9810058e-03,-3.9352847e-03,-1.6040800e-03,2.9708874e-03,-4.9669839e-03,-9.3793009e-02,5.6508514e-03
2.0499470e+00,1.3553819e-04,-2.2727812e-04,3.6570031e-05,-3.2160865e-02,-1.0652719e-01,-3.1913261e-02,2.4701692e-04,2.3084647e-03,3.8125340e-04,4.1823056e-01,3.9125484e-01,-2.5896365e-01
2.0599470e+00,1.5867151e-04,-2.5927140e-04,-5.4718277e-05,2.3116804e-03,-3.1951849e-03,2.3207074e-03,2.4369883e-04,2.0326123e-03,3.7785583e-04,-3.3180911e-04,-2.7585260e-02,-3.3975690e-04
2.0699470e+00,1.3490790e-05,-2.0912114e-04,9.5157997e-06,-1.4512192e-02,4.9856934e-03,-1.4534074e-02,2.0240513e-04,2.2215687e-03,3.3595769e-04,-4.1293740e-03,1.8895661e-02,-4.1898186e-03
2.0799470e+00,3.8984780e-04,9.0596379e-04,2.2233403e-04,3.7116418e-02,1.1153670e-01,3.8065756e-02,-3.7177533e-03,-2.9299365e-03,2.7727749e-03,-3.9201621e-01,-5.1515102e-01,2.4368196e-01
2.0899470e+00,2.4398255e-05,-2.9933636e-04,4.0104571e-05,-3.6571135e-02,-1.2062205e-01,-3.6214062e-02,2.9597025e-04,2.8237374e-03,2.6063543e-04,4.0137273e-01,5.7536794e-01,-2.5121419e-01
2.0999470e+00,1.4502580e-04,-4.1579810e-04,-4.5744832e-05,1.2054669e-02,-1.1603014e-02,1.2112361e-02,2.8607281e-04,3.8562292e-03,3.9490354e-04,-9.8974499e-04,1.0324928e-01,1.3426824e-02
2.1099470e+00,5.0389792e-05,-4.4164037e-04,1.0710869e-06,-9.4597241e-03,-2.6245070e-03,-9.4564079e-03,2.9368536e-04,4.5504087e-03,4.9064722e-04,7.6125593e-04,6.9418017e-02,9.5743773e-03
2.1199470e+00,-5.9489272e-04,-9.3336040e-04,1.1578183e-04,-6.4642182e-02,-4.9902011e-02,-6.3850406e-02,1.6766274e-03,1.3061572e-02,-4.8854147e-04,1.3829434e-01,8.5111719e-01,-9.7918963e-02
2.1299469e+00,3.6969283e-04,8.8195561e-05,8.8244619e-05,9.5993578e-02,1.0239450e-01,9.6669154e-02,-1.6563396e-03,8.1875845e-04,3.0612266e-03,-3.3329702e-01,-1.2242826e+00,3.5497715e-01
2.1399469e+00,1.3353629e-05,-2.8613831e-04,-3.2720748e-05,-3.5637851e-02,-3.7505290e-02,-3.5554400e-02,3.6915459e-04,2.3883688e-03,2.7833823e-04,2.0254961e-01,1.5696118e-01,-2.7828911e-01
2.1499469e+00,6.8390922e-05,-1.9884226e-04,-1.2009433e-04,5.5055217e-03,8.7361462e-03,5.4915675e-03,3.2229094e-04,1.5109326e-03,1.8641560e-04,-4.6863690e-03,-8.7743703e-02,-9.1922716e-03
2.1599469e+00,4.1828460e-04,3.8478749e-04,2.4005196e-06,3.4902450e-02,5.8176711e-02,3.5384305e-02,-4.3890349e-04,-5.7264434e-03,1.7513506e-03,-7.6119516e-02,-7.2373829e-01,1.5649365e-01
2.1699469e+00,4.7378145e-04,1.5765633e-04,-1.0168586e-04,5.5449106e-03,-2.2729444e-02,5.4873567e-03,-4.0472526e-04,-3.3579089e-03,2.5143253e-03,3.4178256e-03,2.3685368e-01,7.6297539e-02
2.1799469e+00,-2.6406764e-05,-2.7049624e-04,-1.8548891e-05,-5.0019380e-02,-4.2905816e-02,-4.9940732e-02,3.5749475e-04,2.1685935e-03,2.9567032e-04,7.6222074e-02,5.5265077e-01,-2.2186571e-01
2.1899469e+00,1.2512421e-04,-3.7657062e-04,-3.9440492e-05,1.5143592e-02,-1.0564342e-02,1.5192691e-02,4.7040708e-04,3.3102493e-03,2.9877520e-04,1.1291244e-02,1.1416568e-01,3.1048875e-04
2.1999469e+00,1.2575502e-04,-4.1833484e-04,3.3007555e-05,6.1311751e-05,-4.1761776e-03,7.9214069e-05,4.1744613e-04,3.8570586e-03,4.0644424e-04,-5.2961001e-03,5.4680980e-02,1.0766914e-02
2.2099469e+00,4.4590055e-04,-5.1762754e-05,1.0814880e-04,3.1938130e-02,3.6639708e-02,3.2110876e-02,-3.3166840e-04,-8.7715952e-04,2.0062590e-03,-7.4911524e-02,-4.7342226e-01,1.5998163e-01
2.2199223e+00,4.4395339e-04,-6.9729903e-05,6.9498149e-05,-1.9425234e-04,-1.8010485e-03,-1.9697039e-04,-3.1579998e-04,-7.7824986e-04,1.9175778e-03,1.5907499e-03,9.9153244e-03,-8.8899593e-03
2.2299223e+00,1.5924414e-04,-4.1897856e-04,3.7083019e-06,-2.8472167e-02,-3.5025165e-02,-2.8346292e-02,3.3228434e-04,3.8617922e-03,3.6480553e-04,6.4808495e-02,4.6400465e-01,-1.5527738e-01
2.2399223e+00,1.7788711e-04,-3.7996864e-04,-5.7431959e-05,1.8652715e-03,3.9065290e-03,1.8516957e-03,3.3698508e-04,3.3159974e-03,1.8297998e-04,4.7007458e-04,-5.4579530e-02,-1.8182572e-02
2.2499225e+00,3.0613343e-04,2.6666389e-04,4.6428577e-05,1.2828093e-02,6.4597247e-02,1.3141839e-02,2.7911582e-04,-4.6915331e-03,1.1138973e-03,-5.7867940e-03,-8.0073472e-01,9.3089606e-02
2.2599225e+00,4.4924171e-04,3.2449804e-04,9.4447547e-05,1.4277074e-02,5.7114795e-03,1.4373325e-02,-3.4486361e-04,-5.3542380e-03,2.2176763e-03,-6.2398003e-02,-6.6270557e-02,1.1037801e-01
2.2699225e+00,3.5118855e-04,1.0277995e-04,4.5196709e-05,-9.7746391e-03,-2.2142892e-02,-9.9008883e-03,-1.6816504e-04,-3.1000232e-03,2.7454406e-03,1.7669874e-02,2.2542170e-01,5.2776474e-02
2.2799225e+00,-3.7946371e-04,-3.7133012e-04,6.7159016e-05,-7.2972829e-02,-4.7661314e-02,-7.2994851e-02,1.4732328e-04,3.5717904e-03,1.3602017e-03,3.1548862e-02,6.6718199e-01,-1.3852402e-01
2.2899225e+00,-9.5709555e-04,-2.2560799e-04,1.1864790e-04,-5.7720116e-02,1.4419558e-02,-5.7844602e-02,1.1899358e-04,2.7590782e-03,7.1626352e-04,-2.8329720e-03,-8.1271298e-02,-6.4393880e-02
2.2999225e+00,-8.6091323e-04,4.7001866e-04,1.7963594e-04,9.2835768e-03,6.9647593e-02,9.3286011e-03,-4.3318975e-03,4.6207715e-03,3.4498559e-03,-4.4508953e-01,1.8616951e-01,2.7335950e-01
2.3099225e+00,-1.2031894e-03,2.6830452e-04,1.3085261e-04,-3.4073020e-02,-2.0344956e-02,-3.4279192e-02,-3.0504988e-03,2.0176736e-03,2.7116704e-03,1.2813999e-01,-2.6031003e-01,-7.3818617e-02
2.3199224e+00,-2.2323735e-03,-5.9611431e-04,2.3789296e-05,-1.0297158e-01,-8.6780531e-02,-1.0257994e-01,1.0369994e-03,4.3334377e-03,3.5469694e-04,4.0875021e-01,2.3157663e-01,-2.3569757e-01
2.3299224e+00,-2.4583566e-03,-2.4928294e-05,1.3453902e-04,-2.2542582e-02,5.7164599e-02,-2.2537748e-02,4.0128843e-04,-1.6329369e-03,1.4512645e-03,-6.3571153e-02,-5.9663803e-01,1.0965686e-01
2.3399224e+00,-2.6765194e-03,8.1354163e-04,3.1180078e-04,-2.2042708e-02,8.3819384e-02,-2.1694790e-02,-3.5617885e-03,-2.3195872e-03,3.2996088e-03,-3.9630808e-01,-6.8665086e-02,1.8483461e-01
2.3499224e+00,-3.4889869e-03,1.4732056e-04,-2.7515616e-04,-8.1255999e-02,-6.6551097e-02,-8.1295886e-02,-4.3903578e-04,-1.3136647e-03,-4.7312423e-04,3.1227557e-01,1.0059234e-01,-3.7727366e-01
2.3599224e+00,-4.0948059e-03,-4.6105498e-06,1.4078054e-05,-6.0566790e-02,-1.5099040e-02,-6.0620631e-02,3.5822303e-04,-1.1942048e-03,3.4006448e-04,7.9725957e-02,1.1946008e-02,8.1318949e-02
2.3699224e+00,-4.2822573e-03,3.0047241e-04,1.0454621e-04,-1.8705515e-02,3.0607582e-02,-1.8622563e-02,2.9454291e-04,-5.0128528e-03,1.6343600e-03,-6.3680187e-03,-3.8186517e-01,1.2942968e-01
2.3799224e+00,-4.4987845e-03,9.6327241e-04,3.3068468e-04,-2.1757775e-02,6.6351840e-02,-2.1325135e-02,-2.4248342e-03,-5.7850079e-03,2.5652424e-03,-2.7193797e-01,-7.7215580e-02,9.3088330e-02
2.3899224e+00,-5.1511674e-03,-1.7435819e-04,4.3900222e-04,-6.4792950e-02,-1.1461779e-01,-6.4177733e-02,-2.7450494e-03,1.0435632e-02,2.0347047e-03,-3.2021549e-02,1.6220656e+00,-5.3053818e-02
2.3999224e+00,-5.3903033e-03,-5.2433060e-04,2.2114520e-04,-2.3887363e-02,-3.5115842e-02,-2.3765564e-02,5.5743866e-04,5.5276318e-03,1.9113080e-03,3.3024912e-01,-4.9080054e-01,-1.2339686e-02
2.4099224e+00,-5.7844851e-03,-3.0169837e-04,2.4448807e-04,-3.9311526e-02,2.2105736e-02,-3.9612935e-02,-1.7981144e-04,3.8012929e-03,2.8043498e-03,-7.3725081e-02,-1.7263406e-01,8.9304268e-02
2.4199224e+00,-7.0966871e-03,-9.8543266e-04,9.3598961e-04,-1.3062599e-01,-7.2557163e-02,-1.2955613e-01,-3.1954517e-03,2.8829796e-02,2.8551062e-03,-3.0156431e-01,2.5028527e+00,5.0756443e-03
2.4299223e+00,-7.1115540e-03,2.9471751e-04,2.2368878e-04,-1.5694721e-03,1.2801660e-01,-1.2578941e-03,-6.7889637e-04,-1.8212866e-03,2.7719692e-03,2.5165577e-01,-3.0651112e+00,-8.3137122e-03
2.4399223e+00,-8.1019566e-03,-4.6607007e-04,1.8639587e-04,-9.8997346e-02,-7.6759769e-02,-9.8556760e-02,8.8311316e-05,6.9789399e-03,5.0194907e-04,7.6720842e-02,8.8002349e-01,-2.2700223e-01
2.4499223e+00,-8.4720940e-03,-6.4049688e-04,1.7388196e-04,-3.6992354e-02,-1.7732051e-02,-3.6897521e-02,8.8992473e-05,7.9163605e-03,6.2050065e-04,6.8115736e-05,9.3742145e-02,1.1855169e-02
2.4599223e+00,-8.4343237e-03,5.9066162e-05,6.2046921e-04,3.4414380e-03,7.0011423e-02,2.9971583e-03,-4.5686302e-03,1.1349858e-02,4.2145495e-03,-4.6576271e-01,3.4335009e-01,3.5940523e-01
2.4699223e+00,-8.8775657e-03,1.3890396e-04,7.4347104e-04,-4.4138766e-02,7.2351867e-03,-4.4636740e-02,-4.7520013e-03,1.2062294e-02,5.0165214e-03,-1.8337136e-02,7.1243662e-02,8.0197270e-02
2.4799223e+00,-9.9055573e-03,-3.0621758e-04,8.1886524e-04,-1.0216154e-01,-4.6820156e-02,-1.0240899e-01,-4.7809921e-03,1.7671999e-02,4.1134476e-03,-2.8990789e-03,5.6097105e-01,-9.0307469e-02
2.4899223e+00,-1.0762267e-02,-1.5058477e-04,3.0970561e-04,-8.5596862e-02,1.5213176e-02,-8.5807979e-02,-6.7284707e-04,3.4094876e-03,9.8744535e-04,4.1081489e-01,-1.4262525e+00,-3.1260052e-01
2.4999225e+00,-1.1217226e-02,6.0705594e-05,3.9742423e-04,-4.5413159e-02,2.1118851e-02,-4.5580929e-02,-6.7904599e-04,-4.6495339e-04,2.1089295e-03,-6.1987698e-04,-3.8743523e-01,1.1214585e-01
2.5099225e+00,-1.2246578e-02,-6.8883655e-04,1.1001490e-03,-1.0222416e-01,-7.7862579e-02,-1.0147485e-01,-4.5322283e-03,2.3854343e-02,3.5919088e-03,-3.8531859e-01,2.4319320e+00,1.4829807e-01
2.5199225e+00,-1.2676120e-02,6.9586691e-05,4.0101238e-04,-4.2909245e-02,7.5925924e-02,-4.2851469e-02,-2.0598472e-04,-2.1516656e-03,1.4095407e-03,4.3262477e-01,-2.6006033e+00,-2.1823702e-01
2.5299225e+00,-1.3406442e-02,-1.1522779e-03,4.9577545e-04,-7.2740045e-02,-1.2340226e-01,-7.1258442e-02,-1.1675274e-03,1.5653299e-02,2.0458563e-03,-9.6154359e-02,1.7804981e+00,6.3631619e-02
2.5399225e+00,-1.4006553e-02,5.2330396e-04,3.4582814e-04,-5.9973443e-02,1.6797043e-01,-5.8886209e-02,-3.2868359e-04,-7.2581192e-03,1.5442033e-03,8.3884460e-02,-2.2911440e+00,-5.0165348e-02
2.5499225e+00,-1.4676945e-02,7.5812403e-04,3.8037272e-04,-6.6932419e-02,2.4103111e-02,-6.6925550e-02,-6.9075266e-04,-9.9545228e-03,1.8341550e-03,-3.6206942e-02,-2.6964062e-01,2.8995196e-02
2.5599225e+00,-1.5322205e-02,9.0795973e-04,5.4194369e-04,-6.4403944e-02,1.5478371e-02,-6.4531277e-02,-1.8642540e-03,-9.5211717e-03,2.3210335e-03,-1.1735024e-01,4.3335155e-02,4.8687897e-02
2.5699224e+00,-1.6407500e-02,-3.4400157e-04,7.0070841e-04,-1.0772827e-01,-1.2723523e-01,-1.0694518e-01,-4.3760571e-03,1.4511253e-02,2.3233386e-03,-2.5118055e-01,2.4032447e+00,2.3051159e-04
2.5799224e+00,-1.7044503e-02,-1.6109643e-04,5.0044527e-04,-6.3602536e-02,1.8190061e-02,-6.3826691e-02,-2.7127695e-04,1.3035912e-03,1.6117604e-03,4.1047840e-01,-1.3207674e+00,-7.1157884e-02
2.5899224e+00,-1.7646512e-02,5.5141399e-04,5.4464884e-04,-6.0084921e-02,7.1708091e-02,-5.9772726e-02,-6.1455702e-04,-8.2240113e-03,2.6508414e-03,-3.4328040e-02,-9.5276116e-01,1.0390820e-01
2.5999224e+00,-1.8690680e-02,9.9342981e-04,6.5961126e-04,-1.0411322e-01,4.4919906e-02,-1.0441354e-01,-1.8631618e-03,-8.7268768e-03,3.6882089e-03,-1.2486060e-01,-5.0286600e-02,1.0373684e-01
2.6099224e+00,-1.9809325e-02,9.9320842e-05,4.7094740e-04,-1.1179849e-01,-8.9327845e-02,-1.1199719e-01,-1.0306389e-04,-8.4553703e-04,5.0918798e-04,1.7600996e-01,7.8813473e-01,-3.1790239e-01
2.6199224e+00,-2.0487256e-02,-1.5444785e-04,4.1157332e-04,-6.7768152e-02,-2.5533322e-02,-6.7759299e-02,-2.1569848e-04,2.0919815e-03,2.8719313e-04,-1.1263470e-02,2.9375213e-01,-2.2199506e-02
2.6299224e+00,-2.0994556e-02,-2.5627673e-04,4.7999497e-04,-5.0695052e-02,-1.0396838e-02,-5.0721787e-02,-4.7568446e-04,3.7407524e-03,5.9555944e-04,-2.5998622e-02,1.6487725e-01,3.0836661e-02
2.6399224e+00,-2.1090552e-02,7.1212498e-04,6.1740089e-04,-9.6255741e-03,9.6918645e-02,-8.7444974e-03,-5.5151182e-04,-9.1108760e-03,2.8551323e-03,-7.5827441e-03,-1.2851641e+00,2.2595750e-01
2.6499224e+00,-2.2312066e-02,-6.8567833e-04,6.9288595e-04,-1.2172967e-01,-1.4098232e-01,-1.2118749e-01,-3.7248582e-04,9.4897476e-03,3.0221218e-03,1.7902617e-02,1.8600641e+00,1.6698967e-02
2.6599224e+00,-2.3008476e-02,-4.1446150e-04,6.0983299e-04,-6.9465195e-02,2.6681069e-02,-6.9986062e-02,-6.3697670e-04,5.6683421e-03,2.7693462e-03,-2.6449112e-02,-3.8214092e-01,-2.5277590e-02
2.6699224e+00,-2.3900626e-02,-1.4146035e-04,6.5688145e-04,-8.9047822e-02,2.7006216e-02,-8.9471344e-02,-7.2739272e-04,2.5607347e-03,2.0953061e-03,-9.0416107e-03,-3.1076104e-01,-6.7404073e-02
2.6799223e+00,-2.4659297e-02,4.7487389e-04,7.4762039e-04,-7.5694432e-02,6.2222837e-02,-7.5557952e-02,4.0827999e-05,-7.7344675e-03,2.2407933e-03,7.6822145e-02,-1.0295212e+00,1.4548733e-02
2.6899223e+00,-2.5733821e-02,3.7321676e-04,7.3324728e-04,-1.0722374e-01,-9.4526085e-03,-1.0774582e-01,-1.7111951e-04,-6.7912148e-03,2.1109815e-03,-2.1194771e-02,9.4325352e-02,-1.2981190e-02
2.6999223e+00,-2.6924270e-02,-7.0669951e-04,6.9207809e-04,-1.1870784e-01,-1.0904849e-01,-1.1841663e-01,-7.9579266e-04,8.0942799e-03,2.1074864e-03,-6.2467375e-02,1.4885509e+00,-3.4951051e-04
2.7099223e+00,-2.7826073e-02,-8.2630109e-04,8.3300881e-04,-8.9916283e-02,-1.3152608e-02,-9.0277977e-02,-1.3378695e-03,1.1862243e-02,2.7462802e-03,-5.4207739e-02,3.7679664e-01,6.3879440e-02
2.7199223e+00,-2.8873859e-02,-1.0450508e-03,1.0319600e-03,-1.0440106e-01,-2.3851497e-02,-1.0472448e-01,-1.8567860e-03,1.6983960e-02,3.2102201e-03,-5.1891692e-02,5.1217223e-01,4.6394037e-02
2.7299223e+00,-2.9490840e-02,3.6740776e-04,7.4288789e-04,-6.1575386e-02,1.4158321e-01,-6.1044332e-02,-3.6870947e-04,-5.8571801e-03,2.8290941e-03,1.4880779e-01,-2.2841162e+00,-3.8112636e-02
2.7399223e+00,-3.0703110e-02,-5.5942444e-04,7.0502370e-04,-1.2090278e-01,-9.3389038e-02,-1.2100926e-01,-3.6960784e-04,5.4503703e-03,2.3901630e-03,-8.9837359e-05,1.1307561e+00,-4.3893158e-02
2.7499225e+00,-3.1609152e-02,-5.2396066e-04,7.6480645e-04,-9.0412988e-02,2.9991305e-03,-9.0810571e-02,-4.2732013e-04,5.5995622e-03,2.1018831e-03,-5.7710963e-03,1.4918849e-02,-2.8827329e-02
2.7599225e+00,-3.2089762e-02,8.7047507e-04,1.0983584e-03,-4.8381807e-02,1.3939623e-01,-4.7876661e-02,-4.0396267e-03,-3.0734997e-03,5.0262485e-03,-3.6123100e-01,-8.6730702e-01,2.9243683e-01
2.7699225e+00,-3.3107183e-02,1.1711583e-03,1.0748708e-03,-1.0133025e-01,3.0511984e-02,-1.0202089e-01,-3.5190520e-03,-7.8505995e-03,5.0700658e-03,5.2057518e-02,-4.7771043e-01,4.3817282e-03
2.7799225e+00,-3.4364649e-02,2.5492426e-04,9.0586039e-04,-1.2537339e-01,-9.1184013e-02,-1.2643689e-01,-1.1995425e-04,-3.5998097e-03,2.8767241e-03,3.3991010e-01,4.2507938e-01,-2.1933438e-01
2.7899139e+00,-3.5355804e-02,3.2238372e-04,8.5881052e-04,-9.8941639e-02,7.1598023e-03,-9.9430645e-02,-1.5428449e-04,-4.2572076e-03,2.6190511e-03,-3.4359770e-03,-6.5796324e-02,-2.5789457e-02
2.7999139e+00,-3.6030729e-02,9.7340629e-04,8.0872566e-04,-6.7236476e-02,6.5871775e-02,-6.6999774e-02,-6.1858831e-04,-1.2036854e-02,4.3812066e-03,-4.6430426e-02,-7.7796536e-01,1.7621572e-01
2.8098373e+00,-3.7866669e-02,-3.1822239e-04,1.6827517e-03,-1.8401074e-01,-1.3439173e-01,-1.8296932e-01,-2.8730492e-03,2.0083911e-02,3.3705012e-03,-2.2718500e-01,3.2368520e+00,-1.0185013e-01
2.8198373e+00,-3.8091353e-02,1.3972068e-04,9.0231908e-04,-2.2407056e-02,4.5854881e-02,-2.2406199e-02,3.3519817e-04,-2.3597885e-03,2.0466253e-03,3.2082504e-01,-2.2443721e+00,-1.3238771e-01
2.8298373e+00,-3.8807602e-02,-1.0413070e-04,9.6603327e-04,-7.1398235e-02,-2.4387109e-02,-7.1850331e-02,-8.1577361e-05,-5.4201632e-05,3.1329279e-03,-4.1677593e-02,2.3055891e-01,1.0863036e-01
2.8398373e+00,-3.9539435e-02,5.2572087e-05,1.0795554e-03,-7.2889012e-02,1.5794586e-02,-7.3450065e-02,-5.0515089e-04,-2.1950390e-03,4.1226639e-03,-4.2357393e-02,-2.1408394e-01,9.8973691e-02
2.8498373e+00,-4.0774655e-02,7.4319388e-04,1.2668557e-03,-1.2319529e-01,6.8914039e-02,-1.2393048e-01,-3.5888865e-03,-2.3831879e-03,4.6347778e-03,-3.0837386e-01,-1.8814900e-02,5.1211437e-02
2.8598373e+00,-4.2060194e-02,4.8660347e-05,9.9310203e-04,-1.2809017e-01,-6.9459785e-02,-1.2901282e-01,-8.8408270e-04,-8.3156819e-04,3.1255054e-03,2.7048064e-01,1.5516212e-01,-1.5092738e-01
2.8698373e+00,-4.2778669e-02,5.8916607e-04,9.5171555e-04,-7.1609384e-02,5.4648196e-02,-7.1633096e-02,-8.0960032e-04,-9.1227663e-03,3.9168519e-03,7.4482455e-03,-8.2912060e-01,7.9134729e-02
2.8798373e+00,-4.4274448e-02,2.1384082e-05,9.4982049e-04,-1.4916221e-01,-5.6489061e-02,-1.5010174e-01,-6.6945408e-04,-2.5949432e-03,2.5220603e-03,1.4014637e-02,6.5278293e-01,-1.3947930e-01
2.8898373e+00,-4.5440332e-02,-3.9697237e-04,1.5511534e-03,-1.1573651e-01,-4.4327312e-02,-1.1651677e-01,-5.3910261e-03,1.5947471e-02,5.3449326e-03,-4.7215766e-01,1.8542432e+00,2.8228750e-01
2.8998373e+00,-4.6617379e-02,-1.1061318e-03,1.2971353e-03,-1.1691721e-01,-7.2972983e-02,-1.1723142e-01,-2.3174433e-03,1.5150252e-02,5.2779728e-03,3.0735858e-01,-7.9721985e-02,-6.6959850e-03
2.9098372e+00,-4.7724715e-02,5.8041293e-04,1.0784177e-03,-1.1032222e-01,1.6967895e-01,-1.0957366e-01,-7.0217512e-04,-9.9812569e-03,4.7745019e-03,1.6152697e-01,-2.5131533e+00,-5.0347139e-02
2.9198372e+00,-4.9581582e-02,-9.6389831e-04,1.2793647e-03,-1.8453193e-01,-1.5727260e-01,-1.8444915e-01,-2.1084823e-03,1.3209651e-02,4.4537763e-03,-1.4063085e-01,2.3190930e+00,-3.2072593e-02
2.9298372e+00,-5.0726918e-02,9.8059155e-05,1.2037488e-03,-1.1412309e-01,1.0641824e-01,-1.1473716e-01,-1.6060177e-03,-3.5368146e-03,5.0608572e-03,5.0246507e-02,-1.6746482e+00,6.0708153e-02
2.9398372e+00,-5.2797397e-02,-1.3347165e-03,1.6169695e-03,-2.0570034e-01,-1.4741312e-01,-2.0548241e-01,-1.8988459e-03,1.8096876e-02,5.1799214e-03,-2.9282848e-02,2.1633711e+00,1.1906426e-02
2.9498372e+00,-5.3800180e-02,-1.3498759e-04,1.2148545e-03,-9.9949890e-02,1.2003290e-01,-1.0053438e-01,-1.6240214e-03,-2.2142517e-03,5.2041090e-03,2.7482480e-02,-2.0311147e+00,2.4187609e-03
2.9598372e+00,-5.5588019e-02,-1.5588925e-04,1.1241845e-03,-1.7815043e-01,-1.7679170e-03,-1.7941898e-01,-9.0163612e-04,-2.6945587e-03,3.5271277e-03,7.2238595e-02,-4.8030743e-02,-1.6769829e-01
2.9698372e+00,-5.7168649e-02,4.5079861e-06,1.1309282e-03,-1.5752524e-01,1.6583369e-02,-1.5854323e-01,-7.6419112e-04,-4.1899080e-03,3.4741046e-03,1.3744513e-02,-1.4953508e-01,-5.3023124e-03
2.9798372e+00,-5.8305411e-02,2.8152791e-04,1.1672101e-03,-1.1315568e-01,2.8611865e-02,-1.1397013e-01,-1.0051546e-03,-8.9758957e-03,4.8133353e-03,-2.4096372e-02,-4.7859923e-01,1.3392320e-01
2.9898372e+00,-5.9617866e-02,2.9909054e-04,1.2593853e-03,-1.3056724e-01,2.9478797e-03,-1.3189931e-01,-1.0782154e-03,-1.0106191e-02,5.1694366e-03,-7.3060818e-03,-1.1302962e-01,3.5610157e-02
2.9998374e+00,-6.1445679e-02,-6.0624429e-04,1.2932238e-03,-1.8183525e-01,-9.0726402e-02,-1.8361787e-01,-1.0964643e-03,-2.9204817e-05,4.5986803e-03,-1.8248504e-03,1.0076755e+00,-5.7074322e-02
3.0098374e+00,-6.3091404e-02,-6.3313975e-04,1.4137589e-03,-1.6373247e-01,-2.7204405e-03,-1.6540797e-01,-1.0094775e-03,-8.1761808e-04,5.0750932e-03,8.6986846e-03,-7.8841402e-02,4.7641343e-02
3.0198374e+00,-6.4662006e-02,-4.6244673e-04,1.4798876e-03,-1.5613273e-01,1.7238848e-02,-1.5796415e-01,-1.4724260e-03,-2.5369826e-03,6.0469417e-03,-4.6294890e-02,-1.7193661e-01,9.7184937e-02
3.0298374e+00,-6.6470467e-02,-5.0054630e-04,1.4892806e-03,-1.7992009e-01,-3.9829840e-03,-1.8176402e-01,-1.7274733e-03,-7.6681200e-04,5.0706438e-03,-2.5504760e-02,1.7701723e-01,-9.7629879e-02
3.0398374e+00,-6.8502811e-02,-8.4047015e-04,1.4898088e-03,-2.0244549e-01,-3.5058059e-02,-2.0384034e-01,-2.3065468e-03,2.9278466e-03,3.4884544e-03,-5.7907401e-02,3.6946621e-01,-1.5821909e-01
3.0498374e+00,-7.0208049e-02,-1.0426628e-03,1.4966752e-03,-1.6991065e-01,-2.1076040e-02,-1.7103170e-01,-1.8773468e-03,3.1371956e-03,3.3666609e-03,4.2920039e-02,2.0934919e-02,-1.2179360e-02
3.0598373e+00,-7.1780831e-02,-1.1457386e-03,2.1647340e-03,-1.5611213e-01,-1.4454997e-02,-1.5811158e-01,-6.2334888e-03,2.0014558e-02,6.9629737e-03,-4.3561461e-01,1.6877379e+00,3.5963162e-01
3.0698373e+00,-7.3230805e-02,3.0224172e-04,1.6300168e-03,-1.4484162e-01,1.4469727e-01,-1.4525383e-01,-5.4562776e-03,-4.7555474e-03,6.4879315e-03,7.7721188e-02,-2.4770129e+00,-4.7504267e-02
3.0798373e+00,-7.5181156e-02,-2.1010879e-04,1.4561236e-03,-1.9384870e-01,-5.0191426e-02,-1.9648430e-01,-2.2498329e-03,-7.5516718e-03,5.4755522e-03,3.2064478e-01,-2.7961271e-01,-1.0123802e-01
3.0898373e+00,-7.7210018e-02,1.1777594e-04,1.5725319e-03,-2.0201850e-01,3.5127462e-02,-2.0336030e-01,-1.5507728e-03,-1.3034595e-02,4.5167315e-03,6.9906082e-02,-5.4829284e-01,-9.5882166e-02
3.0998373e+00,-7.9010615e-02,-1.5033804e-04,1.5206941e-03,-1.7902847e-01,-2.5418594e-02,-1.8128611e-01,-2.4350747e-03,-1.0108545e-02,5.3481560e-03,-8.8430279e-02,2.9260525e-01,8.3142530e-02
3.1398373e+00,-8.7409017e-02,-2.1103732e-04,2.0307373e-03,-2.0872659e-01,-2.9772510e-03,-2.1117120e-01,-6.3686264e-03,5.8080050e-04,5.7927011e-03,-9.8338887e-02,2.6723390e-01,1.1113637e-02
3.1498373e+00,-8.9453122e-02,-4.0713320e-04,1.9378082e-03,-2.0350414e-01,-1.8141010e-02,-2.0544813e-01,-2.0829630e-03,-9.2243828e-03,4.2238568e-03,4.2856675e-01,-9.8051927e-01,-1.5688458e-01
3.1598372e+00,-9.2188615e-02,-2.2369813e-03,2.3855428e-03,-2.7163365e-01,-1.8760479e-01,-2.7232680e-01,-2.3052598e-03,1.4577719e-02,5.4445970e-03,-2.2229704e-02,2.3802125e+00,1.2207413e-01
3.1698372e+00,-9.4147141e-02,-1.7360851e-03,2.3137562e-03,-1.9491820e-01,4.7625469e-02,-1.9739379e-01,-3.0488700e-03,9.4683391e-03,5.5316704e-03,-7.4361088e-02,-5.1093848e-01,8.7073482e-03
3.1798372e+00,-9.6706863e-02,-1.6029448e-03,2.1971282e-03,-2.5487712e-01,1.0792792e-02,-2.5718116e-01,-2.0740193e-03,7.7403695e-03,4.3749795e-03,9.7485154e-02,-1.7279712e-01,-1.1566920e-01
3.1898372e+00,-9.8816461e-02,-2.0862389e-03,2.5187263e-03,-2.0955619e-01,-5.1643812e-02,-2.1157308e-01,-3.1511962e-03,1.2505609e-02,5.9104639e-03,-1.0771779e-01,4.7652439e-01,1.5354858e-01
3.1998372e+00,-1.0188660e-01,-2.5412779e-03,2.6050221e-03,-3.0546879e-01,-5.1222330e-02,-3.0765338e-01,-1.2036557e-03,1.7361863e-02,4.8414298e-03,1.9475423e-01,4.8562586e-01,-1.0690351e-01
3.2098372e+00,-1.0339967e-01,-1.6250966e-03,2.3969960e-03,-1.5070758e-01,8.9967646e-02,-1.5288761e-01,-3.6777118e-03,7.1674017e-03,6.1633854e-03,-2.4740584e-01,-1.0194471e+00,1.3219568e-01
