time, x, y, z, vx, vy, vz, yaw, pitch, roll, yaw_rate, pitch_rate, roll_rate
0.0000000e+00,0.0000000e+00,0.0000000e+00,0.0000000e+00,0.0000000e+00,0.0000000e+00,0.0000000e+00,0.0000000e+00,0.0000000e+00,0.0000000e+00,0.0000000e+00,0.0000000e+00,0.0000000e+00
9.9999905e-03,2.8610884e-04,1.3140556e-03,8.6537647e-04,2.8442710e-02,1.3107536e-01,3.0247068e-02,-6.9127284e-04,-1.1879847e-02,2.7001511e-03,-6.9127350e-02,-1.1879859e+00,2.7001537e-01
1.9999981e-02,2.5398682e-04,1.0990719e-03,7.1744307e-04,-3.1953481e-03,-2.1465930e-02,-3.4381370e-03,-4.2542668e-04,-1.0159709e-02,2.3976086e-03,2.6584641e-02,1.7201397e-01,-3.0254275e-02
2.9999971e-02,3.2863240e-04,1.3773932e-03,9.0403146e-04,7.4165469e-03,2.7743663e-02,7.8327789e-03,-9.5542879e-04,-1.2483061e-02,2.8659532e-03,-5.3000262e-02,-2.3233543e-01,4.6834498e-02
3.9999962e-02,3.4974934e-04,1.4300057e-03,9.0913129e-04,2.0995465e-03,5.2361433e-03,2.1849464e-03,-1.1021311e-03,-1.2750299e-02,3.0021778e-03,-1.4670240e-02,-2.6723750e-02,1.3622481e-02
4.9999952e-02,4.0669795e-04,1.5171758e-03,8.4987724e-04,5.6683653e-03,8.6463376e-03,5.8275066e-03,-1.0908734e-03,-1.3325511e-02,2.9786755e-03,1.1257712e-03,-5.7521274e-02,-2.3502355e-03
5.9999943e-02,4.2245312e-04,1.6038531e-03,9.2362311e-04,1.5582562e-03,8.6481952e-03,1.6955286e-03,-1.3947543e-03,-1.3268573e-02,3.2770673e-03,-3.0388125e-02,5.6937474e-03,2.9839212e-02
6.9999933e-02,4.4018455e-04,1.5756275e-03,9.1992903e-04,1.7718085e-03,-2.8429815e-03,1.7415733e-03,-1.4843263e-03,-1.3099955e-02,3.1108285e-03,-8.9572100e-03,1.6861813e-02,-1.6623905e-02
7.9999924e-02,4.6706482e-04,1.5362211e-03,8.9050200e-04,2.6849479e-03,-3.9733007e-03,2.6426586e-03,-1.2380274e-03,-1.3480478e-02,2.9562720e-03,2.4629912e-02,-3.8052310e-02,-1.5455664e-02
8.9999914e-02,4.0802592e-04,1.4860283e-03,9.3612569e-04,-5.8796816e-03,-4.9487890e-03,-5.9869913e-03,-1.1337674e-03,-1.2962968e-02,3.1319050e-03,1.0426016e-02,5.1751064e-02,1.7563324e-02
9.9999905e-02,1.8335294e-04,5.3386289e-04,3.0731424e-04,-2.2409578e-02,-9.5118142e-02,-2.2937237e-02,-3.5836899e-04,-4.6900654e-03,1.0506318e-03,7.7539913e-02,8.2729104e-01,-2.0812752e-01
1.1000013e-01,6.6628364e-05,5.5552518e-06,-3.1306394e-05,-1.1672627e-02,-5.2829204e-02,-1.1673343e-02,-2.7404580e-05,-5.7481021e-05,-1.6140261e-04,3.3095683e-02,4.6324783e-01,-1.2120067e-01
1.2000012e-01,1.3323148e-04,1.7816942e-04,1.1688700e-04,6.6584194e-03,1.7250245e-02,6.6911327e-03,-1.3531628e-05,-1.6892410e-03,2.5001909e-04,1.3872966e-03,-1.6317615e-01,4.1142209e-02
1.3000011e-01,3.1997367e-04,1.2925130e-03,8.8198866e-04,1.8532117e-02,1.1122206e-01,2.0032669e-02,-8.5054859e-04,-1.1779139e-02,2.5314710e-03,-8.3701776e-02,-1.0089908e+00,2.2814541e-01
1.4000010e-01,3.8222566e-04,1.3830827e-03,9.3608782e-04,6.1972833e-03,8.9860637e-03,6.3544913e-03,-1.1029889e-03,-1.2347602e-02,2.8758352e-03,-2.5244060e-02,-5.6846357e-02,3.4436445e-02
1.5000010e-01,3.9201362e-04,1.4063413e-03,9.3407843e-04,9.7303604e-04,2.3145348e-03,1.0108644e-03,-1.2473577e-03,-1.2592728e-02,2.9164635e-03,-1.4436890e-02,-2.4512599e-02,4.0628416e-03
1.6000009e-01,2.0796099e-04,6.4534390e-04,3.4710364e-04,-1.8341314e-02,-7.5985404e-02,-1.8934224e-02,-5.3986514e-04,-6.6555820e-03,1.2423519e-03,7.0749324e-02,5.9371514e-01,-1.6741132e-01
1.7000008e-01,2.4515381e-04,6.6641925e-04,6.4483337e-04,3.7091807e-03,2.0792410e-03,3.7452117e-03,-5.3226903e-05,-7.6242135e-03,2.6830319e-03,4.8663870e-02,-9.6863246e-02,1.4406814e-01
1.8000007e-01,4.1015227e-04,1.5977785e-03,8.7253629e-04,1.6324533e-02,9.2915838e-02,1.7859582e-02,-1.2984465e-03,-1.4036329e-02,3.2905662e-03,-1.2452208e-01,-6.4121214e-01,6.0753489e-02
1.9000006e-01,3.4897783e-04,1.5151363e-03,9.3466451e-04,-6.0862731e-03,-8.1915066e-03,-6.2450326e-03,-1.3328432e-03,-1.3062206e-02,3.2894972e-03,-3.4396709e-03,9.7412389e-02,-1.0689422e-04
2.0000005e-01,2.8627020e-04,1.1837893e-03,6.9006752e-04,-6.2377596e-03,-3.3069999e-02,-6.6348007e-03,-5.7290270e-04,-1.0574990e-02,2.2341882e-03,7.5994123e-02,2.4872178e-01,-1.0553100e-01
2.1000004e-01,2.7209291e-04,1.2103778e-03,7.5580182e-04,-1.4152053e-03,2.6730157e-03,-1.3934086e-03,-3.6304372e-04,-1.0431151e-02,2.4590003e-03,2.0985918e-02,1.4383988e-02,2.2481235e-02
2.2000003e-01,2.1885057e-04,1.2128426e-03,7.2981531e-04,-5.3123794e-03,2.9951218e-04,-5.3333585e-03,-5.0175362e-04,-1.0441353e-02,2.2480509e-03,-1.3871003e-02,-1.0202175e-03,-2.1094969e-02
2.3000002e-01,1.9546996e-04,1.3195475e-03,8.4160733e-04,-2.3412878e-03,1.0695810e-02,-2.2160200e-03,-8.4240738e-04,-1.1964940e-02,2.4616947e-03,-3.4065409e-02,-1.5235886e-01,2.1364405e-02
2.3998165e-01,5.6958364e-05,2.4892448e-04,1.4085935e-04,-1.3881529e-02,-1.0722717e-01,-1.4118145e-02,9.3140154e-05,-2.2042068e-03,3.6813541e-04,9.3726909e-02,9.7786945e-01,-2.0974118e-01
2.4998164e-01,9.9738378e-05,2.8329494e-04,1.4546329e-04,4.2761225e-03,3.4271906e-03,4.2877858e-03,8.7689652e-08,-2.3011975e-03,4.4011315e-04,-9.3052553e-03,-9.6990768e-03,7.1977813e-03
2.5998163e-01,2.1464127e-04,1.1603945e-03,6.3608963e-04,1.1389740e-02,8.7593643e-02,1.2439143e-02,-9.0624940e-04,-1.0586137e-02,1.8319458e-03,-9.0633795e-02,-8.2849472e-01,1.3918340e-01
2.6998162e-01,6.5604914e-05,6.8865555e-04,6.2327582e-04,-1.4867969e-02,-4.7060943e-02,-1.5291470e-02,-3.1507768e-04,-7.7897433e-03,1.3958097e-03,5.9117228e-02,2.7963962e-01,-4.3613653e-02
2.7998161e-01,8.2741803e-05,8.5091636e-04,8.1290786e-04,1.7030198e-03,1.6209872e-02,1.8706810e-03,-4.2628471e-04,-9.4497268e-03,2.1879930e-03,-1.1120713e-02,-1.6599851e-01,7.9218408e-02
2.8998160e-01,1.3048841e-04,4.5046584e-04,2.5202568e-04,4.7800989e-03,-4.0067783e-02,4.5746644e-03,-2.6721762e-04,-5.1246830e-03,1.1024839e-03,1.5906724e-02,4.3250479e-01,-1.0855101e-01
2.9998159e-01,1.0826951e-04,4.9819624e-04,3.2915897e-04,-2.2208697e-03,4.7830861e-03,-2.2012257e-03,-3.8694244e-04,-4.9259974e-03,1.2905657e-03,-1.1972494e-02,1.9868575e-02,1.8808193e-02
3.0998158e-01,9.6049947e-05,4.8806163e-04,3.9638986e-04,-1.2200142e-03,-1.0076568e-03,-1.2286810e-03,-2.7132147e-04,-5.0046787e-03,1.3641430e-03,1.1562108e-02,-7.8681339e-03,7.3577435e-03
3.1998158e-01,2.0207735e-04,1.1534471e-03,7.8945291e-04,1.0539845e-02,6.6430354e-02,1.1320010e-02,-5.4360338e-04,-1.0388111e-02,2.5182361e-03,-2.7228217e-02,-5.3834372e-01,1.1540941e-01
3.2998157e-01,1.3495084e-04,1.1525792e-03,7.2982352e-04,-6.6966482e-03,-2.0646749e-05,-6.7291564e-03,-3.9251815e-04,-1.0221399e-02,2.3769416e-03,1.5108537e-02,1.6671204e-02,-1.4129461e-02
3.3998156e-01,2.2178213e-04,1.4734826e-03,8.4714821e-04,8.6318821e-03,3.1980741e-02,9.1273541e-03,-8.6055550e-04,-1.3131209e-02,2.7183620e-03,-4.6803779e-02,-2.9098130e-01,3.4142074e-02
3.4998155e-01,2.7690261e-04,1.5133629e-03,8.6720895e-04,5.4929966e-03,3.9185248e-03,5.5805091e-03,-9.7389757e-04,-1.3482372e-02,2.7485274e-03,-1.1334218e-02,-3.5116346e-02,3.0165394e-03
3.5998178e-01,9.5670033e-05,9.5189323e-04,7.9032280e-04,-1.8088364e-02,-5.5956275e-02,-1.8732842e-02,3.3000092e-05,-1.0235918e-02,2.0027924e-03,1.0068746e-01,3.2463796e-01,-7.4571790e-02
3.6998177e-01,3.2012409e-05,1.1643267e-03,7.1149968e-04,-6.3704268e-03,2.1304128e-02,-6.1545504e-03,-7.2117561e-04,-1.0431066e-02,1.6732022e-03,-7.5417642e-02,-1.9514836e-02,-3.2959052e-02
3.7998176e-01,1.0677147e-04,6.7226667e-04,3.5312010e-04,7.4815870e-03,-4.9252123e-02,7.1601837e-03,-3.0614334e-04,-6.6044926e-03,1.2552543e-03,4.1503266e-02,3.8265775e-01,-4.1794830e-02
3.8998175e-01,1.0126463e-04,7.0650052e-04,4.3957111e-04,-5.5144254e-04,3.4266842e-03,-5.2899798e-04,-4.8162763e-04,-6.5922536e-03,1.6156502e-03,-1.7548446e-02,1.2239017e-03,3.6039620e-02
3.9998174e-01,8.7237164e-05,5.2738508e-04,3.8179397e-04,-1.3980100e-03,-1.7904405e-02,-1.4957492e-03,-1.5692907e-04,-5.0859554e-03,1.3731062e-03,3.2469887e-02,1.5062997e-01,-2.4254416e-02
4.0998173e-01,8.7307640e-05,4.8564764e-04,3.9931181e-04,7.7344791e-06,-4.1737314e-03,-1.3300835e-05,-1.6669788e-04,-4.8776716e-03,1.2581553e-03,-9.7688191e-04,2.0828396e-02,-1.1495108e-02
4.1998172e-01,7.3750063e-05,4.6513624e-04,3.4208243e-04,-1.3536912e-03,-2.0454343e-03,-1.3664056e-03,-3.2963761e-04,-4.5190160e-03,1.0258608e-03,-1.6293988e-02,3.5865591e-02,-2.3229470e-02
4.2998171e-01,9.8722118e-05,4.5412047e-04,2.6139350e-04,2.4953963e-03,-1.1128213e-03,2.4940320e-03,-2.2359346e-04,-4.7267864e-03,8.2370004e-04,1.0604425e-02,-2.0777054e-02,-2.0216095e-02
4.3998170e-01,3.2131551e-04,1.3960761e-03,8.3264987e-04,2.2119933e-02,9.3919818e-02,2.3527774e-02,-8.7898248e-04,-1.2885732e-02,2.5405349e-03,-6.5538965e-02,-8.1589531e-01,1.7168365e-01
4.4998169e-01,1.0100350e-04,8.9981968e-04,8.5426696e-04,-2.1972081e-02,-4.9423221e-02,-2.2539556e-02,-3.2241749e-04,-9.3948518e-03,1.9561608e-03,5.5656552e-02,3.4908832e-01,-5.8437473e-02
4.5998168e-01,-5.7991819e-06,2.3063487e-04,4.1989922e-04,-1.0668247e-02,-6.6883125e-02,-1.0911663e-02,-6.4678215e-05,-3.3435684e-03,7.2106524e-04,2.5773952e-02,6.0512891e-01,-1.2350967e-01
4.6998167e-01,1.3056606e-04,9.6246240e-04,8.6552131e-04,1.3570470e-02,7.3050794e-02,1.4389570e-02,-4.6243474e-04,-9.8599688e-03,2.3601761e-03,-3.9775690e-02,-6.5164066e-01,1.6391124e-01
4.7998166e-01,2.0999887e-04,7.2153217e-04,6.9044898e-04,7.9258369e-03,-2.4153730e-02,7.7746358e-03,-2.0158029e-04,-7.9142471e-03,2.8045673e-03,2.6085469e-02,1.9457236e-01,4.4439161e-02
4.8998165e-01,9.2851191e-05,5.1663494e-04,2.9271727e-04,-1.1696349e-02,-2.0435425e-02,-1.1827530e-02,-1.7701614e-04,-4.7875719e-03,1.2628233e-03,2.4564175e-03,3.1266782e-01,-1.5417455e-01
4.9998164e-01,2.6262635e-05,3.1300218e-04,2.1169977e-04,-6.6486062e-03,-2.0346240e-02,-6.7209572e-03,-2.5880395e-04,-2.8059808e-03,7.4840195e-04,-8.1787886e-03,1.9815929e-01,-5.1442182e-02
5.0998163e-01,2.0231774e-04,1.1341810e-03,7.8523707e-04,1.7519923e-02,8.1941098e-02,1.8492644e-02,-4.9657055e-04,-1.0270175e-02,2.5428196e-03,-2.3776683e-02,-7.4642016e-01,1.7944194e-01
5.1998162e-01,2.2394201e-04,1.2051410e-03,7.8940698e-04,2.1531826e-03,7.0733673e-03,2.2442691e-03,-4.6804159e-04,-1.0718034e-02,2.7363118e-03,2.8528986e-03,-4.4785947e-02,1.9349233e-02
5.2998161e-01,2.1692235e-04,1.1642296e-03,7.2872300e-04,-6.9814870e-04,-4.0841268e-03,-7.4528307e-04,-5.2950807e-04,-1.0194368e-02,2.3505275e-03,-6.1466533e-03,5.2366631e-02,-3.8578463e-02
5.3998160e-01,7.1306321e-05,2.7117473e-04,3.9177776e-05,-1.4565916e-02,-8.9268972e-02,-1.4780114e-02,5.6945426e-05,-2.4383321e-03,5.4004940e-05,5.8645405e-02,7.7560438e-01,-2.2965248e-01
5.4998159e-01,7.8005469e-05,1.2002366e-03,6.7940200e-04,5.8283779e-04,9.2894588e-02,1.6518860e-03,-9.2684714e-04,-1.0560946e-02,1.4433228e-03,-9.8379351e-02,-8.1226214e-01,1.3893192e-01
5.5998158e-01,1.7297500e-04,9.8976537e-04,8.3908983e-04,9.4808248e-03,-2.1138955e-02,9.3072653e-03,-2.1138359e-04,-9.9679920e-03,2.1652590e-03,7.1546423e-02,5.9295422e-02,7.2193681e-02
5.6998158e-01,1.7593324e-04,9.3265908e-04,8.3569868e-04,2.9741044e-04,-5.7130739e-03,2.4229218e-04,-3.7851489e-04,-9.4737023e-03,1.9459933e-03,-1.6713146e-02,4.9429020e-02,-2.1926582e-02
5.7998157e-01,3.3534858e-06,2.3418030e-04,3.1791048e-05,-1.7243752e-02,-6.9812781e-02,-1.7413803e-02,-3.4539681e-04,-2.3726188e-03,-5.7299065e-04,3.3118118e-03,7.1010902e-01,-2.5189864e-01
5.8998156e-01,1.6961648e-04,5.2531998e-04,3.0525382e-04,1.6591762e-02,2.9038843e-02,1.6791441e-02,-4.2202004e-04,-4.9142817e-03,1.3382489e-03,-7.6623310e-03,-2.5416653e-01,1.9112414e-01
5.9998155e-01,2.0953701e-04,5.1709780e-04,2.9646464e-04,3.9872890e-03,-8.4273445e-04,3.9925438e-03,-1.8437334e-04,-5.3198515e-03,1.2315578e-03,2.3764693e-02,-4.0557018e-02,-1.0669117e-02
6.0998178e-01,1.4811969e-04,4.3587680e-04,3.2984495e-04,-6.1328494e-03,-8.0971462e-03,-6.1828910e-03,-3.1052093e-04,-4.3264006e-03,1.0121704e-03,-1.2614471e-02,9.9342814e-02,-2.1938238e-02
6.1998177e-01,9.0819603e-05,2.9186003e-04,2.3913498e-04,-5.7199420e-03,-1.4388205e-02,-5.7737897e-03,-4.2605909e-04,-2.7678272e-03,6.8667224e-04,-1.1553827e-02,1.5585749e-01,-3.2549850e-02
6.2998176e-01,3.8973788e-04,1.4746404e-03,9.6443843e-04,2.9652582e-02,1.1791702e-01,3.1512956e-02,-1.2205103e-03,-1.2927521e-02,3.1695031e-03,-7.9445197e-02,-1.0159704e+00,2.4828332e-01
6.3998175e-01,3.6190172e-04,1.5305853e-03,9.3058605e-04,-2.7808373e-03,5.6274756e-03,-2.7191718e-03,-1.0955935e-03,-1.3075363e-02,3.1953611e-03,1.2491696e-02,-1.4784196e-02,2.5858042e-03
6.4998174e-01,9.1151031e-05,9.5552965e-04,8.1173032e-04,-2.7003540e-02,-5.7250588e-02,-2.7680258e-02,-2.6993147e-04,-9.5723144e-03,2.0673292e-03,8.2566279e-02,3.5030522e-01,-1.1280330e-01
6.5998173e-01,8.1372006e-05,9.1730546e-04,7.9557362e-04,-9.7504821e-04,-3.8133911e-03,-1.0152992e-03,-2.6523437e-04,-9.3136009e-03,1.8811407e-03,4.6970959e-04,2.5871376e-02,-1.8618867e-02
6.6998172e-01,1.0811028e-04,9.6891323e-04,8.2516101e-04,2.6667747e-03,5.1351563e-03,2.7296301e-03,-2.8232399e-04,-9.7540686e-03,2.0913010e-03,-1.7089636e-03,-4.4046813e-02,2.1016047e-02
6.7998171e-01,1.6496465e-04,6.8372613e-04,4.2732791e-04,5.6822012e-03,-2.8553841e-02,5.5097766e-03,-2.0619143e-04,-6.4754665e-03,1.6031156e-03,7.6132632e-03,3.2786052e-01,-4.8818587e-02
6.8998170e-01,1.8532602e-04,1.0930552e-03,7.0030340e-04,2.0120419e-03,4.0911354e-02,2.4517126e-03,-4.7325052e-04,-1.0040924e-02,2.3179595e-03,-2.6705934e-02,-3.5654609e-01,7.1484459e-02
6.9998169e-01,7.2221362e-05,5.0621062e-04,2.8325810e-04,-1.1288358e-02,-5.8634890e-02,-1.1586587e-02,-1.8577660e-04,-4.5160892e-03,9.9110282e-04,2.8747420e-02,5.5248400e-01,-1.3268579e-01
7.0998168e-01,1.2355130e-04,5.3193724e-04,3.1478844e-04,5.1269530e-03,2.5498933e-03,5.1503734e-03,-2.3626318e-04,-4.6619392e-03,1.0588096e-03,-5.0486632e-03,-1.4585006e-02,6.7706892e-03
7.1998167e-01,2.5085626e-04,1.1234483e-03,7.4321191e-04,1.2668908e-02,5.9026898e-02,1.3353509e-02,-5.4984723e-04,-1.0053074e-02,2.2812186e-03,-3.1358435e-02,-5.3911404e-01,1.2224101e-01
7.2998166e-01,3.4772984e-04,1.4722157e-03,9.4629960e-04,9.6191264e-03,3.4759688e-02,1.0164434e-02,-1.0943090e-03,-1.2842007e-02,3.0990832e-03,-5.4446226e-02,-2.7889352e-01,8.1786533e-02
7.3998165e-01,3.9714313e-04,1.5062166e-03,8.9314453e-04,4.9228778e-03,3.3394350e-03,5.0007622e-03,-1.2137955e-03,-1.3388201e-02,2.8949615e-03,-1.1948666e-02,-5.4619469e-02,-2.0412185e-02
7.4998164e-01,1.1598405e-04,1.1300750e-03,5.9525434e-04,-2.8041580e-02,-3.7345921e-02,-2.8544541e-02,-1.1049021e-03,-1.0558898e-02,1.1651201e-03,1.0889356e-02,2.8293062e-01,-1.7298430e-01
7.5998163e-01,-2.1956810e-05,1.9098272e-04,3.4396273e-04,-1.3787528e-02,-9.3863393e-02,-1.4109650e-02,1.9289871e-05,-3.2717508e-03,6.0751723e-04,1.1241930e-01,7.2871537e-01,-5.5760343e-02
7.6998162e-01,1.6147805e-04,8.5800860e-04,7.9205636e-04,1.8296538e-02,6.6523642e-02,1.9027708e-02,-1.9577183e-04,-9.7632570e-03,1.8467313e-03,-2.1506191e-02,-6.4915124e-01,1.2392153e-01
7.7998161e-01,4.1201535e-04,1.4089474e-03,8.9420756e-04,2.4924231e-02,5.4783757e-02,2.5850448e-02,-1.0413286e-03,-1.3191843e-02,2.8752352e-03,-8.4555758e-02,-3.4285896e-01,1.0285049e-01
7.8998160e-01,3.5304316e-04,1.3273531e-03,8.7333238e-04,-5.8752641e-03,-8.0875390e-03,-6.0169746e-03,-7.4069775e-04,-1.2785712e-02,2.6951412e-03,3.0063114e-02,4.0613215e-02,-1.8009419e-02
7.9998159e-01,7.6514319e-05,4.2264714e-04,3.1756523e-04,-2.7607860e-02,-9.0353951e-02,-2.8076341e-02,-1.6760621e-04,-4.3531709e-03,1.0802149e-03,5.7309208e-02,8.4325487e-01,-1.6149278e-01
8.0998158e-01,1.5765488e-04,1.0341331e-03,6.7515454e-04,8.0678712e-03,6.1069818e-02,8.7304612e-03,-4.6084322e-04,-9.7933646e-03,2.2173633e-03,-2.9323729e-02,-5.4401988e-01,1.1371495e-01
8.1998158e-01,2.9275100e-04,1.3698569e-03,8.4208098e-04,1.3447165e-02,3.3408346e-02,1.3970776e-02,-7.5407123e-04,-1.2663689e-02,2.7454324e-03,-2.9322828e-02,-2.8703276e-01,5.2806956e-02
8.2998157e-01,2.8705924e-04,1.3223996e-03,8.5612886e-04,-5.6462003e-04,-4.7387519e-03,-6.2876812e-04,-6.4730939e-04,-1.2254905e-02,2.6049231e-03,1.0676193e-02,4.0878515e-02,-1.4050946e-02
8.3998156e-01,3.0143854e-04,1.3314794e-03,8.5503372e-04,1.4335492e-03,8.9127064e-04,1.4526880e-03,-7.4828606e-04,-1.2291046e-02,2.5719766e-03,-1.0097676e-02,-3.6141312e-03,-3.2946481e-03
8.4993100e-01,2.0660197e-04,1.1081336e-03,6.4750557e-04,-9.5034073e-03,-2.2351879e-02,-9.7829729e-03,-4.1254964e-04,-1.0356540e-02,2.0097845e-03,3.3744233e-02,1.9443357e-01,-5.6504867e-02
8.5993123e-01,2.5249479e-04,1.3564086e-03,8.5480150e-04,4.5577497e-03,2.4771768e-02,4.9075698e-03,-7.4059205e-04,-1.2315522e-02,2.8374135e-03,-3.2803490e-02,-1.9589377e-01,8.2761009e-02
8.6993122e-01,2.2456624e-04,1.2724710e-03,8.3366634e-04,-2.7800376e-03,-8.3610293e-03,-2.9017121e-03,-6.2978863e-04,-1.2097213e-02,2.6938248e-03,1.1080352e-02,2.1830989e-02,-1.4358889e-02
8.7993121e-01,1.0409398e-04,1.0065391e-03,6.3637433e-04,-1.2017983e-02,-2.6472392e-02,-1.2339040e-02,-5.4142614e-04,-1.0437890e-02,1.2322908e-03,8.8362580e-03,1.6593243e-01,-1.4615354e-01
8.8993120e-01,1.4883391e-04,1.1165889e-03,6.6551139e-04,4.4606385e-03,1.0956910e-02,4.6034790e-03,-6.1296206e-04,-1.1189458e-02,1.4770300e-03,-7.1535994e-03,-7.5156891e-02,2.4473944e-02
8.9993119e-01,3.8463154e-04,1.4086642e-03,8.7454099e-04,2.3487716e-02,2.8911642e-02,2.4032021e-02,-9.3513340e-04,-1.3337757e-02,2.7420614e-03,-3.2217165e-02,-2.1483005e-01,1.2650327e-01
9.0993118e-01,1.3754394e-04,3.8188751e-04,2.0332561e-04,-2.4689445e-02,-1.0256861e-01,-2.5177020e-02,-2.8758792e-05,-4.4030943e-03,6.6295635e-04,9.0637547e-02,8.9346707e-01,-2.0791070e-01
9.1993117e-01,1.2762062e-04,3.6255058e-04,2.2898557e-04,-9.9182796e-04,-1.9292677e-03,-1.0014133e-03,8.5696117e-05,-4.3542724e-03,6.7564199e-04,1.1445502e-02,4.8821943e-03,1.2685652e-03
9.2993116e-01,8.1382410e-05,3.8904321e-04,3.2320920e-04,-4.6195513e-03,2.6687116e-03,-4.6169087e-03,-7.4547536e-05,-4.2813484e-03,9.6651975e-04,-1.6024381e-02,7.2924090e-03,2.9087803e-02
9.3993115e-01,3.4611996e-04,1.2771192e-03,8.9048208e-04,2.6325094e-02,8.8492371e-02,2.7651710e-02,-8.7398901e-04,-1.2488532e-02,2.6805908e-03,-7.9944224e-02,-8.2071914e-01,1.7140727e-01
9.4993114e-01,3.1501868e-04,1.2597424e-03,9.2688350e-04,-3.0997869e-03,-1.7021675e-03,-3.1399542e-03,-8.0454071e-04,-1.2147247e-02,2.8719855e-03,6.9448362e-03,3.4128518e-02,1.9139487e-02
9.5993114e-01,1.0099132e-04,3.9032807e-04,2.5407917e-04,-2.1392625e-02,-8.6839282e-02,-2.1823805e-02,7.7205699e-05,-4.6520016e-03,7.8673430e-04,8.8174725e-02,7.4952526e-01,-2.0852532e-01
9.6993113e-01,6.2132437e-05,3.7990986e-04,2.0059486e-04,-3.8833838e-03,-1.0242705e-03,-3.8930579e-03,1.0231743e-04,-4.4088149e-03,6.7255634e-04,2.5111759e-03,2.4318698e-02,-1.1417806e-02
9.7993112e-01,2.5273786e-04,1.3522624e-03,8.7265642e-04,1.8922327e-02,9.7001590e-02,2.0346024e-02,-8.5955098e-04,-1.2676175e-02,2.8629873e-03,-9.6186933e-02,-8.2673678e-01,2.1904330e-01
9.8993111e-01,9.0779016e-05,9.4188996e-04,8.3233037e-04,-1.6152158e-02,-4.0874433e-02,-1.6645176e-02,-1.7509378e-04,-1.0079137e-02,2.2546038e-03,6.8445785e-02,2.5970402e-01,-6.0838401e-02
9.9993110e-01,1.3624671e-04,1.0986604e-03,6.3497859e-04,4.5322560e-03,1.5629230e-02,4.7225176e-03,-5.3292530e-04,-1.0834069e-02,1.3543240e-03,-3.5783186e-02,-7.5493231e-02,-9.0028068e-02
1.0099311e+00,1.1754302e-04,1.0345546e-03,6.2574349e-04,-1.8648890e-03,-6.3919323e-03,-1.9384332e-03,-5.0458028e-04,-1.0281860e-02,1.2005410e-03,2.8345052e-03,5.5220913e-02,-1.5378316e-02
1.0199311e+00,2.6886941e-04,1.3066782e-03,8.6780265e-04,1.5070992e-02,2.7034779e-02,1.5507879e-02,-6.9922625e-04,-1.2266008e-02,2.8131983e-03,-1.9464616e-02,-1.9841497e-01,1.6126588e-01
1.0299311e+00,1.6992948e-04,1.0600611e-03,7.1744508e-04,-9.8635522e-03,-2.4561707e-02,-1.0169380e-02,-2.9207562e-04,-1.0246605e-02,2.3467788e-03,4.0715101e-02,2.0194043e-01,-4.6641996e-02
1.0399311e+00,1.9561937e-04,1.0375492e-03,7.4136330e-04,2.5642456e-03,-2.2760051e-03,2.5518176e-03,-3.1173788e-04,-9.9904355e-03,2.1180923e-03,-1.9662279e-03,2.5617017e-02,-2.2868672e-02
1.0499310e+00,1.9984005e-04,7.7052363e-04,5.7685589e-04,4.2214238e-04,-2.6705080e-02,2.1097399e-04,-2.5876445e-05,-7.9280948e-03,1.4608232e-03,2.8586171e-02,2.0623427e-01,-6.5726966e-02
1.0599310e+00,1.7977782e-04,3.5131025e-04,3.2103135e-04,-2.0108851e-03,-4.1910981e-02,-2.2085717e-03,1.5535458e-04,-4.7831066e-03,9.2313732e-04,1.8123119e-02,3.1449912e-01,-5.3768642e-02
1.0699310e+00,3.8476640e-04,1.2646286e-03,8.5176854e-04,2.0387820e-02,9.1074516e-02,2.1718595e-02,-6.1492746e-04,-1.2773955e-02,2.6742246e-03,-7.7028277e-02,-7.9908557e-01,1.7510890e-01
1.0799310e+00,1.3745724e-04,7.8588389e-04,8.0452115e-04,-2.4678992e-02,-4.7640743e-02,-2.5229251e-02,-5.8602649e-05,-9.4071299e-03,1.9851012e-03,5.5632534e-02,3.3668280e-01,-6.8912407e-02
1.0899310e+00,2.1612856e-05,5.7571649e-05,2.7740802e-04,-1.1614462e-02,-7.2787148e-02,-1.1829275e-02,4.4350135e-04,-3.3311587e-03,1.9748785e-04,5.0210448e-02,6.0759770e-01,-1.7876151e-01
1.0999310e+00,3.1875686e-05,1.4949247e-04,3.9971519e-04,1.0271191e-03,9.1881818e-03,1.0599014e-03,1.8391928e-04,-3.5648497e-03,8.3326808e-04,-2.5958231e-02,-2.3369114e-02,6.3578084e-02
1.1099312e+00,1.7180794e-04,8.6932315e-04,8.4447873e-04,1.3955614e-02,7.1840026e-02,1.4736998e-02,-6.6493959e-05,-9.8964932e-03,2.3202538e-03,-2.5040751e-02,-6.3314987e-01,1.4869517e-01
1.1199312e+00,1.9581390e-04,6.2465249e-04,4.7443633e-04,2.3990325e-03,-2.4482301e-02,2.2418266e-03,-1.0566563e-04,-6.6567176e-03,1.7278709e-03,-3.9171711e-03,3.2397787e-01,-5.9238341e-02
1.1299312e+00,1.1286852e-04,8.1809246e-04,5.9281740e-04,-8.2849277e-03,1.9406914e-02,-8.1560775e-03,-2.3059519e-04,-7.8727157e-03,1.6958992e-03,-1.2492967e-02,-1.2159992e-01,-3.1971799e-03
1.1399312e+00,1.7696017e-04,1.0292518e-03,7.5317502e-04,6.3897730e-03,2.1051290e-02,6.6371971e-03,-2.4549863e-04,-1.0142747e-02,2.2152463e-03,-1.4903462e-03,-2.2700339e-01,5.1934763e-02
1.1499312e+00,2.2847898e-04,1.0653453e-03,7.4448551e-04,5.1398339e-03,3.5538011e-03,5.2022988e-03,-3.4436248e-05,-1.0752554e-02,2.3125897e-03,2.1106259e-02,-6.0980765e-02,9.7343486e-03
1.1599312e+00,2.3943495e-04,1.0140086e-03,7.0945578e-04,1.0928890e-03,-5.1448210e-03,1.0448695e-03,5.0224301e-05,-1.0346347e-02,2.2345898e-03,8.4660630e-03,4.0620741e-02,-7.7999974e-03
1.1699312e+00,2.6106559e-04,1.2092988e-03,8.0145698e-04,2.1496680e-03,1.9502442e-02,2.4030826e-03,-4.3055587e-04,-1.2044126e-02,2.3039110e-03,-4.8078063e-02,-1.6977804e-01,6.9321248e-03
1.1799312e+00,7.4547812e-05,8.5611139e-04,7.7612619e-04,-1.8612172e-02,-3.5142724e-02,-1.9020268e-02,-1.6527398e-04,-9.5013960e-03,1.8097568e-03,2.6528214e-02,2.5427326e-01,-4.9415463e-02
1.1899312e+00,1.2277078e-04,8.7808397e-04,7.9827219e-04,4.8121063e-03,2.1500777e-03,4.8536521e-03,-3.4213158e-05,-9.7763334e-03,2.0964328e-03,1.3106095e-02,-2.7493766e-02,2.8667629e-02
1.1999311e+00,2.0410243e-04,8.2692667e-04,7.9074809e-04,8.1157746e-03,-5.1977247e-03,8.0984917e-03,1.2967893e-04,-9.9622626e-03,2.0553703e-03,1.6389224e-02,-1.8592934e-02,-4.1062616e-03
1.2099311e+00,4.7960978e-05,3.6159661e-04,2.1117563e-04,-1.5602501e-02,-4.6463443e-02,-1.5831590e-02,-2.4749557e-04,-4.6728702e-03,9.0322813e-06,-3.7717486e-02,5.2893974e-01,-2.0463399e-01
1.2199311e+00,1.4840525e-04,3.4094615e-04,3.0028627e-04,1.0034276e-02,-2.1086675e-03,1.0045529e-02,3.4215123e-05,-4.3061059e-03,1.0039695e-03,2.8171096e-02,3.6676468e-02,9.9493814e-02
1.2299311e+00,1.1068911e-04,3.8457819e-04,3.1660985e-04,-3.7675590e-03,4.3807935e-03,-3.7552527e-03,6.3637240e-05,-4.6065996e-03,1.0018179e-03,2.9422145e-03,-3.0049395e-02,-2.1515740e-04
1.2399311e+00,2.4569940e-04,9.1763508e-04,6.9748846e-04,1.3468420e-02,5.3170339e-02,1.4056131e-02,-1.1310166e-04,-9.9280422e-03,1.9677202e-03,-1.7673907e-02,-5.3214477e-01,9.6590317e-02
1.2499311e+00,1.4682246e-04,3.4954110e-04,3.3137269e-04,-9.8852194e-03,-5.6760831e-02,-1.0165515e-02,9.6958771e-05,-4.7516553e-03,8.0794129e-04,2.1006063e-02,5.1763918e-01,-1.1597800e-01
1.2599311e+00,1.9222466e-04,3.3787397e-04,3.0111394e-04,4.5367740e-03,-1.1875475e-03,4.5382702e-03,5.4064146e-05,-4.5338127e-03,7.4562603e-04,-4.2894667e-03,2.1784279e-02,-6.2315311e-03
1.2699311e+00,1.5984426e-04,1.0473402e-03,6.5605015e-04,-3.2738608e-03,7.0975446e-02,-2.4841198e-03,-5.6443460e-04,-1.0684718e-02,1.3043875e-03,-6.1849933e-02,-6.1509107e-01,5.5876201e-02
1.2799311e+00,1.2107403e-04,8.9456873e-04,7.6450730e-04,-3.8708349e-03,-1.5235409e-02,-4.0439229e-03,1.2113163e-04,-1.0413368e-02,2.0719951e-03,6.8556688e-02,2.7135005e-02,7.6760828e-02
1.2899311e+00,7.7362937e-05,8.6992073e-04,7.8720330e-04,-4.3615603e-03,-2.4216466e-03,-4.4046508e-03,4.9649306e-07,-9.8241775e-03,2.1835181e-03,-1.2063525e-02,5.8919075e-02,1.1152318e-02
1.2999310e+00,1.5925511e-04,7.7111599e-04,7.2742103e-04,8.1740327e-03,-9.9599024e-03,8.1077916e-03,1.7239806e-04,-9.5652850e-03,1.6457681e-03,1.7190173e-02,2.5889274e-02,-5.3775056e-02
1.3099310e+00,-2.6825943e-05,-2.8358656e-04,-1.9559298e-04,-1.8692122e-02,-1.0548288e-01,-1.8452270e-02,5.8612172e-04,1.2663967e-03,-1.1928700e-03,4.1372406e-02,1.0831692e+00,-2.8386408e-01
1.3199310e+00,2.8191342e-04,9.8137820e-04,6.9459648e-04,3.0807209e-02,1.2616763e-01,3.2255825e-02,2.7920676e-05,-1.0383060e-02,2.2740676e-03,-5.5820158e-02,-1.1649468e+00,3.4669409e-01
1.3299310e+00,1.8379259e-04,1.0204401e-03,7.5248614e-04,-9.7870216e-03,4.0077331e-03,-9.7961676e-03,-6.4139839e-05,-1.0407980e-02,2.5772782e-03,-9.2060603e-03,-2.4919428e-03,3.0321088e-02
1.3399310e+00,1.8117167e-04,1.0134033e-03,7.5220563e-04,-2.6144514e-04,-7.0091271e-04,-2.7001324e-04,-4.7180349e-05,-1.0406576e-02,2.3396193e-03,1.6959507e-03,1.4036948e-04,-2.3765912e-02
1.3499310e+00,1.6261491e-04,6.7659060e-04,5.2260751e-04,-1.8639327e-03,-3.3665449e-02,-2.1167654e-03,3.2148301e-04,-7.6767788e-03,1.3858850e-03,3.6866371e-02,2.7297997e-01,-9.5373516e-02
1.3599312e+00,1.1920620e-04,3.6131201e-04,3.2352018e-04,-4.3463152e-03,-3.1505836e-02,-4.4874035e-03,3.1220427e-04,-4.5160802e-03,9.8981034e-04,-9.2785312e-04,3.1606263e-01,-3.9606564e-02
1.3699312e+00,3.7357978e-04,1.3170364e-03,8.5897699e-04,2.5315000e-02,9.5242499e-02,2.6762777e-02,-5.5951058e-04,-1.3172009e-02,2.7051476e-03,-8.7171568e-02,-8.6559374e-01,1.7153389e-01
1.3799312e+00,2.1460380e-04,7.8150664e-04,8.0017735e-04,-1.5874518e-02,-5.3390722e-02,-1.6456770e-02,1.3435410e-04,-9.8914790e-03,1.9035507e-03,6.9386534e-02,3.2805335e-01,-8.0159763e-02
1.3899312e+00,6.2636361e-05,8.3462993e-05,3.3771367e-04,-1.5225542e-02,-6.9740240e-02,-1.5460379e-02,5.0786027e-04,-3.6828057e-03,4.3846172e-04,3.7350652e-02,6.2086792e-01,-1.4650904e-01
1.3999312e+00,-5.6317513e-06,7.7135801e-05,3.4101922e-04,-6.8239405e-03,-6.0932486e-04,-6.8318208e-03,3.7662037e-04,-3.0484776e-03,4.5620184e-04,-1.3124002e-02,6.3432868e-02,1.7740135e-03
1.4099312e+00,-9.6478135e-07,1.1786498e-04,3.6912868e-04,4.6787164e-04,4.0710867e-03,4.8130012e-04,3.6830437e-04,-3.5059664e-03,6.9793718e-04,-8.3160148e-04,-4.5748924e-02,2.4173557e-02
1.4199312e+00,3.5667051e-04,1.2147405e-03,8.5966356e-04,3.5611985e-02,1.0923872e-01,3.7257686e-02,-5.1760003e-04,-1.2785923e-02,2.6472187e-03,-8.8590524e-02,-9.2799651e-01,1.9492834e-01
1.4299312e+00,1.9285320e-04,3.2843823e-04,3.4308971e-04,-1.6396727e-02,-8.8543628e-02,-1.6829393e-02,3.5278297e-04,-4.8693413e-03,9.9362817e-04,8.7038383e-02,7.9165889e-01,-1.6535921e-01
1.4399312e+00,1.0475772e-04,3.4826724e-04,3.7384784e-04,-8.8000348e-03,2.0234965e-03,-8.8098432e-03,2.0618074e-04,-4.3993297e-03,1.0339086e-03,-1.4660237e-02,4.7001208e-02,4.0280442e-03
1.4499311e+00,1.8580724e-04,9.9578608e-04,7.2961767e-04,8.0762443e-03,6.4669494e-02,8.7650442e-03,-1.5812096e-04,-9.9158590e-03,2.2770374e-03,-3.6430205e-02,-5.5165346e-01,1.2431300e-01
1.4599311e+00,3.0461270e-04,1.2879260e-03,8.3379146e-04,1.1834944e-02,2.9064351e-02,1.2286243e-02,-4.0321217e-04,-1.2764462e-02,2.8437270e-03,-2.4509144e-02,-2.8486061e-01,5.6669019e-02
1.4699311e+00,3.3451813e-04,1.2581588e-03,8.4361487e-04,2.9835846e-03,-3.0137310e-03,2.9602729e-03,-4.1612093e-04,-1.2840584e-02,2.7380065e-03,-1.2908777e-03,-7.6122138e-03,-1.0572065e-02
1.4799311e+00,1.5634519e-04,9.7939219e-04,6.7286611e-04,-1.7782984e-02,-2.7691336e-02,-1.8137764e-02,-3.7910193e-04,-1.0678944e-02,1.3324779e-03,3.7019038e-03,2.1616425e-01,-1.4055299e-01
1.4899311e+00,1.4634726e-04,1.0047327e-03,6.4991539e-04,-9.9908230e-04,2.5445248e-03,-9.7355710e-04,-2.8493925e-04,-1.0897743e-02,1.4337929e-03,9.4162765e-03,-2.1879932e-02,1.0131510e-02
1.4999311e+00,3.1060648e-04,1.2358483e-03,7.8270487e-04,1.6376016e-02,2.2900664e-02,1.6767651e-02,-2.1042829e-04,-1.2899403e-02,2.7393661e-03,7.4511035e-03,-2.0016618e-01,1.3055744e-01
1.5099311e+00,2.8687168e-04,1.1923929e-03,7.5999703e-04,-2.3664798e-03,-4.3158202e-03,-2.4339378e-03,-2.3078989e-04,-1.2577640e-02,2.5244813e-03,-2.0361614e-03,3.2176303e-02,-2.1488499e-02
1.5199311e+00,1.0601792e-04,2.2124125e-05,1.2385499e-04,-1.8153310e-02,-1.1698246e-01,-1.8304136e-02,6.3265014e-04,-1.8171382e-03,3.3815378e-04,8.6344085e-02,1.0760512e+00,-2.1863296e-01
1.5299311e+00,1.1480046e-04,2.4160904e-04,3.2730748e-04,8.8644574e-04,2.1944549e-02,9.6482062e-04,4.0634573e-04,-3.9109027e-03,8.2888351e-04,-2.2630463e-02,-2.0937665e-01,4.9073020e-02
1.5399311e+00,2.8464190e-04,9.3525126e-04,7.1608787e-04,1.6958624e-02,6.9177790e-02,1.7752922e-02,1.8797292e-04,-1.0541998e-02,2.2686220e-03,-2.1837302e-02,-6.6311019e-01,1.4397398e-01
1.5499310e+00,2.9506605e-04,9.1103017e-04,6.4130155e-04,1.0398706e-03,-2.4329034e-03,1.0195757e-03,1.7527825e-04,-1.0280195e-02,2.0326912e-03,-1.2694681e-03,2.6180352e-02,-2.3593100e-02
1.5599310e+00,1.6596351e-04,2.6453094e-04,2.3329895e-04,-1.2924862e-02,-6.4588333e-02,-1.3200970e-02,3.4744846e-04,-4.3769825e-03,6.0914771e-04,1.7217038e-02,5.9032181e-01,-1.4235448e-01
1.5699310e+00,1.4900057e-04,3.8644268e-04,3.5842774e-04,-1.6951218e-03,1.2200831e-02,-1.6266885e-03,-3.3102448e-05,-5.8364932e-03,9.2904693e-04,-3.8055127e-02,-1.4595121e-01,3.1989952e-02
1.5799310e+00,4.0448292e-04,1.3418561e-03,9.1809380e-04,2.5413070e-02,9.5199693e-02,2.6921853e-02,-6.1076037e-04,-1.3600021e-02,3.0028171e-03,-5.7765847e-02,-7.7635348e-01,2.0737721e-01
1.5899310e+00,2.2731018e-04,7.8358782e-04,8.2116472e-04,-1.7695078e-02,-5.5637395e-02,-1.8325109e-02,3.3646568e-04,-1.0171833e-02,2.3112610e-03,9.4722695e-02,3.4281908e-01,-6.9155677e-02
1.5999310e+00,1.6544543e-04,7.1483947e-04,8.3248907e-04,-6.1757426e-03,-6.8140126e-03,-6.2640209e-03,2.3398295e-04,-9.5293046e-03,1.9936457e-03,-1.0248283e-02,6.4252902e-02,-3.1761561e-02
1.6099312e+00,-2.0631580e-05,-4.2068818e-05,3.2999397e-04,-1.8659370e-02,-7.5619755e-02,-1.8835635e-02,7.9402305e-04,-2.9127188e-03,4.2978317e-04,5.6002729e-02,6.6164343e-01,-1.5638267e-01
1.6199312e+00,3.3774781e-04,1.2300055e-03,8.2302993e-04,3.5720817e-02,1.2672007e-01,3.7636783e-02,-1.1570700e-04,-1.3363288e-02,2.8542659e-03,-9.0973092e-02,-1.0450579e+00,2.4244851e-01
1.6299312e+00,3.2956512e-04,1.2080814e-03,8.3598088e-04,-8.1567074e-04,-2.1816853e-03,-8.4893723e-04,-7.0558226e-06,-1.2845006e-02,3.1518071e-03,1.0865128e-02,5.1828183e-02,2.9754144e-02
1.6399312e+00,2.9171837e-04,9.5545369e-04,7.0479550e-04,-3.7819091e-03,-2.5220842e-02,-4.0574519e-03,2.3237573e-04,-1.0464447e-02,2.2802815e-03,2.3943178e-02,2.3805615e-01,-8.7152640e-02
1.6499312e+00,1.2719722e-04,2.9613224e-04,2.9915601e-04,-1.6476396e-02,-6.5850104e-02,-1.6753906e-02,5.4259838e-04,-4.4052996e-03,6.9916768e-04,3.1022295e-02,6.0591534e-01,-1.5811153e-01
1.6599312e+00,1.8894075e-04,9.5000451e-04,7.2562857e-04,6.1687360e-03,6.5321520e-02,6.8402342e-03,1.1734265e-04,-9.9853927e-03,2.1510943e-03,-4.2525614e-02,-5.5800984e-01,1.4519280e-01
1.6699312e+00,2.1090961e-04,9.5856933e-04,6.8213122e-04,2.1920754e-03,8.3224891e-04,2.2109631e-03,2.7639736e-04,-1.0707937e-02,2.2954318e-03,1.5905487e-02,-7.2254503e-02,1.4433767e-02
1.6799312e+00,2.3474268e-04,9.3725459e-04,7.0967803e-04,2.3775970e-03,-2.1564559e-03,2.3664847e-03,1.2969893e-04,-1.0376291e-02,2.2783715e-03,-1.4669857e-02,3.3164621e-02,-1.7060297e-03
1.6899312e+00,1.5461669e-05,2.1898669e-05,6.2435855e-05,-2.1988437e-02,-9.1475430e-02,-2.2118321e-02,4.9073774e-04,-2.2474181e-03,-7.0243622e-04,3.6103915e-02,8.1288808e-01,-2.9808106e-01
1.6999311e+00,1.1852613e-04,7.3705947e-04,4.9269997e-04,1.0295251e-02,7.1426886e-02,1.0918484e-02,-6.9479967e-05,-8.4760071e-03,6.0482058e-04,-5.6021824e-02,-6.2285950e-01,1.3072580e-01
1.7099311e+00,2.1728937e-04,7.5556620e-04,8.2315785e-04,9.8564363e-03,1.7475886e-03,9.9149138e-03,3.7343606e-04,-1.0034058e-02,2.0823635e-03,4.4291645e-02,-1.5580529e-01,1.4775444e-01
1.7199311e+00,1.9400999e-04,6.9891443e-04,7.8234575e-04,-2.3251010e-03,-5.6413487e-03,-2.3878824e-03,3.3965991e-04,-9.7623046e-03,2.0438773e-03,-3.3776182e-03,2.7175411e-02,-3.8486322e-03
1.7299311e+00,6.1556284e-05,2.8397151e-04,1.8687512e-04,-1.3249163e-02,-4.1424854e-02,-1.3457379e-02,1.0438521e-04,-5.1000608e-03,4.1672807e-05,-2.3527492e-02,4.6622483e-01,-2.0022064e-01
1.7399311e+00,2.1415097e-04,2.6011024e-04,2.5349827e-04,1.5244872e-02,-2.4678237e-03,1.5261095e-02,4.5435004e-04,-4.8969042e-03,8.8601744e-04,3.4996517e-02,2.0315681e-02,8.4434544e-02
1.7499311e+00,3.8371228e-04,1.1312318e-03,8.7693172e-04,1.6887813e-02,8.6896426e-02,1.8093553e-02,-2.4519305e-04,-1.2534805e-02,2.7664587e-03,-6.9954376e-02,-7.6379086e-01,1.8804431e-01
1.7599311e+00,2.7233196e-04,9.1110148e-04,7.3789465e-04,-1.1112564e-02,-2.1895366e-02,-1.1392553e-02,4.7437247e-05,-1.0387553e-02,2.3783541e-03,2.9263057e-02,2.1472541e-01,-3.8810497e-02
1.7699311e+00,2.7546370e-04,9.5197501e-04,7.4744545e-04,3.1295026e-04,4.0837783e-03,3.5701272e-04,1.2177531e-04,-1.0553461e-02,2.3021883e-03,7.4338136e-03,-1.6590797e-02,-7.6165916e-03
1.7799311e+00,2.3638754e-04,9.2413712e-04,7.3283364e-04,-3.8993942e-03,-2.7442736e-03,-3.9436254e-03,9.0853053e-05,-9.9655499e-03,2.1675644e-03,-3.0922288e-03,5.8791191e-02,-1.3462396e-02
1.7899287e+00,1.1257626e-04,7.2576748e-05,1.2881076e-04,-1.2433254e-02,-8.5139003e-02,-1.2590447e-02,6.5194090e-04,-2.3482784e-03,5.1384553e-04,5.6122219e-02,7.6190953e-01,-1.6541148e-01
1.7999287e+00,3.2265797e-04,1.2097779e-03,8.1507765e-04,2.0939574e-02,1.1343572e-01,2.2557653e-02,-7.9380287e-05,-1.3119037e-02,2.8325100e-03,-7.3132188e-02,-1.0770769e+00,2.3186667e-01
1.8099287e+00,1.9454104e-04,8.2457272e-04,7.8278226e-04,-1.2807826e-02,-3.8373954e-02,-1.3248082e-02,6.6850090e-04,-1.0580708e-02,2.3098905e-03,7.4788190e-02,2.5383312e-01,-5.2261998e-02
1.8199286e+00,1.8989714e-04,7.6200452e-04,7.5510518e-04,-4.6696850e-04,-6.2517074e-03,-5.2657020e-04,5.5046196e-04,-9.8030553e-03,1.8617996e-03,-1.1803906e-02,7.7765348e-02,-4.4809135e-02
1.8299286e+00,-7.3108948e-05,-3.5345376e-04,-2.3732862e-04,-2.6426731e-02,-1.1156228e-01,-2.6104188e-02,8.3392089e-04,1.4631251e-03,-1.2587772e-03,2.8345921e-02,1.1266191e+00,-3.1205798e-01
1.8399286e+00,2.3013282e-04,5.4035196e-04,4.1719992e-04,3.0306054e-02,8.9152702e-02,3.1005734e-02,3.1932408e-04,-7.1123553e-03,1.5385633e-03,-5.1459730e-02,-8.5754886e-01,2.7973432e-01
1.8499286e+00,3.0819456e-04,9.5303499e-04,7.2354926e-04,7.7923635e-03,4.1181040e-02,8.2674078e-03,1.4138237e-04,-1.0712261e-02,2.5144343e-03,-1.7794188e-02,-3.5999096e-01,9.7587196e-02
1.8599288e+00,2.3660272e-04,7.3664756e-04,6.7013156e-04,-7.1488382e-03,-2.1574279e-02,-7.3594517e-03,2.0848195e-04,-8.5977196e-03,2.0502739e-03,6.7098047e-03,2.1144935e-01,-4.6414983e-02
1.8699288e+00,1.6435200e-04,3.0382847e-04,3.0673537e-04,-7.2374593e-03,-4.3241067e-02,-7.4538626e-03,4.3693975e-04,-5.1373303e-03,9.0352696e-04,2.2845802e-02,3.4603926e-01,-1.1467480e-01
1.8799288e+00,1.5910689e-04,3.1364966e-04,2.9564720e-04,-5.2357951e-04,9.8502158e-04,-5.1998136e-04,4.1012919e-04,-5.1419335e-03,1.0080187e-03,-2.6810586e-03,-4.6032323e-04,1.0449183e-02
1.8899288e+00,3.7164181e-04,1.2445579e-03,8.4530275e-04,2.1156522e-02,9.2811010e-02,2.2535758e-02,-3.4855777e-04,-1.3102960e-02,3.0321479e-03,-7.5868768e-02,-7.9610341e-01,2.0241311e-01
1.8999288e+00,2.2802299e-04,7.0261630e-04,8.3266630e-04,-1.4345465e-02,-5.4047509e-02,-1.4920301e-02,2.3018393e-04,-9.7845341e-03,2.0105122e-03,5.7874226e-02,3.3184292e-01,-1.0216366e-01
1.9099288e+00,9.9752247e-05,-2.0761679e-05,3.6188273e-04,-1.2865551e-02,-7.2285363e-02,-1.3082021e-02,5.9022249e-04,-3.4670127e-03,3.2966666e-04,3.6003890e-02,6.3175274e-01,-1.6808472e-01
1.9199288e+00,1.7892030e-04,6.7831765e-04,7.8629380e-04,7.9404120e-03,6.9823056e-02,8.6122609e-03,5.3854208e-04,-9.7526280e-03,1.7729512e-03,-5.1680459e-03,-6.2856213e-01,1.4432859e-01
1.9299288e+00,3.3647253e-04,1.2119477e-03,7.9923295e-04,1.5705406e-02,5.3152754e-02,1.6498357e-02,-6.3903502e-05,-1.3084042e-02,2.9420486e-03,-6.0244616e-02,-3.3314177e-01,1.1690985e-01
1.9399288e+00,3.0278507e-04,1.1686905e-03,8.2398500e-04,-3.3587064e-03,-4.2828749e-03,-3.4329166e-03,-1.1144838e-04,-1.2692780e-02,2.8338221e-03,-4.7544926e-03,3.9126335e-02,-1.0822660e-02
1.9499288e+00,1.2691787e-04,2.8483296e-04,2.8887338e-04,-1.7615922e-02,-8.8297254e-02,-1.7997692e-02,4.8865664e-04,-4.4933357e-03,7.9589161e-04,6.0010560e-02,8.1994516e-01,-2.0379324e-01
1.9599288e+00,2.5027464e-04,9.6342326e-04,7.5642475e-04,1.2315756e-02,6.7725556e-02,1.3067761e-02,1.0331322e-04,-1.0401954e-02,2.1818160e-03,-3.8534379e-02,-5.9086241e-01,1.3859257e-01
1.9699287e+00,2.6235637e-04,9.9804807e-04,7.5655225e-04,1.2059226e-03,3.4489324e-03,1.2485125e-03,2.4259837e-04,-1.0780363e-02,2.5555660e-03,1.3928529e-02,-3.7840881e-02,3.7375037e-02
1.9799287e+00,2.6827784e-04,9.5683204e-04,6.7887745e-04,5.9018383e-04,-4.1278138e-03,5.4932764e-04,1.4538565e-04,-1.0710936e-02,2.3020911e-03,-9.7212815e-03,6.9426543e-03,-2.5347510e-02
1.9899287e+00,5.9544531e-05,-2.1332268e-04,-1.0647933e-04,-2.0979135e-02,-1.1699142e-01,-2.0902707e-02,8.4051993e-04,-3.1481293e-04,-3.5638308e-04,6.9513494e-02,1.0396133e+00,-2.6584768e-01
1.9999287e+00,2.5266532e-05,5.4579462e-05,3.4846044e-04,-3.4073068e-03,2.6804178e-02,-3.3381076e-03,6.9040118e-04,-3.4212148e-03,5.8315885e-04,-1.5011889e-02,-3.1064049e-01,9.3954283e-02
2.0099287e+00,1.9684235e-04,7.6755023e-04,8.1134703e-04,1.7159172e-02,7.1107403e-02,1.7926217e-02,5.2858939e-04,-1.0288224e-02,2.1024503e-03,-1.6181194e-02,-6.8670155e-01,1.5192929e-01
2.0199287e+00,1.8618184e-04,8.3870185e-04,9.0066627e-04,-1.0612852e-03,7.1260494e-03,-9.9581528e-04,2.9989587e-04,-1.0231797e-02,2.4672119e-03,-2.2869374e-02,5.6426419e-03,3.6476189e-02
2.0299287e+00,7.1350387e-05,5.5215874e-05,3.6230778e-04,-1.1532509e-02,-7.8295761e-02,-1.1790471e-02,7.1039977e-04,-3.8431051e-03,5.4874718e-04,4.1050429e-02,6.3886984e-01,-1.9184665e-01
2.0399287e+00,1.7371052e-04,1.5178659e-04,1.8774269e-04,1.0236530e-02,9.6099807e-03,1.0279751e-02,5.3040404e-04,-4.0613146e-03,4.5062636e-04,-1.7999590e-02,-2.1820973e-02,-9.8120915e-03
2.0499287e+00,1.6268576e-04,2.0538064e-04,2.7374710e-04,-1.0987464e-03,5.3651629e-03,-1.0779444e-03,5.2342772e-04,-4.7465081e-03,8.3831916e-04,-6.9763296e-04,-6.8519410e-02,3.8769317e-02
2.0599287e+00,2.7369300e-04,8.4280767e-04,7.1636031e-04,1.1080462e-02,6.3622783e-02,1.1788024e-02,8.3261722e-05,-1.0391421e-02,2.3017059e-03,-4.4016642e-02,-5.6449184e-01,1.4633881e-01
2.0699286e+00,3.0928078e-04,8.9671926e-04,7.3148341e-04,3.5513221e-03,5.3530764e-03,3.6231439e-03,1.0748059e-04,-1.0488050e-02,2.2561571e-03,2.4218893e-03,-9.6628548e-03,-4.5548824e-03
2.0799286e+00,1.7971756e-04,3.1643486e-04,3.0495588e-04,-1.2966277e-02,-5.7962853e-02,-1.3237177e-02,3.5870170e-04,-4.6550417e-03,8.3876817e-04,2.5122135e-02,5.8330134e-01,-1.4173903e-01
2.0899286e+00,2.2778783e-04,9.6586157e-04,6.6841606e-04,4.7884236e-03,6.4889405e-02,5.4963515e-03,-1.3400854e-04,-1.0466503e-02,2.0583537e-03,-4.9271071e-02,-5.8114665e-01,1.2195867e-01
2.0999286e+00,4.2867880e-04,1.4588703e-03,8.9478869e-04,1.9995756e-02,4.9017829e-02,2.0860192e-02,-5.6752659e-04,-1.4359544e-02,3.2491332e-03,-4.3351847e-02,-3.8930453e-01,1.1907806e-01
2.1098950e+00,3.3504600e-04,9.7444405e-04,9.2410113e-04,-9.3870650e-03,-4.8481705e-02,-1.0024176e-02,5.2109198e-04,-1.2282122e-02,3.5205244e-03,1.0922916e-01,2.0844316e-01,2.7230690e-02
2.1198950e+00,1.5432492e-04,9.2983034e-04,6.3257268e-04,-1.8049376e-02,-4.2661376e-03,-1.8141870e-02,1.4449967e-05,-1.0761114e-02,1.2616452e-03,-5.0664249e-02,1.5210089e-01,-2.2588814e-01
2.1298950e+00,-1.1602882e-05,-2.4610245e-04,-1.0055626e-04,-1.6709755e-02,-1.1757830e-01,-1.6582387e-02,8.5211573e-04,-5.5045154e-05,-1.0107346e-03,8.3766656e-02,1.0706079e+00,-2.2723820e-01
2.1398950e+00,2.3866100e-04,4.9499077e-04,4.0945683e-04,2.5022844e-02,7.3924461e-02,2.5570998e-02,4.5326742e-04,-6.8561697e-03,1.4835811e-03,-3.9884869e-02,-6.8011310e-01,2.4943181e-01
2.1498950e+00,2.8904004e-04,9.6977544e-04,6.7731039e-04,5.0412330e-03,4.7420302e-02,5.5561757e-03,3.1868522e-04,-1.0673606e-02,2.3407707e-03,-1.3458233e-02,-3.8174399e-01,8.5719039e-02
2.1598949e+00,2.9178081e-04,8.9442385e-04,6.8763122e-04,2.7136646e-04,-7.5376396e-03,1.9827249e-04,2.8455536e-04,-1.0132704e-02,2.0641352e-03,-3.4129895e-03,5.4090247e-02,-2.7663576e-02
2.1698949e+00,2.1536505e-04,6.5467092e-04,5.3283350e-04,-7.6370277e-03,-2.3912530e-02,-7.8402862e-03,2.4856909e-04,-7.8600885e-03,1.3750194e-03,-3.5986301e-03,2.2726176e-01,-6.8911641e-02
2.1798949e+00,1.9610130e-04,3.1044387e-04,2.8476688e-04,-1.9379307e-03,-3.4411988e-02,-2.0990980e-03,3.8721439e-04,-4.9666163e-03,9.2077974e-04,1.3864543e-02,2.8934750e-01,-4.5424013e-02
2.1898949e+00,3.8674907e-04,1.2392625e-03,8.5541504e-04,1.8975621e-02,9.2626799e-02,2.0351707e-02,-3.4764254e-04,-1.3263340e-02,2.9792205e-03,-7.3485762e-02,-8.2967314e-01,2.0584427e-01
2.1998949e+00,3.8522884e-04,1.2330206e-03,8.4340449e-04,-1.5135916e-04,-6.2217163e-04,-1.6073187e-04,-4.0551185e-04,-1.3317119e-02,2.6993320e-03,-5.7869374e-03,-5.3779388e-03,-2.7988875e-02
2.2098949e+00,1.2560625e-04,4.5321406e-04,6.0688111e-04,-2.5952793e-02,-7.7786071e-02,-2.6549079e-02,2.5299483e-04,-7.1595254e-03,1.1247977e-03,6.5850731e-02,6.1575996e-01,-1.5745358e-01
2.2198949e+00,9.3193943e-05,2.3372442e-04,2.1131918e-04,-3.2453018e-03,-2.1933212e-02,-3.3423551e-03,1.7571944e-04,-4.6184898e-03,-6.5283102e-05,-7.7275466e-03,2.5410379e-01,-1.1900819e-01
2.2298949e+00,2.2199228e-04,9.7572395e-04,6.8516577e-04,1.2849932e-02,7.4050771e-02,1.3739973e-02,-1.0638311e-04,-1.1307083e-02,1.7082066e-03,-2.8210281e-02,-6.6885996e-01,1.7734914e-01
2.2398949e+00,3.5317922e-04,1.1384002e-03,8.3303751e-04,1.3081485e-02,1.6098076e-02,1.3362777e-02,-8.4765602e-05,-1.2872801e-02,2.7284914e-03,2.1617526e-03,-1.5657196e-01,1.0202858e-01
2.2498949e+00,1.5427256e-04,2.1884704e-04,2.1350258e-04,-1.9931791e-02,-9.1857488e-02,-2.0297805e-02,5.6896323e-04,-4.3077534e-03,5.6342392e-04,6.5372945e-02,8.5650559e-01,-2.1650695e-01
2.2598948e+00,1.5908951e-04,2.9882778e-04,2.5377523e-04,4.8557396e-04,7.9954214e-03,5.2040805e-04,5.3548864e-04,-4.7900373e-03,8.3985870e-04,-3.3474618e-03,-4.8228434e-02,2.7643505e-02
2.2698948e+00,3.4362607e-04,1.0742103e-03,7.5835700e-04,1.8415221e-02,7.7321743e-02,1.9377714e-02,1.3736493e-04,-1.1301116e-02,2.6573338e-03,-3.9812409e-02,-6.5110852e-01,1.8174769e-01
2.2798948e+00,3.5612502e-04,1.2147812e-03,8.6123127e-04,1.2441284e-03,1.4040360e-02,1.4307570e-03,-1.5514354e-04,-1.2619310e-02,2.8662795e-03,-2.9250875e-02,-1.3181950e-01,2.0894587e-02
2.2898948e+00,1.7742282e-04,3.1519089e-04,2.8717746e-04,-1.7895924e-02,-8.9866886e-02,-1.8303337e-02,4.2620356e-04,-4.6761529e-03,7.0774095e-04,5.8134766e-02,7.9431648e-01,-2.1585406e-01
2.2998948e+00,1.6594899e-04,2.7577705e-04,2.2304649e-04,-1.1489806e-03,-3.9354667e-03,-1.1659588e-03,5.9456114e-04,-4.5268317e-03,6.5055767e-04,1.6835773e-02,1.4932127e-02,-5.7183341e-03
2.3098872e+00,2.4627192e-04,5.4013683e-04,3.6149125e-04,8.0401753e-03,2.6392431e-02,8.2436535e-03,5.3344815e-04,-7.2986834e-03,1.5376403e-03,-6.1159702e-03,-2.7739707e-01,8.8776084e-02
2.3198872e+00,3.7063731e-04,1.2502401e-03,8.0855573e-04,1.2385478e-02,7.0838839e-02,1.3426501e-02,-2.1342757e-04,-1.3452989e-02,2.8838346e-03,-7.4687644e-02,-6.1543114e-01,1.3461955e-01
2.3298872e+00,2.0095740e-04,9.2541552e-04,6.4512856e-04,-1.6937829e-02,-3.2303949e-02,-1.7335038e-02,-3.2272290e-04,-1.0722608e-02,1.1599821e-03,-1.0929543e-02,2.7303835e-01,-1.7238542e-01
2.3398871e+00,9.3938664e-05,2.0145897e-04,1.9779246e-04,-1.0713757e-02,-7.2347817e-02,-1.1009553e-02,1.1312287e-04,-4.3022202e-03,-3.4428835e-04,4.3584619e-02,6.4203940e-01,-1.5042719e-01
2.3498871e+00,2.3994184e-04,2.8433742e-04,2.7270717e-04,1.4591816e-02,8.2123815e-03,1.4651402e-02,3.8521838e-04,-4.7736286e-03,8.0153320e-04,2.7209577e-02,-4.7140886e-02,1.1458226e-01
2.3598874e+00,3.8275044e-04,1.1861628e-03,8.4863805e-04,1.4220663e-02,8.9993358e-02,1.5471029e-02,-2.3181912e-04,-1.2783846e-02,2.7248049e-03,-6.1702338e-02,-8.0100344e-01,1.9232276e-01
2.3698874e+00,2.0937152e-04,3.1348027e-04,2.9568019e-04,-1.7344458e-02,-8.7176561e-02,-1.7787215e-02,2.5888133e-04,-4.9673943e-03,9.2484425e-04,4.9070092e-02,7.8164594e-01,-1.7999623e-01
2.3798873e+00,2.5745113e-04,2.4462452e-04,2.6460428e-04,4.8029480e-03,-6.9075509e-03,4.7813932e-03,2.9910889e-04,-4.2808795e-03,6.1493112e-04,4.0227598e-03,6.8651547e-02,-3.0991342e-02
2.3898873e+00,3.4175291e-04,3.4731579e-04,3.7799059e-04,8.4241726e-03,1.0220389e-02,8.4951892e-03,4.4254911e-04,-5.3160952e-03,1.2515954e-03,1.4344036e-02,-1.0352168e-01,6.3666486e-02
2.3998873e+00,6.1551012e-04,1.3722096e-03,1.1024873e-03,2.7223340e-02,1.0210843e-01,2.8908753e-02,-3.4129689e-04,-1.3843198e-02,4.2802577e-03,-7.8384675e-02,-8.5271107e-01,3.0286652e-01
2.4098873e+00,4.9160738e-04,1.2138965e-03,1.0007470e-03,-1.2334927e-02,-1.5671348e-02,-1.2646256e-02,-1.1084384e-04,-1.2862005e-02,4.3169329e-03,2.3045327e-02,9.8119424e-02,3.6675270e-03
2.4198873e+00,-8.7480575e-05,1.8408182e-04,2.7257911e-04,-5.7921806e-02,-1.0264176e-01,-5.8496214e-02,9.6967365e-04,-4.8691389e-03,1.4990840e-03,1.0805185e-01,7.9928732e-01,-2.8178516e-01
2.4298873e+00,-6.7789843e-04,6.8230733e-05,1.4757607e-04,-5.9058861e-02,-1.1245338e-02,-5.9090493e-02,1.2905771e-03,-4.4624208e-03,-3.5864120e-05,3.2090372e-02,4.0671858e-02,-1.5349496e-01
2.4398873e+00,-9.6340088e-04,9.4854182e-04,7.9868047e-04,-2.8439146e-02,8.8400535e-02,-2.7500679e-02,6.1892999e-04,-1.2536095e-02,1.9817349e-03,-6.7164771e-02,-8.0736819e-01,2.0176009e-01
2.4498873e+00,-1.0913104e-03,1.0525853e-03,9.6601939e-04,-1.2740650e-02,1.0593419e-02,-1.2685571e-02,8.0466926e-04,-1.4010783e-02,3.2735459e-03,1.8573944e-02,-1.4746891e-01,1.2918123e-01
2.4598873e+00,-1.2330890e-03,2.0897592e-04,5.3674046e-04,-1.4281385e-02,-8.4232446e-02,-1.4823743e-02,1.6446474e-03,-7.2420094e-03,2.4807402e-03,8.3997894e-02,6.7687797e-01,-7.9280647e-02
2.4698873e+00,-1.5144312e-03,-2.6190824e-04,3.9805578e-04,-2.8169966e-02,-4.6937972e-02,-2.8349147e-02,1.8828991e-03,-3.4466795e-03,1.8781236e-03,2.3825196e-02,3.7953335e-01,-6.0261717e-02
2.4798872e+00,-1.4268420e-03,9.6729341e-04,1.1243737e-03,8.8395541e-03,1.2278070e-01,1.0468792e-02,9.9467196e-04,-1.3576427e-02,4.7426676e-03,-8.8822801e-02,-1.0129758e+00,2.8645467e-01
2.4898872e+00,-2.0076383e-03,8.7661923e-04,1.1024025e-03,-5.7861493e-02,-8.1730486e-03,-5.8429166e-02,1.4558191e-03,-1.3873679e-02,3.9751487e-03,4.6114763e-02,-2.9725167e-02,-7.6751956e-02
2.4998872e+00,-2.9069611e-03,-1.1028755e-05,6.2389407e-04,-8.9967658e-02,-8.7851139e-02,-9.0790215e-02,2.2292865e-03,-7.8838444e-03,1.8037959e-03,7.7346813e-02,5.9898402e-01,-2.1713549e-01
2.5098872e+00,-3.5985677e-03,-3.4476998e-04,7.6545896e-04,-6.9178770e-02,-3.2661304e-02,-6.9482247e-02,3.2345829e-03,-7.0490823e-03,1.2938762e-03,1.0052973e-01,8.3476283e-02,-5.0992023e-02
2.5198872e+00,-4.1400023e-03,-8.2056041e-04,5.7719620e-04,-5.4265914e-02,-4.7188370e-02,-5.4362473e-02,3.6372884e-03,-3.5643811e-03,9.2861281e-04,4.0270587e-02,3.4847046e-01,-3.6526371e-02
2.5298872e+00,-4.1043352e-03,-2.3271894e-04,1.0059256e-03,3.7436945e-03,5.8736026e-02,4.1339377e-03,3.1841430e-03,-9.4721678e-03,2.8504239e-03,-4.5314587e-02,-5.9077923e-01,1.9218129e-01
2.5398872e+00,-4.0655140e-03,-3.3017277e-04,1.0093845e-03,3.8353213e-03,-9.7935418e-03,3.8067232e-03,3.3486889e-03,-9.1405978e-03,3.6350565e-03,1.6454610e-02,3.3157032e-02,7.8463339e-02
2.5498872e+00,-4.5575643e-03,-1.3903961e-03,4.0699957e-04,-4.9533711e-02,-1.0583592e-01,-4.9276817e-02,3.9352647e-03,1.6105737e-04,1.7909518e-03,5.8657634e-02,9.3016640e-01,-1.8441065e-01
2.5598872e+00,-4.9920778e-03,-1.2792148e-03,5.1181510e-04,-4.3314820e-02,1.1360249e-02,-4.3525063e-02,4.4785052e-03,-1.0939388e-03,1.9851576e-03,5.4324100e-02,-1.2549973e-01,1.9420605e-02
2.5698872e+00,-5.5466161e-03,-3.5844345e-05,1.0521392e-03,-5.4817030e-02,1.2521171e-01,-5.4102853e-02,3.7632855e-03,-1.2152896e-02,3.0348834e-03,-7.1522040e-02,-1.1058968e+00,1.0497268e-01
2.5798872e+00,-6.3055125e-03,-5.1855976e-05,1.1245796e-03,-7.5689045e-02,-2.6094797e-04,-7.6106241e-02,4.3465003e-03,-1.3276185e-02,2.7227073e-03,5.8321540e-02,-1.1232901e-01,-3.1217635e-02
2.5898871e+00,-6.7590587e-03,-2.7154315e-04,1.2964905e-03,-4.5338434e-02,-2.1125690e-02,-4.5769506e-02,5.2306753e-03,-1.3270652e-02,2.8735729e-03,8.8417587e-02,5.5331153e-04,1.5086566e-02
2.5998871e+00,-7.2575009e-03,-7.2101188e-04,1.2263447e-03,-4.9968938e-02,-4.4151657e-02,-5.0426823e-02,5.5662127e-03,-1.0301515e-02,2.4995333e-03,3.3553772e-02,2.9691400e-01,-3.7403994e-02
2.6098874e+00,-7.5657445e-03,-7.9629978e-04,1.2391013e-03,-3.0759587e-02,-7.0313160e-03,-3.1004583e-02,5.6952693e-03,-1.0386092e-02,3.4474847e-03,1.2905361e-02,-8.4574633e-03,9.4792974e-02
2.6198874e+00,-7.8454593e-03,-7.3895013e-04,1.4471635e-03,-2.7795560e-02,6.2036928e-03,-2.8046765e-02,6.1182447e-03,-1.0601971e-02,5.0045242e-03,4.2297578e-02,-2.1587973e-02,1.5570410e-01
2.6298873e+00,-8.4864723e-03,-7.6165455e-04,1.4778641e-03,-6.3867738e-02,-1.1341683e-03,-6.4364201e-02,6.2922662e-03,-1.1388005e-02,3.8403386e-03,1.7402168e-02,-7.8603423e-02,-1.1641867e-01
2.6398458e+00,-9.5414972e-03,-1.7969888e-03,9.2538932e-04,-1.0647935e-01,-1.0278590e-01,-1.0655207e-01,6.7687465e-03,-4.3210484e-03,1.5469763e-03,4.7846567e-02,7.0964024e-01,-2.3029182e-01
2.6498458e+00,-1.0100968e-02,-2.0254034e-03,1.0689987e-03,-5.5972097e-02,-2.2164279e-02,-5.6193978e-02,7.6791177e-03,-4.3975446e-03,2.6557066e-03,9.1037210e-02,-7.6496270e-03,1.1087314e-01
2.6598458e+00,-1.0639284e-02,-1.2876886e-03,1.6486390e-03,-5.2999166e-02,7.4859853e-02,-5.3150980e-02,7.7163653e-03,-1.2590747e-02,4.8489038e-03,3.7247614e-03,-8.1932104e-01,2.1931993e-01
2.6698458e+00,-1.1341236e-02,-1.4107740e-03,1.7083167e-03,-6.9997920e-02,-1.0920991e-02,-7.0620615e-02,7.8778812e-03,-1.1823348e-02,4.1529392e-03,1.6151609e-02,7.6740009e-02,-6.9596522e-02
2.6798458e+00,-1.2056000e-02,-1.7767596e-03,1.4619143e-03,-7.1570949e-02,-3.5398248e-02,-7.1984735e-02,8.0097879e-03,-8.7244014e-03,2.7440779e-03,1.3190678e-02,3.0989494e-01,-1.4088626e-01
2.6898458e+00,-1.2608286e-02,-1.6673985e-03,1.6704037e-03,-5.4959485e-02,1.2001825e-02,-5.5275863e-02,8.2236720e-03,-1.1056756e-02,3.2065921e-03,2.1388431e-02,-2.3323568e-01,4.6251464e-02
2.6998458e+00,-1.3255530e-02,-2.0305379e-03,1.7950864e-03,-6.4810632e-02,-3.5071281e-02,-6.5320635e-02,8.9874909e-03,-1.0124514e-02,3.6628221e-03,7.6381957e-02,9.3224320e-02,4.5623042e-02
2.7098458e+00,-1.3709702e-02,-2.1492236e-03,1.9273423e-03,-4.5337510e-02,-1.0960347e-02,-4.5724212e-02,9.4471452e-03,-1.0481498e-02,4.1718501e-03,4.5965482e-02,-3.5698490e-02,5.0902842e-02
2.7198458e+00,-1.4154391e-02,-2.1512031e-03,2.1077043e-03,-4.4248001e-02,7.6073146e-04,-4.4682797e-02,9.5666349e-03,-1.1933458e-02,4.9534966e-03,1.1948981e-02,-1.4519607e-01,7.8164731e-02
2.7298458e+00,-1.4868798e-02,-2.6228312e-03,1.8354297e-03,-7.1649791e-02,-4.5764341e-02,-7.2137623e-02,1.0750394e-02,-8.7268959e-03,4.1049684e-03,1.1837602e-01,3.2065648e-01,-8.4852908e-02
2.7398458e+00,-1.5635465e-02,-2.6877045e-03,1.7564433e-03,-7.6450205e-02,-4.9180738e-03,-7.6998900e-02,1.1311938e-02,-9.1147304e-03,3.7101824e-03,5.6154455e-02,-3.8783493e-02,-3.9478633e-02
2.7498457e+00,-1.6502262e-02,-2.8524252e-03,1.6217473e-03,-8.6620494e-02,-1.4713000e-02,-8.7054735e-02,1.1417325e-02,-8.8331466e-03,2.7849017e-03,1.0538724e-02,2.8158412e-02,-9.2528156e-02
2.7598457e+00,-1.7330732e-02,-2.8709390e-03,1.8617460e-03,-8.2604137e-02,4.9527244e-05,-8.3109876e-02,1.2099866e-02,-1.0809507e-02,3.1244605e-03,6.8254156e-02,-1.9763623e-01,3.3955910e-02
2.7698457e+00,-1.8124075e-02,-3.1613065e-03,1.9779711e-03,-7.9424671e-02,-2.7286789e-02,-7.9863591e-02,1.2574952e-02,-9.4074472e-03,3.3801893e-03,4.7508620e-02,1.4020611e-01,2.5572901e-02
2.7798457e+00,-1.8713544e-02,-3.0448497e-03,2.1778460e-03,-5.8504425e-02,1.3075582e-02,-5.9087737e-02,1.2723398e-02,-1.1508327e-02,4.9000657e-03,1.4844611e-02,-2.1008822e-01,1.5198778e-01
2.7898457e+00,-1.9583567e-02,-3.3106869e-03,2.0102615e-03,-8.7003280e-02,-2.4616229e-02,-8.7578600e-02,1.2821722e-02,-9.7170965e-03,3.8183097e-03,9.8324459e-03,1.7912326e-01,-1.0817570e-01
2.7998457e+00,-2.0341739e-02,-3.2506863e-03,2.0978793e-03,-7.5469054e-02,7.8700268e-03,-7.5993320e-02,1.2930590e-02,-1.1706435e-02,3.4791604e-03,1.0886829e-02,-1.9893405e-01,-3.3914963e-02
2.8098457e+00,-2.1113445e-02,-3.4593991e-03,2.1606734e-03,-7.7183036e-02,-1.8823368e-02,-7.7683308e-02,1.3632413e-02,-1.2815827e-02,3.4278435e-03,7.0182363e-02,-1.1093930e-01,-5.1316968e-03
2.8198457e+00,-2.1839215e-02,-3.9386988e-03,2.3753377e-03,-7.2961272e-02,-4.5986650e-02,-7.3444013e-02,1.5152935e-02,-1.1453392e-02,4.5872174e-03,1.5205228e-01,1.3624362e-01,1.1593750e-01
2.8298457e+00,-2.2602566e-02,-4.3342966e-03,2.3146930e-03,-7.6619656e-02,-3.7630910e-02,-7.7022503e-02,1.5659844e-02,-9.4831689e-03,4.2578166e-03,5.0690989e-02,1.9702251e-01,-3.2940113e-02
2.8398457e+00,-2.3265209e-02,-4.7360615e-03,2.2310433e-03,-6.6642707e-02,-3.8571978e-02,-6.6835794e-02,1.6397889e-02,-7.6866628e-03,4.0884489e-03,7.3804605e-02,1.7965078e-01,-1.6936784e-02
2.8498127e+00,-2.4121503e-02,-5.1138325e-03,2.0208062e-03,-8.6248389e-02,-3.5974044e-02,-8.6402698e-02,1.7243589e-02,-5.1071443e-03,3.5381910e-03,8.4849249e-02,2.5880361e-01,-5.5207482e-02
2.8598130e+00,-2.4856925e-02,-4.5286179e-03,2.3801207e-03,-7.2220026e-02,6.0553520e-02,-7.3202131e-02,1.7073700e-02,-1.0695460e-02,4.2153385e-03,-1.6988533e-02,-5.5881874e-01,6.7713202e-02
2.8698130e+00,-2.6103575e-02,-4.8828303e-03,2.3901795e-03,-1.2483068e-01,-3.2020741e-02,-1.2541704e-01,1.7549328e-02,-9.6391271e-03,3.4980365e-03,4.7562782e-02,1.0563335e-01,-7.1730271e-02
2.8798130e+00,-2.7062446e-02,-4.9433003e-03,2.7022656e-03,-9.5562091e-02,-3.1633496e-03,-9.6349225e-02,1.8317825e-02,-1.1692220e-02,4.3688056e-03,7.6849826e-02,-2.0530950e-01,8.7076995e-02
2.8898129e+00,-2.8057220e-02,-5.2324269e-03,2.4583984e-03,-9.9656270e-02,-2.6014848e-02,-1.0009666e-01,1.8648103e-02,-1.0382734e-02,3.4426863e-03,3.3027851e-02,1.3094875e-01,-9.2612025e-02
2.8998129e+00,-2.9183256e-02,-5.6824704e-03,2.2465729e-03,-1.1316159e-01,-4.1888844e-02,-1.1324466e-01,1.9282488e-02,-8.2783993e-03,2.5623355e-03,6.3438549e-02,2.1043367e-01,-8.8035165e-02
2.9098129e+00,-3.0090053e-02,-5.6199769e-03,2.3014158e-03,-9.0312698e-02,8.9353390e-03,-9.0821192e-02,1.9405468e-02,-1.0208366e-02,2.5197921e-03,1.2298041e-02,-1.9299688e-01,-4.2543389e-03
2.9198129e+00,-3.1099140e-02,-5.3718944e-03,2.5056433e-03,-1.0009743e-01,2.8132178e-02,-1.0084488e-01,1.9408271e-02,-1.3562249e-02,3.0759552e-03,2.8028673e-04,-3.3538858e-01,5.5616364e-02
2.9298129e+00,-3.2124307e-02,-5.6641013e-03,2.6533931e-03,-1.0274797e-01,-2.5692053e-02,-1.0322805e-01,2.0515303e-02,-1.3775169e-02,3.3764220e-03,1.1070327e-01,-2.1292014e-02,3.0046710e-02
2.9398129e+00,-3.2997399e-02,-6.1050798e-03,2.9496224e-03,-8.7824706e-02,-4.1009880e-02,-8.8291799e-02,2.1845972e-02,-1.3296283e-02,4.8784785e-03,1.3306707e-01,4.7888589e-02,1.5020579e-01
2.9498129e+00,-3.3995877e-02,-6.2795590e-03,3.0083516e-03,-9.9657431e-02,-1.3860653e-02,-1.0059772e-01,2.2319018e-02,-1.3478543e-02,5.5425884e-03,4.7304575e-02,-1.8226008e-02,6.6411051e-02
2.9598129e+00,-3.5241342e-02,-6.8900183e-03,2.6318013e-03,-1.2548242e-01,-5.7009514e-02,-1.2551670e-01,2.3147623e-02,-9.0807588e-03,3.5572411e-03,8.2860629e-02,4.3977886e-01,-1.9853491e-01
2.9698129e+00,-3.6284536e-02,-6.5921776e-03,2.6134346e-03,-1.0332245e-01,3.3504844e-02,-1.0418308e-01,2.2904162e-02,-1.2830249e-02,2.7530487e-03,-2.4346143e-02,-3.7494934e-01,-8.0419326e-02
2.9798129e+00,-3.7740146e-02,-7.0901478e-03,2.5925298e-03,-1.4633748e-01,-4.4774462e-02,-1.4641184e-01,2.3315809e-02,-1.1052868e-02,2.3676311e-03,4.1164760e-02,1.7773824e-01,-3.8541797e-02
2.9898129e+00,-3.9052046e-02,-7.3047669e-03,2.6952553e-03,-1.3135396e-01,-1.6632273e-02,-1.3172626e-01,2.4183968e-02,-1.2543726e-02,2.4116700e-03,8.6816011e-02,-1.4908593e-01,4.4038991e-03
2.9998128e+00,-4.0293797e-02,-7.8435860e-03,2.7220853e-03,-1.2518879e-01,-4.9424191e-02,-1.2500896e-01,2.5094274e-02,-1.0622192e-02,2.4073385e-03,9.1030632e-02,1.9215355e-01,-4.3315109e-04
3.0098128e+00,-4.1450728e-02,-8.1399054e-03,2.7650064e-03,-1.1606750e-01,-2.5519814e-02,-1.1629681e-01,2.5591282e-02,-9.8307172e-03,2.9863892e-03,4.9700861e-02,7.9147568e-02,5.7905123e-02
3.0198128e+00,-4.2279920e-02,-7.7782785e-03,3.1320794e-03,-8.1564231e-02,3.9554451e-02,-8.2714558e-02,2.6000127e-02,-1.5037894e-02,4.6559352e-03,4.0884523e-02,-5.2071819e-01,1.6695476e-01
3.0298128e+00,-4.3514220e-02,-8.1921587e-03,3.4320878e-03,-1.2379014e-01,-3.6284799e-02,-1.2466908e-01,2.6826640e-02,-1.4288365e-02,5.7013936e-03,8.2651414e-02,7.4953002e-02,1.0454593e-01
3.0398128e+00,-4.5274986e-02,-9.0109697e-03,3.1603092e-03,-1.7759767e-01,-7.4929138e-02,-1.7763792e-01,2.8165897e-02,-1.1064605e-02,4.0532501e-03,1.3392581e-01,3.2237633e-01,-1.6481450e-01
3.0498128e+00,-4.7179653e-02,-9.8183864e-03,3.0328975e-03,-1.9216107e-01,-7.3541603e-02,-1.9167762e-01,2.9573297e-02,-8.0097872e-03,3.1977654e-03,1.4074011e-01,3.0548203e-01,-8.5548553e-02
3.0598128e+00,-4.9042776e-02,-1.0190561e-02,3.0041044e-03,-1.8688353e-01,-2.9997701e-02,-1.8704139e-01,3.0530260e-02,-8.1062731e-03,2.5632049e-03,9.5696424e-02,-9.6486039e-03,-6.3456113e-02
3.0698128e+00,-5.0734631e-02,-1.0675041e-02,3.0363088e-03,-1.7028990e-01,-4.1746856e-02,-1.6986258e-01,3.1529597e-02,-7.9177348e-03,2.0011493e-03,9.9933833e-02,1.8853852e-02,-5.6205620e-02
3.0798128e+00,-5.2373754e-02,-1.0829789e-02,2.9510882e-03,-1.6406142e-01,-8.7582882e-03,-1.6425966e-01,3.1890968e-02,-9.0260055e-03,1.5920753e-03,3.6137126e-02,-1.1082718e-01,-4.0907435e-02
3.0898128e+00,-5.4050696e-02,-1.0899988e-02,3.3255243e-03,-1.6732132e-01,5.9153077e-04,-1.6821209e-01,3.2741873e-02,-1.2591067e-02,3.0543025e-03,8.5090578e-02,-3.5650647e-01,1.4622286e-01
3.0998127e+00,-5.5942041e-02,-1.1262472e-02,3.4767996e-03,-1.8962999e-01,-2.7457770e-02,-1.9011664e-01,3.3556082e-02,-1.2766970e-02,3.2428367e-03,8.1420900e-02,-1.7590339e-02,1.8853434e-02
3.1098130e+00,-5.7688269e-02,-1.1639841e-02,3.6445361e-03,-1.7519232e-01,-2.9327245e-02,-1.7565590e-01,3.4860139e-02,-1.3107601e-02,3.6330971e-03,1.3040271e-01,-3.4062317e-02,3.9025149e-02
3.1198130e+00,-5.9960552e-02,-1.2703790e-02,3.4424105e-03,-2.3050497e-01,-9.5989003e-02,-2.2855872e-01,3.6369797e-02,-9.0883798e-03,1.9432992e-03,1.5096600e-01,4.0192250e-01,-1.6897994e-01
3.1298130e+00,-6.1957185e-02,-1.3141670e-02,3.4957638e-03,-2.0082772e-01,-3.4341681e-02,-2.0034299e-01,3.7526322e-02,-9.6144250e-03,1.6916853e-03,1.1565262e-01,-5.2604572e-02,-2.5161416e-02
3.1398129e+00,-6.3970213e-02,-1.3683566e-02,3.6782281e-03,-2.0286923e-01,-4.4334801e-02,-2.0214051e-01,3.8995025e-02,-9.7358259e-03,1.9517758e-03,1.4687040e-01,-1.2140098e-02,2.6009075e-02
3.1498129e+00,-6.6245707e-02,-1.4218228e-02,3.5323560e-03,-2.2925420e-01,-4.2174672e-02,-2.2821057e-01,4.0142008e-02,-9.2830646e-03,1.1319682e-03,1.1469841e-01,4.5276174e-02,-8.1980842e-02
3.1598129e+00,-6.8231660e-02,-1.4252559e-02,3.8144596e-03,-1.9800785e-01,7.2971173e-03,-1.9907735e-01,4.0509971e-02,-1.3481895e-02,2.8348039e-03,3.6796396e-02,-4.1988343e-01,1.7028373e-01
3.1698129e+00,-7.0520456e-02,-1.5536650e-02,3.5316876e-03,-2.3389797e-01,-1.1665160e-01,-2.3009790e-01,4.3376339e-02,-7.4542609e-03,1.4615695e-03,2.8663700e-01,6.0276397e-01,-1.3732357e-01
3.1798129e+00,-7.2823510e-02,-1.6187239e-02,3.5238123e-03,-2.3278390e-01,-5.3176754e-02,-2.3086343e-01,4.4846708e-02,-6.4667307e-03,8.9783340e-04,1.4703706e-01,9.8753114e-02,-5.6373663e-02
3.1898129e+00,-7.5002648e-02,-1.6159451e-02,3.8580558e-03,-2.1716808e-01,1.5205215e-02,-2.1814566e-01,4.5241922e-02,-1.1793800e-02,1.8211661e-03,3.9521429e-02,-5.3270743e-01,9.2333356e-02
