time, x, y, z, vx, vy, vz, yaw, pitch, roll, yaw_rate, pitch_rate, roll_rate
0.0000000e+00,0.0000000e+00,0.0000000e+00,0.0000000e+00,0.0000000e+00,0.0000000e+00,0.0000000e+00,0.0000000e+00,0.0000000e+00,0.0000000e+00,0.0000000e+00,0.0000000e+00,0.0000000e+00
9.9999905e-03,6.3731105e-05,1.3395796e-04,1.8872501e-05,6.3718568e-03,1.3387040e-02,6.3927710e-03,4.1579982e-05,-1.3320577e-03,2.8503142e-04,4.1580021e-03,-1.3320589e-01,2.8503170e-02
1.9999981e-02,5.6412996e-05,3.0354527e-04,-1.5477684e-04,-7.3912813e-04,1.6960389e-02,-6.8490579e-04,-4.1352733e-04,-2.7476793e-03,-4.1507456e-04,-4.5510775e-02,-1.4156230e-01,-7.0010665e-02
2.9999971e-02,9.7636830e-05,3.3091915e-04,1.1411735e-05,4.1207902e-03,2.7289127e-03,4.1295990e-03,-5.7445340e-04,-2.6287072e-03,5.8053798e-06,-1.6092623e-02,1.1897219e-02,4.2088034e-02
3.9999962e-02,8.9376787e-05,2.6947533e-04,1.7542876e-05,-8.2119020e-04,-6.1434953e-03,-8.3737078e-04,-7.9364259e-04,-1.8598051e-03,-7.4843654e-05,-2.1918939e-02,7.6890288e-02,-8.0649111e-03
4.9999952e-02,2.6026941e-04,5.5591625e-04,1.5745101e-04,1.7045256e-02,2.8589423e-02,1.7224303e-02,-9.1128411e-04,-4.0929156e-03,1.0476155e-03,-1.1764163e-02,-2.2331126e-01,1.1224602e-01
5.9999943e-02,2.5629662e-04,6.8758468e-04,1.9679627e-04,-4.0813404e-04,1.3168382e-02,-3.3000894e-04,-8.6077809e-04,-5.1461855e-03,1.2045668e-03,5.0506068e-03,-1.0532709e-01,1.5695150e-02
6.9999933e-02,7.4305375e-05,4.9375209e-04,3.6615057e-05,-1.8177836e-02,-1.9344322e-02,-1.8261777e-02,-1.0267762e-03,-3.1611971e-03,7.6604994e-05,-1.6599828e-02,1.9849902e-01,-1.1279629e-01
7.9999924e-02,5.6073830e-05,3.1377822e-04,-6.9794670e-05,-1.8063739e-03,-1.7996301e-02,-1.8505398e-03,-9.6287664e-04,-1.5516495e-03,-3.0047182e-04,6.3899626e-03,1.6095492e-01,-3.7707718e-02
8.9999914e-02,1.3543195e-04,4.6439167e-05,5.3625933e-05,7.9397526e-03,-2.6735618e-02,7.9261969e-03,-1.7713204e-04,-3.8995724e-04,1.0107892e-04,7.8574536e-02,1.1616933e-01,4.0155112e-02
9.9999905e-02,1.0924821e-04,1.2846493e-05,5.3811653e-05,-2.6175398e-03,-3.3591860e-03,-2.6193203e-03,-1.4323260e-04,-1.7549787e-04,1.3554043e-04,3.3899466e-03,2.1445958e-02,3.4461550e-03
1.0999990e-01,7.8475553e-05,9.9174391e-05,7.6052847e-05,-3.0769984e-03,8.6361335e-03,-3.0681675e-03,-1.0627487e-04,-1.1917051e-03,3.8600975e-04,3.6957774e-03,-1.0162082e-01,2.5046956e-02
1.1999989e-01,6.2578840e-05,2.7426108e-04,-1.6574580e-04,-1.5989141e-03,1.7511610e-02,-1.5476325e-03,-4.8175697e-04,-2.3546380e-03,-5.0746365e-04,-3.7548246e-02,-1.1629340e-01,-8.9347425e-02
1.2999988e-01,1.2561943e-04,3.4523594e-04,-9.7503258e-05,6.3035584e-03,7.0816610e-03,6.3223493e-03,-3.9496642e-04,-2.9025865e-03,-3.6449581e-04,8.6790639e-03,-5.4794905e-02,1.4296798e-02
1.3999987e-01,1.2629473e-04,4.0377636e-04,5.5814529e-05,6.4067297e-05,5.8538615e-03,8.4776459e-05,-5.9050992e-04,-2.9450477e-03,9.1433346e-05,-1.9554369e-02,-4.2461287e-03,4.5592959e-02
1.5000010e-01,3.2941358e-04,8.2633882e-04,3.5609100e-04,2.0238942e-02,4.2136191e-02,2.0628689e-02,-8.9510610e-04,-6.6993300e-03,1.7043362e-03,-3.0458921e-02,-3.7541963e-01,1.6128660e-01
1.6000009e-01,2.1511247e-04,7.0898075e-04,2.1439670e-04,-1.1401837e-02,-1.1688174e-02,-1.1506934e-02,-9.2893609e-04,-5.0758461e-03,1.5192960e-03,-3.3830030e-03,1.6234855e-01,-1.8504041e-02
1.7000008e-01,2.1912807e-04,7.1826119e-04,1.8528076e-04,4.0025035e-04,9.2634686e-04,4.0675648e-04,-8.6161034e-04,-5.0535467e-03,1.2711349e-03,6.7325816e-03,2.2299425e-03,-2.4816129e-02
1.8000007e-01,6.3452052e-06,3.5976702e-04,-5.5175892e-05,-2.1253033e-02,-3.5830212e-02,-2.1335895e-02,-8.8596237e-04,-1.7873657e-03,-3.0530315e-04,-2.4352047e-03,3.2661841e-01,-1.5764396e-01
1.9000006e-01,1.6071668e-05,3.6374258e-04,-6.1315123e-05,9.7258258e-04,3.9651288e-04,9.7313765e-04,-8.7675507e-04,-1.9492468e-03,-2.9235494e-04,9.2072995e-04,-1.6188125e-02,1.2948221e-03
2.0000005e-01,1.1888496e-04,4.3371842e-04,-6.9863472e-05,1.0278413e-02,6.9710117e-03,1.0302299e-02,-6.5412450e-04,-3.2361175e-03,-1.6082108e-04,2.2263078e-02,-1.2868720e-01,1.3153398e-02
2.1000004e-01,1.4413723e-04,1.3945959e-04,1.0464079e-04,2.5250511e-03,-2.9429977e-02,2.4775822e-03,-3.4890098e-05,-1.6600458e-03,4.7697151e-04,6.1923500e-02,1.5760733e-01,6.3779320e-02
2.2000003e-01,7.0580580e-05,-6.4060538e-06,-1.4746830e-05,-7.3539806e-03,-1.4587301e-02,-7.3559300e-03,-1.8721378e-04,-8.8931306e-05,-1.4133643e-04,-1.5232383e-02,1.5711159e-01,-6.1830853e-02
2.3000002e-01,2.1222615e-05,1.3564860e-04,-2.4527650e-04,-4.9480151e-03,1.4208301e-02,-4.9154071e-03,-5.0595893e-04,-1.0808686e-03,-1.0190393e-03,-3.1874545e-02,-9.9193829e-02,-8.7770367e-02
2.4000001e-01,1.0282686e-04,3.7392066e-04,-1.1042320e-04,8.1493394e-03,2.3808124e-02,8.2270061e-03,-5.8113971e-04,-2.9103488e-03,-3.3766866e-04,-7.5180857e-03,-1.8294819e-01,6.8137125e-02
2.5000000e-01,1.2271105e-04,4.4293037e-04,-2.6218064e-05,1.9825906e-03,6.8961899e-03,2.0107261e-03,-8.8475467e-04,-3.2729518e-03,-1.3917681e-04,-3.0361524e-02,-3.6260332e-02,1.9849204e-02
2.5999999e-01,6.7458986e-05,2.5609437e-04,-8.0404897e-05,-5.5099271e-03,-1.8678233e-02,-5.5585815e-03,-9.4409729e-04,-1.9118702e-03,-4.2669972e-04,-5.9342684e-03,1.3610829e-01,-2.8752318e-02
2.6999998e-01,1.9562715e-04,5.1859697e-04,1.2664269e-04,1.2780358e-02,2.6211468e-02,1.2932171e-02,-9.1562825e-04,-3.9238129e-03,9.6933823e-04,2.8469071e-03,-2.0119446e-01,1.3960393e-01
2.7999997e-01,2.6094305e-04,6.5947432e-04,1.7910266e-04,6.5127955e-03,1.4059228e-02,6.6113342e-03,-7.4790979e-04,-5.0795035e-03,1.2642342e-03,1.6771862e-02,-1.1556917e-01,2.9489625e-02
2.8999996e-01,2.7229178e-04,6.4026476e-04,1.6056556e-04,1.1349471e-03,-1.9256166e-03,1.1268774e-03,-7.0760300e-04,-4.8275506e-03,1.1325476e-03,4.0306819e-03,2.5195319e-02,-1.3168674e-02
2.9999995e-01,1.7850030e-04,5.6335434e-04,1.7648617e-04,-9.3691960e-03,-7.6537594e-03,-9.4195317e-03,-7.8392386e-04,-4.7483015e-03,4.1889422e-04,-7.6320932e-03,7.9249115e-03,-7.1365405e-02
3.0999994e-01,1.5641633e-04,4.8334527e-04,1.1129711e-04,-2.2039575e-03,-7.9930912e-03,-2.2409242e-03,-4.7274883e-04,-3.9847903e-03,2.9808472e-04,3.1117533e-02,7.6351196e-02,-1.2080961e-02
3.1999993e-01,9.4230621e-05,1.1162764e-04,8.1706055e-05,-6.2226764e-03,-3.7162891e-02,-6.2675235e-03,1.9626060e-04,-1.2309081e-03,5.1375958e-04,6.6901007e-02,2.7538848e-01,2.1567507e-02
3.2999992e-01,6.5914105e-05,2.8943095e-04,-1.5356492e-04,-2.8395066e-03,1.7786235e-02,-2.7864575e-03,-3.4254889e-04,-2.4422586e-03,-6.2235395e-04,-5.3881001e-02,-1.2113516e-01,-1.1361146e-01
3.3999991e-01,3.8839604e-05,1.6473376e-04,-2.2152695e-04,-2.7047711e-03,-1.2467001e-02,-2.7226584e-03,-4.2734236e-04,-1.4316147e-03,-9.7835218e-04,-8.4793552e-03,1.0106449e-01,-3.5599857e-02
3.4999990e-01,9.7024179e-05,2.9904090e-04,-1.2215041e-04,5.8115264e-03,1.3423625e-02,5.8417373e-03,-7.5996161e-04,-1.9764340e-03,-5.6249036e-04,-3.3261957e-02,-5.4481987e-02,4.1586222e-02
3.5999990e-01,3.3792937e-04,7.5640104e-04,2.5747758e-04,2.4013626e-02,4.5626298e-02,2.4373799e-02,-9.3345801e-04,-5.4528375e-03,1.4191555e-03,-1.7349657e-02,-3.4764068e-01,1.9816477e-01
3.6998081e-01,2.6926814e-04,6.7998954e-04,2.2345654e-04,-6.8629008e-03,-7.6264849e-03,-6.9279239e-03,-8.7420535e-04,-5.1076188e-03,1.4023214e-03,5.9365949e-03,3.4587869e-02,-1.6866243e-03
3.7998080e-01,2.0175962e-04,5.4949855e-04,1.1151107e-04,-6.7330046e-03,-1.3027617e-02,-6.8099442e-03,-8.4520146e-04,-4.0088579e-03,1.0101450e-03,2.9003924e-03,1.0987620e-01,-3.9217682e-02
3.8998079e-01,6.4172614e-05,2.5025202e-04,-8.5198039e-05,-1.3740827e-02,-2.9914714e-02,-1.3798207e-02,-7.2558626e-04,-1.4475528e-03,-2.7837296e-04,1.1961531e-02,2.5613075e-01,-1.2885192e-01
3.9998102e-01,8.3313108e-05,1.9819921e-04,-7.7977241e-05,1.9180627e-03,-5.2064990e-03,1.9062929e-03,-6.7474798e-04,-1.3767755e-03,-2.8492186e-04,5.0837118e-03,7.0775696e-03,-6.5487499e-04
4.0998101e-01,1.5461200e-04,2.9474507e-04,-1.3344601e-05,7.1262928e-03,9.6349445e-03,7.1600172e-03,-5.2351846e-04,-3.2729057e-03,-2.0368717e-04,1.5122966e-02,-1.8961320e-01,8.1234762e-03
4.1998100e-01,1.5375484e-04,5.8974181e-05,1.4370026e-04,-8.6544274e-05,-2.3576969e-02,-1.1814994e-04,3.6675727e-05,-1.3740435e-03,4.3236695e-04,5.6019472e-02,1.8988640e-01,6.3605473e-02
4.2998099e-01,7.5625358e-05,-5.0850031e-05,2.7929783e-05,-7.8128007e-03,-1.0982124e-02,-7.8135415e-03,-1.4303756e-06,-4.0748004e-05,1.7764723e-05,-3.8106139e-03,1.3332967e-01,-4.1460262e-02
4.3998098e-01,8.0654887e-05,9.3492293e-05,1.1930017e-04,5.0208708e-04,1.4433515e-02,5.2434337e-04,-4.8535039e-05,-1.4704550e-03,3.2961661e-04,-4.7104708e-03,-1.4297083e-01,3.1185218e-02
4.4998097e-01,1.5778325e-05,3.1797706e-04,-5.8717331e-05,-6.5023557e-03,2.2459086e-02,-6.4361011e-03,-6.0548245e-04,-2.2473203e-03,-1.6991977e-04,-5.5694794e-02,-7.7686610e-02,-4.9953686e-02
4.5998096e-01,6.5869567e-05,4.4224971e-04,2.4227229e-05,4.9993576e-03,1.2415220e-02,5.0486336e-03,-6.6373806e-04,-3.0577228e-03,3.0375954e-04,-5.8255666e-03,-8.1040321e-02,4.7367977e-02
4.6998096e-01,2.4926857e-04,6.7039462e-04,2.4133453e-04,1.8301793e-02,2.2728994e-02,1.8483625e-02,-5.6549362e-04,-5.2043418e-03,1.3742221e-03,9.8244530e-03,-2.1466210e-01,1.0704635e-01
4.7998095e-01,3.0892678e-04,8.6135833e-04,4.1075970e-04,5.9401394e-03,1.9056750e-02,6.1163105e-03,-8.0015446e-04,-7.3443346e-03,1.7426700e-03,-2.3466106e-02,-2.1399949e-01,3.6844833e-02
4.8998094e-01,1.8774355e-04,6.9366671e-04,2.2284028e-04,-1.2089210e-02,-1.6714210e-02,-1.2222912e-02,-7.5626730e-04,-5.2654510e-03,1.3556553e-03,4.3887202e-03,2.0788856e-01,-3.8701513e-02
4.9998093e-01,1.8586744e-04,6.9040619e-04,1.4947151e-04,-1.8711807e-04,-3.2525306e-04,-1.8948112e-04,-7.4829722e-04,-4.9812630e-03,1.3240849e-03,7.9700872e-04,2.8418833e-02,-3.1570395e-03
5.0998092e-01,7.9633069e-05,3.5935840e-04,-1.1708388e-04,-1.0610888e-02,-3.3079302e-02,-1.0715063e-02,-5.0281830e-04,-2.8916437e-03,-3.8485771e-04,2.4547915e-02,2.0896213e-01,-1.7089442e-01
5.1998091e-01,5.5640488e-05,1.3280259e-04,-2.2390909e-04,-2.3913813e-03,-2.2653594e-02,-2.4259553e-03,-4.5327641e-04,-1.2834773e-03,-9.9678036e-04,4.9541940e-03,1.6081679e-01,-6.1192323e-02
5.2998090e-01,7.0351003e-05,-1.2036502e-04,-1.3115484e-05,1.4689626e-03,-2.5316532e-02,1.4774757e-03,8.7153157e-05,2.5827434e-04,-7.8903501e-05,5.4043008e-02,1.5417531e-01,9.1787773e-02
5.3998089e-01,1.1736323e-04,3.4588341e-05,4.6374335e-05,4.7024364e-03,1.5489847e-02,4.7181265e-03,1.4853246e-04,-1.0202528e-03,2.3238632e-04,6.1379358e-03,-1.2785283e-01,3.1129012e-02
5.4998088e-01,1.0238568e-04,3.5270630e-04,-1.9355225e-05,-1.5216294e-03,3.1814507e-02,-1.4144439e-03,-7.4050763e-04,-2.6087456e-03,-2.1129330e-04,-8.8904093e-02,-1.5884943e-01,-4.4368005e-02
5.5998087e-01,2.9921618e-05,2.7435198e-04,-6.7590092e-05,-7.2424705e-03,-7.8287790e-03,-7.2575456e-03,-8.1970423e-04,-1.7374363e-03,-3.4259837e-04,-7.9196674e-03,8.7131017e-02,-1.3130519e-02
5.6998086e-01,2.1891813e-04,4.9364917e-04,1.8080024e-04,1.8865440e-02,2.1865962e-02,1.9007456e-02,-7.0822778e-04,-4.0688652e-03,9.8861017e-04,1.1147655e-02,-2.3314312e-01,1.3312098e-01
5.7998085e-01,2.6552113e-04,6.3509184e-04,2.5979533e-04,4.6448576e-03,1.4121839e-02,4.7430480e-03,-6.0014296e-04,-5.3633771e-03,1.4918664e-03,1.0808492e-02,-1.2945132e-01,5.0325673e-02
5.8998084e-01,3.1493518e-04,6.8119626e-04,2.6028354e-04,4.9301623e-03,4.5873168e-03,4.9740622e-03,-8.1432756e-04,-5.4726020e-03,1.5148081e-03,-2.1418480e-02,-1.0922494e-02,2.2941663e-03
5.9998083e-01,6.6843712e-05,2.1079775e-04,-1.4047532e-04,-2.4792722e-02,-4.7008304e-02,-2.4885377e-02,-6.5810124e-04,-1.9287084e-03,-5.8519586e-04,1.5622646e-02,3.5438970e-01,-2.1000059e-01
6.0998082e-01,7.5722336e-05,1.9202372e-04,-2.0297606e-04,8.8950288e-04,-1.8783202e-03,8.8427872e-04,-5.0835509e-04,-1.5433512e-03,-7.7224784e-04,1.4974629e-02,3.8535760e-02,-1.8705215e-02
6.1998081e-01,1.4639632e-04,1.5031721e-04,8.0017650e-05,7.0631997e-03,-4.1819168e-03,7.0649536e-03,8.8610341e-05,-1.5047293e-03,5.4257213e-04,5.9696600e-02,3.8621848e-03,1.3148212e-01
6.2998080e-01,1.1624413e-04,1.0015367e-04,7.4607844e-05,-3.0138517e-03,-5.0126545e-03,-3.0227416e-03,9.7707904e-05,-1.1289828e-03,6.1663780e-04,9.0975711e-04,3.7574688e-02,7.4065747e-03
6.3998079e-01,8.3536453e-05,9.1245573e-05,9.7807841e-05,-3.2690008e-03,-8.8656809e-04,-3.2736919e-03,-7.6873151e-05,-1.3729202e-03,5.2012230e-04,-1.7458122e-02,-2.4393759e-02,-9.6515601e-03
6.4998102e-01,6.3106575e-05,3.5894782e-04,-3.2917541e-05,-2.0596732e-03,2.6773539e-02,-1.9734916e-03,-6.1141003e-04,-2.5804509e-03,-1.7883837e-04,-5.3452464e-02,-1.2075031e-01,-6.9894467e-02
6.5998101e-01,2.3599172e-04,6.5604909e-04,1.8271306e-04,1.7254161e-02,2.9627616e-02,1.7463626e-02,-4.9930715e-04,-5.2437995e-03,1.1292016e-03,1.1210299e-02,-2.6633511e-01,1.3080413e-01
6.6998100e-01,2.5061169e-04,7.1391815e-04,2.1590130e-04,1.4571312e-03,5.7796650e-03,1.4951489e-03,-5.1703970e-04,-5.4086205e-03,1.2816576e-03,-1.7732568e-03,-1.6482118e-02,1.5245608e-02
6.7998099e-01,2.4605942e-04,7.3949253e-04,2.8572275e-04,-4.5641676e-04,2.5596853e-03,-4.4120122e-04,-7.3568423e-04,-5.7533598e-03,1.5183181e-03,-2.1864474e-02,-3.4473964e-02,2.3666074e-02
6.8998098e-01,2.5934162e-04,7.1114657e-04,3.1081170e-04,1.3288806e-03,-2.8410537e-03,1.3136892e-03,-8.9092099e-04,-5.7793972e-03,1.4031589e-03,-1.5523691e-02,-2.6037386e-03,-1.1515931e-02
6.9998097e-01,1.0214215e-04,2.9299429e-04,-4.6464241e-05,-1.5689975e-02,-4.1800382e-02,-1.5789358e-02,-7.9858510e-04,-1.7410797e-03,-2.1703006e-04,9.2335971e-03,4.0383214e-01,-1.6201905e-01
7.0998096e-01,8.8833057e-05,-1.1495685e-04,-3.6713925e-05,-1.3340737e-03,-4.0795340e-02,-1.3219796e-03,7.4086172e-05,2.1547005e-04,-1.0568317e-04,8.7267211e-02,1.9565516e-01,1.1134700e-02
7.1998096e-01,1.0055732e-04,1.2986385e-04,1.4986705e-04,1.1667167e-03,2.4479400e-02,1.2328082e-03,-2.0531423e-04,-2.4385987e-03,5.8376210e-04,-2.7940067e-02,-2.6540713e-01,6.8944593e-02
7.2998095e-01,2.4833553e-04,7.0512276e-04,5.8067685e-04,1.4717650e-02,5.7410971e-02,1.5276600e-02,-5.4922331e-04,-8.1828944e-03,1.9326366e-03,-3.4390941e-02,-5.7443011e-01,1.3488758e-01
7.3998094e-01,1.7449508e-04,4.7750262e-05,1.3777472e-04,-7.3843455e-03,-6.5723586e-02,-7.5049581e-03,8.6255345e-05,-1.7576399e-03,7.2783628e-04,6.3547926e-02,6.4252607e-01,-1.2048015e-01
7.4998093e-01,1.4317999e-04,7.8886193e-05,1.9017900e-04,-3.1289888e-03,3.1200947e-03,-3.1275629e-03,4.9567459e-05,-2.0261874e-03,7.5607417e-04,-3.6687921e-03,-2.6854777e-02,2.8237918e-03
7.5998092e-01,2.5719120e-04,5.2137278e-04,2.2047574e-04,1.1370511e-02,4.4195429e-02,1.1635921e-02,-3.5698665e-04,-4.9747929e-03,1.2993107e-03,-4.0655450e-02,-2.9486083e-01,5.4323709e-02
7.6998091e-01,2.5659864e-04,5.5782944e-04,2.4415111e-04,-5.9960751e-05,3.6459159e-03,-4.0370937e-05,-2.1409512e-04,-5.2010235e-03,1.2789336e-03,1.4289167e-02,-2.2623086e-02,-2.0377133e-03
7.7998090e-01,4.1167875e-04,1.0747106e-03,5.4366225e-04,1.5440693e-02,5.1547092e-02,1.6035788e-02,-6.1852683e-04,-9.5414194e-03,2.2775257e-03,-4.0443210e-02,-4.3404000e-01,9.9859301e-02
7.8998089e-01,3.0917925e-04,1.0114136e-03,5.5339785e-04,-1.0221709e-02,-6.2419689e-03,-1.0331651e-02,-9.1528170e-04,-9.4267314e-03,2.1881746e-03,-2.9675515e-02,1.1468809e-02,-8.9351209e-03
7.9998088e-01,6.0396767e-05,3.6641115e-04,4.1774068e-05,-2.4842207e-02,-6.4434805e-02,-2.5083206e-02,-4.8993003e-04,-3.1094660e-03,1.7933184e-04,4.2535207e-02,6.3172715e-01,-2.0088446e-01
8.0998087e-01,8.7269727e-05,3.3236270e-04,-2.9769744e-05,2.6887895e-03,-3.4108580e-03,2.6781696e-03,-2.9159664e-04,-2.5327910e-03,-1.8543131e-04,1.9833358e-02,5.7667551e-02,-3.6476350e-02
8.1998086e-01,4.1222842e-05,-6.7568982e-05,2.9981875e-06,-4.6158693e-03,-3.9991896e-02,-4.6048876e-03,2.7388807e-04,-1.0454838e-05,-4.8408448e-05,5.6548525e-02,2.5223386e-01,1.3702299e-02
8.2998085e-01,7.5421009e-05,3.8351723e-05,9.5731982e-05,3.4200927e-03,1.0586982e-02,3.4352989e-03,1.4180229e-04,-1.3456586e-03,3.5938797e-04,-1.3208590e-02,-1.3352051e-01,4.0779681e-02
8.3998084e-01,1.0097251e-04,1.1402506e-04,1.2447933e-04,2.5531092e-03,7.5619200e-03,2.5731803e-03,-2.5116663e-05,-2.1382938e-03,7.2514772e-04,-1.6691912e-02,-7.9263591e-02,3.6576009e-02
8.4998083e-01,1.2005077e-04,3.2668648e-04,-6.3084693e-05,1.9039553e-03,2.1259654e-02,1.9827635e-03,-1.9129294e-04,-3.5333840e-03,-1.0249178e-04,-1.6617643e-02,-1.3950916e-01,-8.2764029e-02
8.5998082e-01,5.5049731e-05,1.7056741e-04,-5.0494530e-05,-6.4979025e-03,-1.5602340e-02,-6.5252742e-03,-2.5736629e-04,-1.7281818e-03,-2.7853706e-04,-6.6073420e-03,1.8052039e-01,-1.7604545e-02
8.6998081e-01,1.7817981e-04,3.8693237e-04,1.1881100e-04,1.2293527e-02,2.1597894e-02,1.2399995e-02,-4.7115332e-04,-3.5935568e-03,7.5477250e-04,-2.1378723e-02,-1.8653768e-01,1.0333106e-01
8.7998080e-01,2.4364725e-04,6.1907846e-04,2.7987436e-04,6.5216369e-03,2.3182354e-02,6.6847398e-03,-6.9152588e-04,-5.5586765e-03,1.3826886e-03,-2.2037277e-02,-1.9651215e-01,6.2791665e-02
8.8998079e-01,1.2010508e-04,3.4396415e-04,8.5489136e-05,-1.2335559e-02,-2.7482900e-02,-1.2436174e-02,-5.8379425e-04,-2.8850924e-03,2.1095551e-04,1.0773173e-02,2.6735866e-01,-1.1717342e-01
8.9998102e-01,6.0147661e-05,1.6667855e-04,-3.2035947e-05,-5.9869676e-03,-1.7722554e-02,-6.0207404e-03,-5.8498512e-04,-1.5156558e-03,-2.8939052e-04,-1.1908386e-04,1.3694053e-01,-5.0033457e-02
9.0998101e-01,4.7147643e-05,-1.7282672e-04,1.2839005e-05,-1.3095972e-03,-3.3950014e-02,-1.3046070e-03,2.8033449e-04,-1.3788401e-04,-5.8978302e-05,8.6532043e-02,1.3777731e-01,2.3041244e-02
9.1998100e-01,1.1415140e-04,-5.0674932e-05,9.5402094e-05,6.7030792e-03,1.2203588e-02,6.7188018e-03,4.3195487e-04,-1.2974820e-03,3.8480735e-04,1.5162053e-02,-1.1595991e-01,4.4378608e-02
9.2998099e-01,7.9149788e-05,-4.0572116e-05,6.9404076e-05,-3.4983638e-03,1.0151033e-03,-3.5005703e-03,4.0716979e-04,-9.6991913e-04,3.9681717e-04,-2.4785102e-03,3.2756319e-02,1.2009825e-03
9.3998098e-01,1.8933566e-04,2.1573397e-04,2.5217986e-04,1.1012513e-02,2.5590820e-02,1.1116782e-02,1.8773990e-04,-3.4086253e-03,9.8842243e-04,-2.1943010e-02,-2.4387085e-01,5.9160583e-02
9.4998097e-01,1.7625564e-04,4.5323542e-04,1.5159963e-04,-1.3157364e-03,2.3755237e-02,-1.2040570e-03,-3.4612186e-04,-4.3969092e-03,3.7293410e-04,-5.3386227e-02,-9.8828482e-02,-6.1548892e-02
9.5998096e-01,2.6062380e-04,6.1455396e-04,2.1446766e-04,8.4181567e-03,1.6091815e-02,8.5314333e-03,-4.3639107e-04,-5.1513934e-03,1.3771525e-03,-9.0269298e-03,-7.5448495e-02,1.0042194e-01
9.6998096e-01,2.0520188e-04,6.2830930e-04,2.0953120e-04,-5.5350202e-03,1.4025093e-03,-5.5426084e-03,-3.9036413e-04,-5.2534889e-03,1.3907418e-03,4.6026988e-03,-1.0209554e-02,1.3589317e-03
9.7998095e-01,1.9608754e-04,6.4229115e-04,2.0550460e-04,-9.1097344e-04,1.4026440e-03,-9.0502377e-04,-4.9901824e-04,-5.4061322e-03,1.2708882e-03,-1.0865422e-02,-1.5264348e-02,-1.1985379e-02
9.8998094e-01,2.4655013e-04,6.5820214e-04,2.2927183e-04,5.0399442e-03,1.5673198e-03,5.0600016e-03,-6.2050971e-04,-5.3230344e-03,1.0557979e-03,-1.2149159e-02,8.3097829e-03,-2.1509047e-02
9.9998093e-01,1.1816824e-04,3.8262830e-04,9.2769431e-05,-1.2821051e-02,-2.7525386e-02,-1.2923757e-02,-5.5915498e-04,-3.0430068e-03,1.3542092e-04,6.1354789e-03,2.2800299e-01,-9.2037786e-02
1.0099809e+00,1.1727186e-04,2.9165708e-04,2.8169653e-05,-8.6028333e-05,-9.0969205e-03,-1.1175932e-04,-3.9763501e-04,-2.4325160e-03,-8.5805098e-05,1.6152012e-02,6.1049129e-02,-2.2122622e-02
1.0199809e+00,8.3637355e-05,-7.5312768e-05,3.2895863e-05,-3.3706311e-03,-3.6695103e-02,-3.3771572e-03,2.0476988e-04,-3.6421811e-04,1.0027363e-04,6.0240546e-02,2.0682999e-01,1.8607890e-02
1.0299809e+00,5.4023219e-05,-1.6517026e-04,-3.1061960e-05,-2.9642646e-03,-8.9854535e-03,-2.9594899e-03,2.6763787e-04,1.6503565e-04,-1.4970541e-04,6.2868054e-03,5.2925427e-02,-2.4997928e-02
1.0399809e+00,6.2915824e-05,-1.2860900e-04,2.0613175e-06,8.8996656e-04,3.6556990e-03,8.9032724e-04,2.0484754e-04,-2.7957218e-04,4.9201485e-05,-6.2790394e-03,-4.4460826e-02,1.9890709e-02
1.0499809e+00,1.5546536e-04,-8.7249837e-06,1.4941829e-04,9.2535611e-03,1.1968472e-02,9.2821319e-03,3.6045363e-04,-1.7908256e-03,6.1807219e-04,1.5560624e-02,-1.5112548e-01,5.6887125e-02
1.0599809e+00,1.1642503e-04,1.0370750e-04,-1.1147346e-04,-3.9088999e-03,1.1249605e-02,-3.8808206e-03,-2.7907191e-04,-1.9107078e-03,-4.4221238e-04,-6.3952615e-02,-1.1988236e-02,-1.0602856e-01
1.0699809e+00,6.7732357e-05,1.8314486e-04,-1.7729163e-05,-4.8741420e-03,7.9493258e-03,-4.8552702e-03,-5.6509429e-04,-1.7142734e-03,-7.8351329e-05,-2.8602265e-02,1.9643465e-02,3.6386140e-02
1.0799809e+00,6.5705363e-05,3.3337607e-04,4.5755432e-05,-2.1059162e-04,1.5023566e-02,-1.5769708e-04,-5.2733997e-04,-2.9976119e-03,1.4946216e-04,3.7754354e-03,-1.2833398e-01,2.2781370e-02
1.0899808e+00,2.5502206e-04,6.2911888e-04,2.1202661e-04,1.8888572e-02,2.9486415e-02,1.9111005e-02,-5.6695390e-04,-5.1812361e-03,1.3906448e-03,-3.9613965e-03,-2.1836263e-01,1.2411838e-01
1.0999808e+00,2.8621716e-04,6.6920627e-04,2.3324469e-04,3.1133883e-03,3.9930537e-03,3.1456447e-03,-4.7192353e-04,-5.4745385e-03,1.3559169e-03,9.5030454e-03,-2.9330266e-02,-3.4727902e-03
1.1099808e+00,1.5608464e-04,4.9389201e-04,1.8521551e-04,-1.3000655e-02,-1.7476512e-02,-1.3099468e-02,-3.7570996e-04,-4.5804824e-03,4.6261896e-04,9.6213664e-03,8.9405696e-02,-8.9329882e-02
1.1199808e+00,5.3359993e-05,3.2730182e-04,-4.5782132e-08,-1.0267443e-02,-1.6635267e-02,-1.0315932e-02,-3.7486410e-04,-2.6830368e-03,-1.1811378e-04,8.4585846e-05,1.8974475e-01,-5.8073329e-02
1.1299808e+00,5.6075909e-05,3.0067429e-04,-6.7419362e-05,2.7263225e-04,-2.6632976e-03,2.6514996e-04,-3.6752882e-04,-2.3957810e-03,-2.2743209e-04,7.3352928e-04,2.8725600e-02,-1.0931842e-02
1.1399808e+00,6.9528432e-05,2.2160166e-04,-1.4796666e-04,1.3466912e-03,-7.9105092e-03,1.3246219e-03,-8.1307190e-05,-2.5080931e-03,-5.9092888e-04,2.8622190e-02,-1.1231221e-02,-3.6349713e-02
1.1499810e+00,8.0875008e-05,2.3832131e-04,-4.2527914e-06,1.1345701e-03,1.6694673e-03,1.1383098e-03,-1.5025073e-04,-2.3151089e-03,-1.6728255e-04,-6.8941958e-03,1.9297983e-02,4.2363663e-02
1.1599810e+00,1.1435888e-04,2.8775034e-04,3.1020428e-05,3.3466662e-03,4.9346554e-03,3.3622578e-03,-3.2039484e-04,-2.7790797e-03,4.1959807e-05,-1.7014427e-02,-4.6397127e-02,2.0924256e-02
1.1699810e+00,1.3289495e-04,3.1381921e-04,-1.3261925e-05,1.8527123e-03,2.6012898e-03,1.8623502e-03,-3.9451130e-04,-3.4071490e-03,-7.1340250e-05,-7.4116535e-03,-6.2806986e-02,-1.1330017e-02
1.1799810e+00,3.1858755e-04,6.2745835e-04,2.7208896e-04,1.8520987e-02,3.1265643e-02,1.8782060e-02,-6.5581943e-04,-5.9109286e-03,1.4915820e-03,-2.6130838e-02,-2.5037820e-01,1.5629238e-01
1.1899810e+00,2.1893522e-04,3.9023399e-04,1.0587175e-04,-9.9459921e-03,-2.3690288e-02,-1.0060551e-02,-4.4462142e-04,-3.6536751e-03,8.7282777e-04,2.1119821e-02,2.2572557e-01,-6.1875485e-02
1.1999810e+00,2.4284577e-04,3.8400423e-04,1.3122432e-04,2.3890055e-03,-6.3064441e-04,2.3910981e-03,-4.1303018e-04,-3.6179993e-03,9.6514870e-04,3.1591271e-03,3.5675770e-03,9.2321018e-03
1.2099810e+00,1.5059299e-04,3.8286518e-04,1.0718149e-04,-9.2230728e-03,-8.8799199e-05,-9.2277771e-03,-7.0030756e-04,-3.4208133e-03,2.3112968e-04,-2.8727766e-02,1.9718622e-02,-7.3401972e-02
1.2199810e+00,1.4392741e-04,6.6943503e-05,1.8578739e-04,-6.7213679e-04,-3.1590662e-02,-7.3069273e-04,1.9031801e-04,-2.0162467e-03,6.5153332e-04,8.9062642e-02,1.4045679e-01,4.2040404e-02
1.2299809e+00,1.3007250e-04,7.2303498e-07,1.2189423e-04,-1.3865819e-03,-6.6197693e-03,-1.3952810e-03,2.5915351e-04,-1.3838736e-03,4.5185763e-04,6.8835571e-03,6.3237376e-02,-1.9967589e-02
1.2399809e+00,1.1874918e-04,-8.5945187e-06,7.1301924e-05,-1.1322814e-03,-9.2989721e-04,-1.1339122e-03,3.7331330e-04,-1.2673044e-03,3.5282331e-04,1.1415989e-02,1.1656922e-02,-9.9034416e-03
1.2499809e+00,1.0600338e-04,2.0341679e-07,7.7757319e-05,-1.2737487e-03,8.8178984e-04,-1.2740347e-03,3.7585371e-04,-1.1897856e-03,3.9369117e-04,2.5404134e-04,7.7518889e-03,4.0867901e-03
1.2599809e+00,9.5633876e-05,2.5802683e-04,-4.9464662e-06,-1.0442207e-03,2.5784589e-02,-9.7236605e-04,-2.8230128e-04,-2.5052636e-03,8.5429007e-06,-6.5815562e-02,-1.3154793e-01,-3.8514863e-02
1.2699809e+00,4.6389322e-04,8.5612022e-04,4.1645964e-04,3.6708763e-02,5.9559786e-02,3.7343897e-02,-7.0271389e-04,-7.4206761e-03,2.0391054e-03,-4.2041300e-02,-4.9154171e-01,2.0305644e-01
1.2799809e+00,3.3254707e-04,7.4506496e-04,3.6768917e-04,-1.3106173e-02,-1.1022122e-02,-1.3232946e-02,-4.8793323e-04,-6.8070846e-03,1.7521769e-03,2.1478086e-02,6.1359207e-02,-2.8692876e-02
1.2899809e+00,1.9700069e-04,6.1909540e-04,2.1954779e-04,-1.3532268e-02,-1.2530882e-02,-1.3638016e-02,-4.2858178e-04,-5.2844796e-03,1.2521662e-03,5.9351502e-03,1.5226065e-01,-5.0001118e-02
1.2999809e+00,1.7398199e-04,6.0601365e-04,1.9564134e-04,-2.2984602e-03,-1.2970231e-03,-2.3115712e-03,-3.6432396e-04,-5.1951995e-03,1.2740556e-03,6.4257888e-03,8.9280151e-03,2.1889385e-03
1.3099809e+00,2.2806016e-04,6.1002676e-04,2.0019553e-04,5.4010652e-03,3.7536412e-04,5.4164317e-03,-4.3491800e-04,-5.2255234e-03,1.2164087e-03,-7.0594107e-03,-3.0323943e-03,-5.7646964e-03
1.3199809e+00,1.3824651e-04,3.0623833e-04,-2.3660924e-05,-8.9734125e-03,-3.0352628e-02,-9.0775443e-03,-3.3005187e-04,-3.2349029e-03,-2.3007265e-04,1.0486623e-02,1.9906224e-01,-1.4464827e-01
1.3299809e+00,1.6133352e-04,8.8558292e-05,1.8923629e-04,2.3038849e-03,-2.1773343e-02,2.2629064e-03,1.6296261e-04,-2.1618252e-03,5.5028754e-04,4.9301495e-02,1.0730788e-01,7.8036094e-02
1.3399808e+00,1.3971810e-04,3.4470708e-05,1.3794849e-04,-2.1619769e-03,-5.4046033e-03,-2.1714948e-03,2.7739760e-04,-1.6430068e-03,4.9380889e-04,1.1443510e-02,5.1881890e-02,-5.6478706e-03
1.3499808e+00,1.1375791e-04,3.9607638e-05,7.4618006e-05,-2.5946973e-03,5.1820796e-04,-2.5964493e-03,2.6117785e-04,-1.4773493e-03,4.5850439e-04,-1.6219766e-03,1.6565758e-02,-3.5304531e-03
1.3599808e+00,1.1027562e-04,2.3318478e-05,5.0518993e-05,-3.4834036e-04,-1.6283525e-03,-3.5075114e-04,1.4773900e-04,-1.4693068e-03,3.7103572e-04,-1.1343895e-02,8.0425771e-04,-8.7468756e-03
1.3699808e+00,1.0084229e-04,-1.1298826e-04,2.5483419e-05,-9.4518789e-04,-1.3630028e-02,-9.5095541e-04,1.5089899e-04,-5.4419299e-04,2.1541220e-04,3.1599916e-04,9.2511465e-02,-1.5562367e-02
1.3799808e+00,1.3841417e-04,1.8361484e-04,1.8214569e-05,3.7450513e-03,2.9653481e-02,3.8228599e-03,-3.9918051e-04,-2.2041209e-03,7.9892420e-05,-5.5008003e-02,-1.6599295e-01,-1.3551991e-02
1.3899808e+00,3.0843566e-04,5.3036342e-04,2.4379700e-04,1.6966412e-02,3.4593040e-02,1.7203425e-02,-3.7898203e-04,-5.1590150e-03,1.3290602e-03,2.0198505e-03,-2.9548969e-01,1.2491690e-01
1.3999810e+00,2.4862050e-04,5.5957274e-04,2.2176698e-04,-5.9748050e-03,2.9474733e-03,-5.9748944e-03,-5.2031301e-04,-4.9682996e-03,1.3522392e-03,-1.4132775e-02,1.9071101e-02,2.3178513e-03
1.4099810e+00,5.7990257e-05,3.8181850e-04,7.5873954e-05,-1.9045893e-02,-1.7727552e-02,-1.9124678e-02,-6.3367358e-04,-3.1400005e-03,3.0850924e-04,-1.1336068e-02,1.8283008e-01,-1.0437310e-01
1.4199810e+00,5.4591957e-05,3.3263059e-04,2.2735131e-05,-3.3754505e-04,-4.9179550e-03,-3.5398210e-04,-4.6118373e-04,-2.8739028e-03,4.9264087e-05,1.7249001e-02,2.6609798e-02,-2.5924540e-02
1.4299810e+00,9.3102406e-05,2.9247995e-04,2.1869443e-05,3.8521145e-03,-4.0244426e-03,3.8401819e-03,-2.4348458e-04,-2.6815792e-03,-2.2988470e-05,2.1769936e-02,1.9232377e-02,-7.2252626e-03
1.4399810e+00,1.2399205e-04,2.5314869e-04,-8.3684947e-05,3.0903571e-03,-3.9418420e-03,3.0764452e-03,3.1389306e-06,-2.8237980e-03,-4.5413921e-04,2.4662375e-02,-1.4221892e-02,-4.3115115e-02
1.4499810e+00,6.6073722e-05,2.3223643e-04,-2.6032187e-05,-5.7922947e-03,-2.0783379e-03,-5.7960195e-03,-1.2576218e-04,-2.3505977e-03,-1.2427846e-04,-1.2890123e-02,4.7320079e-02,3.2986106e-02
1.4599810e+00,5.5610366e-05,2.7016597e-04,-3.5443821e-05,-1.0474219e-03,3.7951932e-03,-1.0371021e-03,-2.7094167e-04,-2.4187684e-03,-5.5165019e-05,-1.4517963e-02,-6.8170769e-03,6.9113506e-03
1.4699810e+00,6.2185982e-05,3.0424673e-04,2.6731319e-07,6.5627833e-04,3.4065753e-03,6.6657918e-04,-3.9748113e-04,-2.6669802e-03,-1.0769021e-04,-1.2653958e-02,-2.4821211e-02,-5.2525243e-03
1.4799809e+00,7.1973713e-05,2.4174133e-04,-2.5957874e-05,9.8190911e-04,-6.2519605e-03,9.6652366e-04,-4.8408395e-04,-1.9421832e-03,-1.1178011e-04,-8.6602897e-03,7.2479772e-02,-4.0898996e-04
1.4899809e+00,9.3649958e-05,2.5219099e-04,-6.2924460e-06,2.1671949e-03,1.0414300e-03,2.1697589e-03,-5.1316613e-04,-2.1434902e-03,-4.8403548e-05,-2.9082217e-03,-2.0130720e-02,6.3376620e-03
1.4999809e+00,2.4554564e-04,4.5834962e-04,1.5423398e-04,1.5161545e-02,2.0556980e-02,1.5297045e-02,-5.1069463e-04,-4.3703576e-03,1.1519441e-03,2.4715059e-04,-2.2268695e-01,1.2003488e-01
1.5099809e+00,1.3479139e-04,3.4845753e-04,6.6457863e-05,-1.1065622e-02,-1.0959374e-02,-1.1114750e-02,-6.2228673e-04,-3.3105438e-03,2.6844969e-04,-1.1159220e-02,1.0598149e-01,-8.8349523e-02
1.5199809e+00,5.9512852e-05,1.9505958e-04,-3.0751540e-05,-7.5190347e-03,-1.5331159e-02,-7.5542569e-03,-6.2342553e-04,-1.7691145e-03,-9.8156287e-05,-1.1388019e-04,1.5414307e-01,-3.6660633e-02
1.5299809e+00,4.4980978e-05,1.1687493e-04,-7.6329460e-05,-1.4508570e-03,-7.8171799e-03,-1.4624425e-03,-3.8255683e-04,-1.2678207e-03,-4.5380149e-04,2.4086893e-02,5.0129429e-02,-3.5564554e-02
1.5399809e+00,9.9542020e-05,-1.1796875e-04,6.0460138e-05,5.4479032e-03,-2.3487751e-02,5.4498380e-03,3.1854844e-04,-2.9783821e-04,1.3286819e-04,7.0110595e-02,9.6998342e-02,5.8667024e-02
1.5499809e+00,9.2416189e-05,-1.3007656e-04,3.3569018e-05,-7.1289260e-04,-1.2103727e-03,-7.1297097e-04,2.6661410e-04,-3.0836018e-04,1.9567105e-05,-5.1934394e-03,-1.0521985e-03,-1.1330119e-02
1.5599809e+00,8.2020437e-05,-3.2471737e-05,1.0196214e-04,-1.0354402e-03,9.7624070e-03,-1.0256267e-03,3.9332111e-04,-1.4593064e-03,2.8553464e-04,1.2670713e-02,-1.1509473e-01,2.6596779e-02
1.5699809e+00,5.3215354e-05,1.8046052e-04,-1.1362733e-04,-2.8814383e-03,2.1300843e-02,-2.8228319e-03,2.4411121e-05,-2.6403460e-03,-5.0246310e-04,-3.6891034e-02,-1.1810407e-01,-7.8799849e-02
1.5799809e+00,8.5074738e-05,2.7213354e-04,2.0562127e-05,3.1839563e-03,9.1599753e-03,3.2089432e-03,-2.1158316e-04,-2.5050611e-03,1.4263113e-05,-2.3599451e-02,1.3528503e-02,5.1672670e-02
1.5899808e+00,1.9409543e-04,5.6176004e-04,2.4705102e-04,1.0878713e-02,2.8912678e-02,1.1057036e-02,-5.4863327e-04,-5.0965706e-03,6.8537406e-04,-3.3705043e-02,-2.5915120e-01,6.7111158e-02
1.5999808e+00,1.1586205e-04,4.4149995e-04,1.1486401e-04,-7.8127199e-03,-1.2003301e-02,-7.8687242e-03,-5.9965940e-04,-3.4926215e-03,4.3610483e-04,-5.1026180e-03,1.6039507e-01,-2.4926946e-02
1.6099808e+00,2.2328779e-04,5.9416409e-04,1.9170080e-04,1.0720280e-02,1.5216029e-02,1.0835966e-02,-4.6048708e-04,-5.1260146e-03,1.4207611e-03,1.3917245e-02,-1.6333946e-01,9.8465721e-02
1.6199808e+00,1.9719913e-04,5.9163136e-04,1.4817253e-04,-2.6055212e-03,-2.4095054e-04,-2.6133776e-03,-4.3901903e-04,-5.1550212e-03,1.2396721e-03,2.1468072e-03,-2.9006647e-03,-1.8108922e-02
1.6299808e+00,2.2975431e-04,5.4450012e-04,1.8252883e-04,3.2533857e-03,-4.7285548e-03,3.2352226e-03,-3.1429959e-04,-5.0658235e-03,1.1102393e-03,1.2471956e-02,8.9197807e-03,-1.2943286e-02
1.6399808e+00,4.0514569e-05,1.5906340e-04,-2.5478007e-05,-1.8917522e-02,-3.8518437e-02,-1.8981827e-02,-2.8973312e-04,-1.6227888e-03,-2.4833432e-04,2.4566495e-03,3.4430379e-01,-1.3585749e-01
1.6499810e+00,1.2936894e-04,7.7118175e-05,2.0624996e-04,8.8784923e-03,-8.2147920e-03,8.8730743e-03,2.6762781e-04,-2.0356042e-03,5.1171579e-04,5.5734817e-02,-4.1280592e-02,7.6003271e-02
1.6598465e+00,1.3684291e-04,3.1551648e-05,1.1932562e-04,7.5578185e-04,-4.6201764e-03,7.5074747e-04,3.2454077e-04,-1.5457984e-03,4.0139028e-04,5.7688745e-03,4.9648241e-02,-1.1182936e-02
1.6698465e+00,5.0972029e-05,-1.5929520e-04,-2.6782743e-05,-8.5940842e-03,-1.9083339e-02,-8.5831352e-03,3.3811850e-04,1.7948686e-04,-6.2371138e-05,1.3577737e-03,1.7252869e-01,-4.6376186e-02
1.6798465e+00,3.7165239e-05,-1.8721125e-04,-2.0959676e-05,-1.3819683e-03,-2.7913054e-03,-1.3800029e-03,3.8872946e-04,1.6991305e-04,-1.4698271e-04,5.0611008e-03,-9.5738191e-04,-8.4611653e-03
1.6898465e+00,3.5929497e-05,4.9084003e-05,-1.6890513e-04,-1.2815289e-04,2.3629670e-02,-9.1344029e-05,-1.8959996e-04,-1.3596602e-03,-7.9673350e-04,-5.7832997e-02,-1.5295747e-01,-6.4975141e-02
1.6998465e+00,6.8410352e-05,1.7275694e-04,9.1542603e-06,3.2422464e-03,1.2362521e-02,3.2720494e-03,-4.9084715e-04,-1.9561339e-03,-7.0396936e-05,-3.0124748e-02,-5.9647430e-02,7.2633726e-02
1.7098465e+00,1.4584129e-04,3.7870877e-04,1.3475096e-04,7.7256627e-03,2.0572467e-02,7.8205731e-03,-7.0070723e-04,-3.6176127e-03,3.8800302e-04,-2.0986028e-02,-1.6614804e-01,4.5840039e-02
1.7198465e+00,2.1792837e-04,4.5399558e-04,1.6043749e-04,7.1961889e-03,7.5029728e-03,7.2479355e-03,-5.3591476e-04,-4.0894116e-03,1.1772094e-03,1.6479263e-02,-4.7179935e-02,7.8920710e-02
1.7298465e+00,1.9173435e-04,4.2163844e-04,1.1136011e-04,-2.6153203e-03,-3.2268188e-03,-2.6344207e-03,-4.3151935e-04,-3.8154059e-03,1.0258965e-03,1.0439551e-02,2.7400600e-02,-1.5131297e-02
1.7398465e+00,6.4750555e-05,2.5819657e-04,2.5257674e-05,-1.2695338e-02,-1.6311910e-02,-1.2742888e-02,-1.7848218e-04,-2.7166852e-03,1.0661312e-05,2.5303742e-02,1.0987217e-01,-1.0152362e-01
1.7498465e+00,6.1374511e-05,2.8452319e-04,1.5723894e-05,-3.3826174e-04,2.6335433e-03,-3.3000760e-04,-2.6330078e-04,-2.8990213e-03,1.0701368e-04,-8.4818688e-03,-1.8233618e-02,9.6352455e-03
1.7598464e+00,7.8294593e-05,2.8226228e-05,1.0161251e-04,1.6804173e-03,-2.5632930e-02,1.6545404e-03,4.2620699e-04,-1.4877527e-03,3.9516567e-04,6.8950843e-02,1.4112699e-01,2.8815227e-02
1.7698464e+00,1.0535599e-04,4.0957029e-05,1.0270032e-04,2.7058571e-03,1.2685933e-03,2.7085348e-03,3.5255163e-04,-1.3051259e-03,2.7126819e-04,-7.3655435e-03,1.8262696e-02,-1.2389760e-02
1.7798464e+00,1.3984215e-04,4.2884599e-04,1.1355189e-04,3.4327559e-03,3.8776140e-02,3.6047806e-03,-4.0612124e-04,-4.0237051e-03,3.1815149e-05,-7.5867359e-02,-2.7185818e-01,-2.3945327e-02
1.7898464e+00,4.3587208e-05,2.9626367e-04,5.6606371e-06,-9.6235129e-03,-1.3236729e-02,-9.6570546e-03,-2.6946255e-04,-2.5008540e-03,-1.6441230e-04,1.3665882e-02,1.5228526e-01,-1.9622763e-02
1.7998464e+00,2.4542799e-04,6.1552445e-04,2.2776949e-04,2.0142784e-02,3.1825594e-02,2.0383125e-02,-4.2887188e-04,-5.3783805e-03,1.3674360e-03,-1.5940949e-02,-2.8775293e-01,1.5318498e-01
1.8098464e+00,2.7846072e-04,5.5884600e-04,2.3009275e-04,3.3012804e-03,-5.6840198e-03,3.2773845e-03,-4.2133893e-04,-5.3338965e-03,1.3259482e-03,7.5329541e-04,4.4484117e-03,-4.1487874e-03
1.8198464e+00,2.4722422e-04,4.2233493e-04,1.5336268e-04,-3.1149975e-03,-1.3639272e-02,-3.1834795e-03,-4.0963271e-04,-4.1603604e-03,9.8019292e-04,1.1706237e-03,1.1735372e-01,-3.4575560e-02
1.8298464e+00,7.5040885e-05,1.8072683e-04,-4.6249698e-05,-1.7210208e-02,-2.4137944e-02,-1.7258546e-02,-4.5259631e-04,-1.7799072e-03,-1.6236323e-04,-4.2963639e-03,2.3804554e-01,-1.1425572e-01
1.8398464e+00,1.4684205e-04,3.2669622e-04,3.6696638e-05,7.1699905e-03,1.4579606e-02,7.2253527e-03,-6.0063634e-04,-3.0066284e-03,1.8990159e-04,-1.4804018e-02,-1.2267224e-01,3.5226516e-02
1.8498464e+00,1.0274828e-04,-9.2374870e-05,2.5523607e-05,-4.4120499e-03,-4.1905533e-02,-4.4220592e-03,8.2578445e-05,-2.8363862e-04,1.7951581e-04,6.8321544e-02,2.7229924e-01,-1.0385793e-03
1.8598464e+00,8.7221355e-05,-1.1068330e-04,4.6810627e-05,-1.5527640e-03,-1.8300137e-03,-1.5536025e-03,1.7298084e-04,-3.6182340e-04,1.5873072e-04,9.0402481e-03,-7.8184851e-03,-2.0785110e-03
1.8698463e+00,1.4306171e-04,1.4781790e-05,1.3779726e-04,5.5851191e-03,1.2534759e-02,5.6093177e-03,3.0688774e-04,-1.7946805e-03,4.9622416e-04,1.3390703e-02,-1.4328585e-01,3.3749377e-02
1.8798463e+00,1.1814430e-04,1.8627536e-04,-1.2072639e-04,-2.4938698e-03,1.7155444e-02,-2.4474334e-03,-4.2052183e-05,-2.5012939e-03,-5.6421694e-04,-3.4894026e-02,-7.0661408e-02,-1.0604421e-01
1.8898463e+00,4.8376930e-05,1.1811541e-04,-1.4973407e-04,-6.9806883e-03,-6.8062085e-03,-6.9823567e-03,-2.3281512e-04,-1.6365121e-03,-7.9318638e-04,-1.9076312e-02,8.6478272e-02,-2.2896966e-02
1.8998466e+00,2.1261382e-05,1.7155204e-04,-2.9265526e-05,-2.7141590e-03,5.3469262e-03,-2.7021353e-03,-3.4609629e-04,-1.5977597e-03,-3.0136090e-04,-1.1327858e-02,3.8751446e-03,4.9181423e-02
1.9098465e+00,4.4298775e-04,9.0504436e-04,3.6932143e-04,4.2046715e-02,7.3040368e-02,4.2829520e-02,-5.4430956e-04,-7.8007756e-03,2.0378894e-03,-1.9821346e-02,-6.2030217e-01,2.3392526e-01
1.9198465e+00,2.4743590e-04,6.4754133e-04,2.4774109e-04,-1.9512668e-02,-2.5652201e-02,-1.9725913e-02,-4.7961868e-04,-5.4692826e-03,1.5422496e-03,6.4690944e-03,2.3314952e-01,-4.9564030e-02
1.9298465e+00,2.6925486e-04,6.0124428e-04,2.0693786e-04,2.1811664e-03,-4.6397462e-03,2.1612138e-03,-4.7019142e-04,-5.0908532e-03,1.3321677e-03,9.4272657e-04,3.7842978e-02,-2.1008210e-02
1.9398465e+00,7.5502698e-05,3.0361742e-04,1.0311612e-05,-1.9361366e-02,-2.9717914e-02,-1.9457690e-02,-4.2543778e-04,-2.7316257e-03,6.2209839e-05,4.4753687e-03,2.3592297e-01,-1.2699591e-01
1.9498465e+00,9.5849727e-05,2.8554356e-04,-1.3044068e-04,2.0361544e-03,-1.8124521e-03,2.0287410e-03,-3.3909263e-04,-2.8329394e-03,-4.1134779e-04,8.6345237e-03,-1.0131382e-02,-4.7355808e-02
1.9598465e+00,1.4744371e-04,6.7632796e-05,9.3774827e-05,5.1523379e-03,-2.1800694e-02,5.1258129e-03,1.9739764e-04,-1.6677526e-03,5.3560123e-04,5.3649078e-02,1.1651879e-01,9.4694992e-02
1.9698465e+00,8.0453312e-05,1.2474434e-04,-1.7737798e-04,-6.7055390e-03,5.7185743e-03,-6.6862138e-03,-3.2440459e-04,-1.4330904e-03,-6.9287421e-04,-5.2180273e-02,2.3466242e-02,-1.2284766e-01
1.9798465e+00,7.6609493e-05,1.8891071e-04,-5.4619932e-05,-3.8671512e-04,6.4172024e-03,-3.7252065e-04,-3.4920801e-04,-1.8340661e-03,-2.3969106e-04,-2.4803440e-03,-4.0097609e-02,4.5318358e-02
1.9898465e+00,5.0136929e-05,1.4779391e-04,-8.8418467e-05,-2.6472628e-03,-4.1086704e-03,-2.6519298e-03,-2.8713981e-04,-1.4244858e-03,-4.4758260e-04,6.2068256e-03,4.0958075e-02,-2.0789174e-02
1.9998465e+00,3.2941364e-05,1.5793642e-04,-4.9623402e-05,-1.7205607e-03,1.0165987e-03,-1.7171678e-03,-3.4533480e-04,-1.7116310e-03,-3.7947902e-04,-5.8195049e-03,-2.8714555e-02,6.8103644e-03
2.0098464e+00,4.0108951e-05,1.8312371e-04,-3.1221509e-05,7.1603453e-04,2.5176968e-03,7.2110661e-04,-3.8444468e-04,-1.8228322e-03,-3.3982796e-04,-3.9109914e-03,-1.1120128e-02,3.9651101e-03
2.0198464e+00,9.9853680e-05,2.2776543e-04,5.5593188e-06,5.9732422e-03,4.4549104e-03,5.9826255e-03,-4.8321597e-04,-2.0327659e-03,-1.5423738e-04,-9.8771383e-03,-2.0993386e-02,1.8559076e-02
2.0298464e+00,9.0769794e-05,2.2205014e-04,-5.2815679e-06,-9.0823305e-04,-5.7029087e-04,-9.0932355e-04,-5.4310436e-04,-1.9054197e-03,-1.6973981e-04,-5.9888443e-03,1.2734629e-02,-1.5502444e-03
2.0398464e+00,1.1870667e-04,9.3164168e-05,1.7945435e-04,2.7906817e-03,-1.2895088e-02,2.7666724e-03,9.3399538e-05,-2.2355814e-03,6.4586859e-04,6.3650450e-02,-3.3016200e-02,8.1560917e-02
2.0498464e+00,8.9767631e-05,-1.5359822e-05,6.8791613e-05,-2.8950010e-03,-1.0847999e-02,-2.9093060e-03,2.4739472e-04,-1.2726401e-03,5.4949241e-04,1.5399533e-02,9.6294217e-02,-9.6376273e-03
2.0598464e+00,1.3567219e-04,1.4838761e-05,8.1736656e-05,4.5882421e-03,3.0113856e-03,4.5982383e-03,2.9913029e-04,-1.5453337e-03,6.7963037e-04,5.1735610e-03,-2.7269379e-02,1.3013809e-02
2.0698464e+00,1.5637290e-04,1.1710414e-05,1.0312451e-04,2.0687967e-03,-3.1710482e-04,2.0707002e-03,3.9634368e-04,-1.6655875e-03,5.5667561e-04,9.7213490e-03,-1.2025392e-02,-1.2295488e-02
2.0798464e+00,2.0301713e-04,4.6403885e-04,1.7733367e-04,4.6436932e-03,4.5211815e-02,4.8842282e-03,-4.0495547e-04,-4.8071516e-03,5.1787493e-04,-8.0129992e-02,-3.1415671e-01,-3.8800713e-03
2.0898464e+00,2.6186584e-04,5.9034047e-04,2.1279033e-04,5.8725765e-03,1.2601906e-02,5.9573190e-03,-3.6961867e-04,-5.1379696e-03,1.2959697e-03,3.5336837e-03,-3.3081833e-02,7.7809548e-02
2.0998464e+00,2.2179129e-04,5.9656110e-04,2.2295845e-04,-4.0022889e-03,6.4157080e-04,-4.0095502e-03,-2.7900339e-04,-5.1419576e-03,1.3325709e-03,9.0615372e-03,-3.9879929e-04,3.6601314e-03
2.1098464e+00,1.9110917e-04,5.7867781e-04,2.1019766e-04,-3.0646383e-03,-1.7741000e-03,-3.0800277e-03,-3.1577342e-04,-4.9416611e-03,9.8111778e-04,-3.6770068e-03,2.0029670e-02,-3.5145350e-02
2.1198463e+00,-3.8235037e-06,2.1266464e-04,-7.7201295e-06,-1.9488685e-02,-3.6572049e-02,-1.9552795e-02,-3.1941141e-04,-1.8201473e-03,-3.6385321e-04,-3.6379979e-04,3.1215168e-01,-1.3449723e-01
2.1298463e+00,7.2926757e-05,2.9279629e-04,4.3711092e-05,7.6734566e-03,7.9950479e-03,7.6954847e-03,-3.4070380e-04,-2.6987721e-03,-1.5033258e-04,-2.1292407e-03,-8.7862568e-02,2.1352083e-02
2.1398463e+00,1.3168888e-04,2.6078314e-04,-7.1793353e-05,5.8793676e-03,-3.2177381e-03,5.8640857e-03,-1.8018701e-04,-2.9782616e-03,-4.3800798e-04,1.6051694e-02,-2.7948978e-02,-2.8767568e-02
2.1498466e+00,6.4823449e-05,-1.2036999e-04,8.0820011e-06,-6.6972188e-03,-3.8111167e-02,-6.6942040e-03,2.8227610e-04,-2.0688610e-04,-1.0538507e-05,4.6245253e-02,2.7713121e-01,4.2745969e-02
2.1598465e+00,2.6552798e-05,-1.7689235e-04,-4.8927902e-05,-3.8291032e-03,-5.6526637e-03,-3.8244085e-03,2.1910895e-04,3.2972925e-04,-2.0805111e-04,-6.3167215e-03,5.3661586e-02,-1.9751279e-02
2.1698465e+00,8.9791501e-05,-8.9856029e-05,1.1465130e-05,6.3233313e-03,8.6997433e-03,6.3297803e-03,1.7906497e-04,-4.3682588e-04,3.3254632e-04,-4.0044014e-03,-7.6655586e-02,5.4059795e-02
2.1798465e+00,1.8025484e-04,5.3529686e-05,1.9031684e-04,9.0402079e-03,1.4317149e-02,9.0863381e-03,1.2501573e-04,-2.2385925e-03,8.7594219e-04,-5.4049291e-03,-1.8017684e-01,5.4339639e-02
2.1898465e+00,1.2546980e-04,9.4243792e-05,-8.0446971e-05,-5.4813791e-03,4.0809431e-03,-5.4685410e-03,-2.9824694e-04,-2.0397240e-03,-3.0218542e-04,-4.2326307e-02,1.9886873e-02,-1.1781287e-01
2.1998465e+00,5.5234343e-05,7.7936759e-05,-2.0868880e-05,-7.0242771e-03,-1.6228488e-03,-7.0246467e-03,-2.9777403e-04,-1.4162898e-03,-1.7240866e-04,4.7291294e-05,6.2343474e-02,1.2977689e-02
2.2098465e+00,6.9618644e-05,3.0794770e-04,4.2029669e-05,1.4301392e-03,2.2997246e-02,1.5069370e-03,-3.5429075e-04,-2.9723916e-03,9.9446128e-05,-5.6516778e-03,-1.5561033e-01,2.7185504e-02
2.2198465e+00,1.5058922e-05,3.1660932e-04,1.6361764e-05,-5.4565982e-03,8.7872166e-04,-5.4533476e-03,-3.5826637e-04,-2.6607982e-03,-5.6982486e-05,-3.9756240e-04,3.1159366e-02,-1.5642876e-02
2.2298465e+00,4.6493367e-05,3.3015942e-04,4.9778631e-05,3.1431782e-03,1.3474466e-03,3.1469665e-03,-3.6805426e-04,-2.7731303e-03,-7.3075242e-05,-9.7878961e-04,-1.1233213e-02,-1.6092771e-03
2.2398465e+00,1.4247111e-04,4.7463602e-04,1.8059328e-04,9.5907141e-03,1.4408236e-02,9.6639069e-03,-3.6343298e-04,-4.4565506e-03,1.8939996e-04,4.6212779e-04,-1.6834219e-01,2.6247545e-02
2.2498465e+00,1.0327896e-04,3.2971630e-04,1.6514335e-05,-3.9160756e-03,-1.4481729e-02,-3.9600618e-03,-2.1061716e-04,-2.8129336e-03,2.3239225e-05,1.5281597e-02,1.6436185e-01,-1.6616089e-02
2.2598464e+00,8.0887283e-05,2.4407160e-04,-5.7350353e-05,-2.2380619e-03,-8.5596662e-03,-2.2585909e-03,-1.6131039e-04,-2.3002053e-03,-1.2230300e-04,4.9306821e-03,5.1272884e-02,-1.4554237e-02
2.2698464e+00,6.9041467e-05,2.1385775e-04,-2.6981481e-05,-1.1842223e-03,-3.0185942e-03,-1.1920428e-03,-1.3951175e-04,-2.4903910e-03,-5.1588170e-05,2.1798654e-03,-1.9018595e-02,7.0714902e-03
2.2798464e+00,1.2583111e-04,3.3344956e-04,8.7374185e-05,5.6723510e-03,1.1940365e-02,5.7250165e-03,-3.4697249e-04,-3.6466150e-03,4.3472392e-04,-2.0746094e-02,-1.1562250e-01,4.8631256e-02
2.2898464e+00,1.9306001e-04,2.9148484e-04,1.1974201e-04,6.7183843e-03,-4.2162114e-03,6.7150532e-03,-2.0696227e-04,-3.1430470e-03,7.9989012e-04,1.4001036e-02,5.0356846e-02,3.6516654e-02
2.2998464e+00,3.7553391e-04,5.9513598e-04,3.4693971e-04,1.8191808e-02,3.0274984e-02,1.8451592e-02,-4.7493693e-04,-5.3795623e-03,2.2540579e-03,-2.6797492e-02,-2.2365174e-01,1.4541691e-01
2.3098464e+00,-3.8645327e-05,2.6821845e-04,1.5505850e-04,-4.1373308e-02,-3.2575535e-02,-4.1553967e-02,-3.2491595e-04,-3.1252060e-03,8.2132773e-04,1.5002113e-02,2.2543584e-01,-1.4327315e-01
2.3198464e+00,-3.2462551e-04,2.4995702e-04,2.4390026e-05,-2.8598128e-02,-1.7363423e-03,-2.8603556e-02,-2.7631910e-04,-3.4161975e-03,-2.0561983e-05,4.8596896e-03,-2.9099179e-02,-8.4189052e-02
2.3298464e+00,-6.3746036e-04,2.2793687e-04,2.1226505e-05,-3.1292592e-02,-2.0960686e-03,-3.1281715e-02,-1.3438644e-04,-3.5217039e-03,-2.9966607e-04,1.4193279e-02,-1.0550651e-02,-2.7910435e-02
2.3398464e+00,-9.3060275e-04,6.1844387e-05,-3.1098664e-05,-2.9339429e-02,-1.6512749e-02,-2.9343606e-02,3.3068602e-04,-2.9612204e-03,-6.7125551e-04,4.6507291e-02,5.6048403e-02,-3.7158980e-02
2.3498464e+00,-1.1501305e-03,7.9717626e-06,-3.1238951e-05,-2.1969690e-02,-5.3221001e-03,-2.1951787e-02,2.8940041e-04,-2.6801142e-03,-6.9892104e-04,-4.1285648e-03,2.8110645e-02,-2.7665553e-03
2.3598464e+00,-1.3117006e-03,-4.8110260e-05,-5.7488119e-05,-1.6172122e-02,-5.5575057e-03,-1.6159454e-02,5.3845879e-04,-2.6003401e-03,-7.4750637e-04,2.4905861e-02,7.9774212e-03,-4.8585378e-03
2.3698463e+00,-1.4166389e-03,-3.3689909e-04,1.4398172e-04,-1.0532149e-02,-2.8846385e-02,-1.0544794e-02,1.4436407e-03,-1.6487308e-03,3.2103731e-04,9.0518281e-02,9.5161021e-02,1.0685447e-01
2.3798463e+00,-1.5348911e-03,-1.8557312e-04,2.1910828e-05,-1.1809863e-02,1.5167484e-02,-1.1795867e-02,8.7455677e-04,-2.0772893e-03,1.7969189e-04,-5.6908450e-02,-4.2855892e-02,-1.4134556e-02
2.3898463e+00,-1.6936756e-03,-1.6304205e-04,1.0306618e-04,-1.5862608e-02,2.3127134e-03,-1.5885750e-02,9.4138950e-04,-2.8106412e-03,8.6446800e-04,6.6832801e-03,-7.3335262e-02,6.8477677e-02
2.3998466e+00,-1.9984587e-03,5.0803561e-05,2.1763645e-04,-3.0435457e-02,2.1541718e-02,-3.0408640e-02,6.9238389e-04,-4.4833770e-03,8.9666293e-04,-2.4899991e-02,-1.6726975e-01,3.2194191e-03
2.4098465e+00,-2.5469426e-03,-1.1125211e-04,1.9892154e-04,-5.4851328e-02,-1.5911564e-02,-5.4931573e-02,9.6697336e-04,-4.3896068e-03,2.3256252e-04,2.7458973e-02,9.3770281e-03,-6.6410105e-02
2.4198465e+00,-2.8804563e-03,-1.0111736e-04,9.8731513e-05,-3.3351114e-02,1.2136063e-03,-3.3345008e-02,1.0989163e-03,-4.9023021e-03,-2.5351498e-05,1.3194302e-02,-5.1269576e-02,-2.5791426e-02
2.4298465e+00,-3.1939823e-03,-2.3648254e-04,1.6128983e-04,-3.1376942e-02,-1.3360588e-02,-3.1403748e-02,1.3875227e-03,-4.2206999e-03,-1.7717272e-04,2.8860673e-02,6.8160277e-02,-1.5182137e-02
2.4398465e+00,-3.4059359e-03,-7.2109886e-04,1.9399630e-04,-2.1303448e-02,-4.8403519e-02,-2.1219905e-02,2.0793015e-03,-6.5950530e-04,-3.4712356e-04,6.9177950e-02,3.5611980e-01,-1.6995100e-02
2.4498465e+00,-3.4467009e-03,-8.5096196e-04,2.7766526e-04,-4.1070920e-03,-1.2975805e-02,-4.0792983e-03,2.3293719e-03,-2.4189124e-04,-8.4775414e-05,2.5007061e-02,4.1761445e-02,2.6234840e-02
2.4598465e+00,-3.5635550e-03,-1.1063389e-03,2.2999333e-04,-1.1748259e-02,-2.5526418e-02,-1.1647034e-02,2.5855280e-03,1.6283355e-03,2.6941691e-04,2.5615629e-02,1.8702285e-01,3.5419266e-02
2.4698465e+00,-3.8533784e-03,-1.1797412e-03,2.2814017e-04,-2.8981042e-02,-7.3047954e-03,-2.8992657e-02,2.7785231e-03,1.5557248e-03,7.4549306e-04,1.9299531e-02,-7.2610817e-03,4.7607661e-02
2.4798465e+00,-4.3257175e-03,-1.1064826e-03,2.2197273e-04,-4.7181786e-02,7.4595378e-03,-4.7265152e-02,3.2382035e-03,4.0714814e-04,5.9670327e-04,4.5968082e-02,-1.1485777e-01,-1.4878994e-02
2.4898465e+00,-5.0714094e-03,-1.0048912e-03,2.7882028e-04,-7.4582285e-02,1.0439277e-02,-7.4517527e-02,2.7547755e-03,-1.0029175e-03,-5.5392017e-04,-4.8342847e-02,-1.4100669e-01,-1.1506245e-01
2.4998465e+00,-5.6753420e-03,-7.2091159e-04,5.3042023e-04,-6.0349367e-02,2.8787824e-02,-6.0252520e-02,1.9681793e-03,-4.4934347e-03,-1.9968383e-04,-7.8659695e-02,-3.4905206e-01,3.5423667e-02
2.5098464e+00,-5.9669076e-03,-3.6845830e-04,5.0369332e-04,-2.9102117e-02,3.5548139e-02,-2.8841731e-02,2.0434342e-03,-8.3913818e-03,-6.0420840e-04,7.5255037e-03,-3.8979508e-01,-4.0452495e-02
2.5198464e+00,-5.8606078e-03,-1.5639765e-04,7.9702597e-04,1.0655315e-02,2.1063009e-02,1.0886007e-02,2.2116559e-03,-1.1098153e-02,2.0247379e-03,1.6822180e-02,-2.7067741e-01,2.6289488e-01
2.5298464e+00,-6.3143084e-03,-1.2547525e-03,2.1510412e-04,-4.5741041e-02,-1.0960692e-01,-4.5550278e-02,3.3265447e-03,-1.6968045e-03,-1.2829446e-04,1.1148899e-01,9.4013578e-01,-2.1530344e-01
2.5398464e+00,-6.1744411e-03,-3.8501595e-04,7.6142953e-04,1.4219496e-02,8.6802782e-02,1.4790927e-02,2.9976912e-03,-8.9310855e-03,1.9927885e-03,-3.2885384e-02,-7.2342879e-01,2.1210849e-01
2.5498464e+00,-6.6086620e-03,-1.4400258e-04,8.4408871e-04,-4.3270546e-02,2.4718702e-02,-4.3225968e-02,2.9954701e-03,-1.1239296e-02,1.8222205e-03,-2.2211033e-04,-2.3082128e-01,-1.7056809e-02
2.5598464e+00,-7.4691624e-03,-5.1103426e-04,6.8154107e-04,-8.6164947e-02,-3.5515186e-02,-8.6432897e-02,3.7818153e-03,-9.9975656e-03,2.7148208e-04,7.8634596e-02,1.2417317e-01,-1.5507399e-01
2.5698464e+00,-8.2000390e-03,-8.2813964e-04,8.1300206e-04,-7.3192329e-02,-3.0735199e-02,-7.3399067e-02,3.8900902e-03,-9.4304917e-03,2.4904291e-04,1.0827502e-02,5.6707447e-02,-2.2439185e-03
2.5798464e+00,-8.5062146e-03,-1.0815772e-03,8.7249326e-04,-3.0712461e-02,-2.4925793e-02,-3.0864704e-02,4.5664030e-03,-9.0371504e-03,6.7053228e-04,6.7631346e-02,3.9334169e-02,4.2148977e-02
2.5898464e+00,-8.8306248e-03,-1.4263561e-03,7.4989017e-04,-3.2591908e-02,-3.4091261e-02,-3.2697455e-02,5.0499609e-03,-6.8259598e-03,7.0369993e-04,4.8355835e-02,2.2111926e-01,3.3167672e-03
2.5998464e+00,-9.0514714e-03,-1.7736768e-03,5.2017365e-04,-2.2254445e-02,-3.4537964e-02,-2.2218340e-02,5.5200975e-03,-3.2352797e-03,9.7892200e-04,4.7013702e-02,3.5906835e-01,2.7522234e-02
2.6098464e+00,-9.5848405e-03,-2.0155877e-03,3.1587354e-04,-5.3501206e-02,-2.3797219e-02,-5.3349660e-02,5.5928907e-03,-1.7854596e-03,-5.5854292e-04,7.2793334e-03,1.4498215e-01,-1.5374664e-01
2.6198463e+00,-1.0025428e-02,-1.4346487e-03,8.2440770e-04,-4.3766328e-02,5.8552037e-02,-4.3742775e-02,4.4288488e-03,-6.0001413e-03,7.8827490e-04,-1.1640431e-01,-4.2146857e-01,1.3468191e-01
2.6298463e+00,-1.0908345e-02,-1.8350467e-03,6.6419110e-04,-8.8517105e-02,-3.9162477e-02,-8.8459575e-02,5.2036971e-03,-4.7233401e-03,-2.0552731e-04,7.7484905e-02,1.2768025e-01,-9.9380315e-02
2.6398463e+00,-1.1367338e-02,-2.1380603e-03,9.3760905e-04,-4.6059039e-02,-2.9793347e-02,-4.6071512e-02,6.4199706e-03,-4.6246643e-03,7.3682926e-04,1.2162746e-01,9.8675902e-03,9.4235747e-02
2.6498466e+00,-1.1715231e-02,-2.3707000e-03,9.2309030e-04,-3.4913654e-02,-2.2895890e-02,-3.4906785e-02,6.9627161e-03,-3.5783690e-03,1.0340064e-03,5.4273316e-02,1.0462714e-01,2.9717032e-02
2.6598465e+00,-1.2164264e-02,-2.6584302e-03,7.3470522e-04,-4.5095826e-02,-2.8368853e-02,-4.4967629e-02,7.5670005e-03,-1.4148021e-03,5.3386119e-04,6.0428493e-02,2.1635689e-01,-5.0014567e-02
2.6698465e+00,-1.2525237e-02,-2.4869102e-03,7.7012109e-04,-3.5943650e-02,1.7527558e-02,-3.6070327e-02,7.6542029e-03,-2.7633759e-03,5.9161568e-04,8.7202495e-03,-1.3485751e-01,5.7754547e-03
2.6798465e+00,-1.2733947e-02,-1.9341914e-03,1.1866361e-03,-2.0420833e-02,5.5570689e-02,-2.0519955e-02,7.1052435e-03,-7.3278184e-03,2.7216574e-03,-5.4895996e-02,-4.5644469e-01,2.1300437e-01
2.6898465e+00,-1.3636338e-02,-2.5402377e-03,1.0878707e-03,-9.0566420e-02,-5.9360260e-02,-9.0737241e-02,8.7093401e-03,-5.0362302e-03,2.1829299e-03,1.6040981e-01,2.2915904e-01,-5.3872801e-02
2.6998465e+00,-1.4376618e-02,-2.4524300e-03,1.1635323e-03,-7.3789299e-02,1.0000381e-02,-7.4111770e-02,8.9728568e-03,-7.4947416e-03,2.1190953e-03,2.6351698e-02,-2.4585138e-01,-6.3834648e-03
2.7098465e+00,-1.5180368e-02,-2.6450154e-03,1.0894610e-03,-8.0427711e-02,-1.7934548e-02,-8.0628271e-02,9.3151625e-03,-7.1307303e-03,1.5319576e-03,3.4230604e-02,3.6401165e-02,-5.8713824e-02
2.7198465e+00,-1.6161462e-02,-2.8074561e-03,1.0366967e-03,-9.8193152e-02,-1.4805205e-02,-9.8253376e-02,8.7603751e-03,-5.8935013e-03,5.5919047e-04,-5.5478800e-02,1.2372302e-01,-9.7276807e-02
2.7298465e+00,-1.6919626e-02,-2.9032883e-03,9.8379681e-04,-7.5871941e-02,-8.4353929e-03,-7.5897332e-02,8.8640996e-03,-6.2662288e-03,3.4940579e-04,1.0372467e-02,-3.7272785e-02,-2.0978488e-02
2.7398465e+00,-1.7218658e-02,-2.5582147e-03,1.6119820e-03,-2.9482550e-02,3.5128217e-02,-2.9596586e-02,9.5033733e-03,-1.1350909e-02,3.0528904e-03,6.3927425e-02,-5.0846849e-01,2.7034872e-01
2.7498465e+00,-1.8281844e-02,-3.3680265e-03,1.3125020e-03,-1.0705953e-01,-7.9235050e-02,-1.0688948e-01,1.0343719e-02,-6.0212490e-03,8.5665872e-04,8.4034623e-02,5.3296649e-01,-2.1962338e-01
2.7598464e+00,-1.8825243e-02,-3.6720430e-03,1.3361755e-03,-5.4593800e-02,-2.9514350e-02,-5.4574191e-02,1.1139049e-02,-5.1406174e-03,1.4971870e-03,7.9533106e-02,8.8063241e-02,6.4052888e-02
2.7698464e+00,-1.9352443e-02,-4.0387074e-03,1.3064949e-03,-5.3048834e-02,-3.5825760e-02,-5.2967640e-02,1.1879165e-02,-4.0055139e-03,1.9525210e-03,7.4011646e-02,1.1351047e-01,4.5533444e-02
2.7798464e+00,-1.9969380e-02,-4.3145405e-03,1.2106582e-03,-6.1932869e-02,-2.6616551e-02,-6.1878645e-02,1.3009915e-02,-2.6169958e-03,1.8549504e-03,1.1307517e-01,1.3885194e-01,-9.7570696e-03
2.7898464e+00,-2.0869720e-02,-4.2535021e-03,9.2759391e-04,-8.9936344e-02,7.6098603e-03,-9.0017019e-02,1.2946836e-02,-3.7865137e-03,1.2376582e-04,-6.3079321e-03,-1.1695191e-01,-1.7311862e-01
2.7998464e+00,-2.1661743e-02,-4.1726776e-03,1.1550615e-03,-7.9063918e-02,9.5995171e-03,-7.9171388e-02,1.2754923e-02,-6.4079680e-03,3.6530642e-04,-1.9191378e-02,-2.6214568e-01,2.4154083e-02
2.8098464e+00,-2.2592207e-02,-4.6493953e-03,1.0433722e-03,-9.3696562e-02,-4.6028393e-02,-9.3221420e-02,1.3527514e-02,-4.0849072e-03,-1.4776648e-04,7.7259257e-02,2.3230630e-01,-5.1307339e-02
2.8198464e+00,-2.3456409e-02,-4.6766136e-03,1.2218137e-03,-8.6382676e-02,-1.0751663e-03,-8.6493990e-02,1.3708345e-02,-5.3389220e-03,7.7244490e-04,1.8083094e-02,-1.2540160e-01,9.2021225e-02
2.8298464e+00,-2.4155889e-02,-5.1689641e-03,1.4862230e-03,-7.0520929e-02,-4.7932120e-02,-7.0277218e-02,1.4935409e-02,-3.6018200e-03,2.2094907e-03,1.2270654e-01,1.7371036e-01,1.4370472e-01
2.8398464e+00,-2.4907016e-02,-5.0040508e-03,1.6309660e-03,-7.4629036e-02,1.7991913e-02,-7.5250378e-02,1.4782653e-02,-5.2067379e-03,3.0806699e-03,-1.5275641e-02,-1.6049195e-01,8.7118001e-02
2.8498464e+00,-2.6109452e-02,-4.9806898e-03,1.8311093e-03,-1.1982487e-01,5.0825840e-03,-1.2057657e-01,1.4856425e-02,-7.9639175e-03,3.0792458e-03,7.3772251e-03,-2.7571822e-01,-1.4240951e-04
2.8598464e+00,-2.7228049e-02,-4.9642649e-03,1.9010192e-03,-1.1136106e-01,4.4359528e-03,-1.1228070e-01,1.5281749e-02,-9.6553509e-03,4.1088490e-03,4.2532372e-02,-1.6914350e-01,1.0296042e-01
2.8698463e+00,-2.8878085e-02,-5.5017286e-03,1.8897622e-03,-1.6533271e-01,-4.9534864e-02,-1.6598960e-01,1.6380263e-02,-9.0591097e-03,3.2023645e-03,1.0985153e-01,5.9624181e-02,-9.0648539e-02
2.8798463e+00,-3.0209795e-02,-5.5320794e-03,1.8037719e-03,-1.3294838e-01,4.8217428e-04,-1.3342731e-01,1.6545364e-02,-9.8448605e-03,1.9116077e-03,1.6510102e-02,-7.8575159e-02,-1.2907581e-01
2.8898463e+00,-3.1803905e-02,-6.3840023e-03,1.4540603e-03,-1.6099863e-01,-8.1599489e-02,-1.5969498e-01,1.8008440e-02,-4.4414968e-03,-4.9758198e-04,1.4630778e-01,5.4033689e-01,-2.4091920e-01
2.8998466e+00,-3.2958932e-02,-6.3737875e-03,1.5309087e-03,-1.1550214e-01,4.0223163e-03,-1.1543246e-01,1.9220549e-02,-6.7669568e-03,-3.7267206e-04,1.2120807e-01,-2.3254068e-01,1.2490706e-02
2.9098465e+00,-3.4097111e-02,-6.7849889e-03,1.6005561e-03,-1.1468994e-01,-3.8165022e-02,-1.1397194e-01,2.0267109e-02,-5.6216783e-03,-5.4456155e-04,1.0465616e-01,1.1452796e-01,-1.7188966e-02
2.9198465e+00,-3.4919775e-02,-7.1049645e-03,1.6929081e-03,-8.2886188e-02,-2.9710725e-02,-8.2501868e-02,2.1134913e-02,-6.5670982e-03,4.6390242e-04,8.6780421e-02,-9.4542077e-02,1.0084649e-01
2.9298465e+00,-3.5939467e-02,-8.0311158e-03,1.7275144e-03,-1.0392689e-01,-8.9864172e-02,-1.0245321e-01,2.3221208e-02,-3.5040283e-03,1.6196821e-03,2.0862976e-01,3.0630728e-01,1.1557808e-01
2.9398465e+00,-3.7173182e-02,-8.2824601e-03,1.8439379e-03,-1.2367745e-01,-2.1848353e-02,-1.2369084e-01,2.3761316e-02,-2.8125556e-03,2.0775837e-03,5.4010835e-02,6.9147337e-02,4.5790200e-02
2.9498465e+00,-3.8420095e-02,-8.1982030e-03,2.0674216e-03,-1.2412307e-01,1.1939593e-02,-1.2497119e-01,2.2962063e-02,-5.2253680e-03,2.7391799e-03,-7.9925335e-02,-2.4128147e-01,6.6159681e-02
2.9598465e+00,-4.0041559e-02,-8.2125165e-03,2.2583603e-03,-1.6157603e-01,3.9441188e-03,-1.6267350e-01,2.3577699e-02,-9.5420031e-03,3.4426211e-03,6.1563613e-02,-4.3166392e-01,7.0344187e-02
2.9698465e+00,-4.2114022e-02,-9.2727774e-03,2.1004159e-03,-2.0958090e-01,-9.9395402e-02,-2.0818310e-01,2.5631421e-02,-6.1792750e-03,1.5181192e-03,2.0537241e-01,3.3627313e-01,-1.9245037e-01
2.9798465e+00,-4.3918000e-02,-9.4070185e-03,1.9180720e-03,-1.8059339e-01,-7.3975619e-03,-1.8055014e-01,2.6019782e-02,-7.3599765e-03,5.1402273e-04,3.8836142e-02,-1.1807026e-01,-1.0040975e-01
2.9898465e+00,-4.5781147e-02,-9.8733828e-03,1.9251104e-03,-1.8761607e-01,-4.0670205e-02,-1.8640705e-01,2.6700908e-02,-5.2359934e-03,-6.5767458e-04,6.8112603e-02,2.1239852e-01,-1.1716984e-01
2.9998465e+00,-4.7327817e-02,-1.0121255e-02,2.1537914e-03,-1.5528596e-01,-1.9322040e-02,-1.5482638e-01,2.7974814e-02,-7.2972320e-03,9.0726625e-05,1.2739081e-01,-2.0612406e-01,7.4840191e-02
3.0098464e+00,-4.8845636e-02,-1.0752399e-02,2.0599002e-03,-1.5355431e-01,-5.7707992e-02,-1.5215063e-01,2.9681250e-02,-5.7520938e-03,2.2282809e-04,1.7064369e-01,1.5451396e-01,1.3210159e-02
3.0198464e+00,-5.0243136e-02,-1.0807106e-02,2.2045897e-03,-1.3960526e-01,-5.3612391e-05,-1.4000185e-01,3.1205969e-02,-7.5293850e-03,1.7699088e-03,1.5247204e-01,-1.7772928e-01,1.5470821e-01
3.0298464e+00,-5.2394203e-02,-1.1718828e-02,1.9379032e-03,-2.1795122e-01,-8.3542061e-02,-2.1534231e-01,3.2135867e-02,-3.1211821e-03,-1.2095962e-04,9.2989950e-02,4.4082071e-01,-1.8908702e-01
3.0398464e+00,-5.4238162e-02,-1.1617007e-02,2.5788762e-03,-1.8373778e-01,1.7899470e-02,-1.8446570e-01,3.2913204e-02,-8.9676600e-03,1.2110363e-03,7.7733755e-02,-5.8464835e-01,1.3319972e-01
3.0498464e+00,-5.6215604e-02,-1.2176789e-02,2.7400398e-03,-1.9935320e-01,-4.7208421e-02,-1.9841592e-01,3.4629955e-02,-9.5350086e-03,1.0650446e-03,1.7167524e-01,-5.6734909e-02,-1.4599179e-02
3.0598464e+00,-5.8221800e-02,-1.3075538e-02,2.5483634e-03,-2.0351620e-01,-8.1383766e-02,-2.0132559e-01,3.6063389e-02,-5.9641738e-03,1.0646014e-03,1.4334354e-01,3.5708382e-01,-4.4327462e-05
3.0698092e+00,-6.0195412e-02,-1.3663121e-02,2.4674804e-03,-1.9997478e-01,-5.0590743e-02,-1.9853163e-01,3.6905391e-02,-5.2301522e-03,8.3052513e-04,8.4514647e-02,7.3676260e-02,-2.3495032e-02
3.0798092e+00,-6.1849757e-02,-1.3240825e-02,2.8075281e-03,-1.6330654e-01,5.0212400e-02,-1.6531859e-01,3.6711076e-02,-1.1709898e-02,2.8166786e-03,-1.9431576e-02,-6.4797516e-01,1.9861554e-01
3.0898092e+00,-6.4392818e-02,-1.4612222e-02,2.3910974e-03,-2.5948739e-01,-1.2564507e-01,-2.5501063e-01,3.9015260e-02,-5.7768531e-03,-9.9613338e-05,2.3041870e-01,5.9330501e-01,-2.9162948e-01
3.0998092e+00,-6.6407666e-02,-1.4454688e-02,2.8057675e-03,-2.0048416e-01,2.5922186e-02,-2.0143156e-01,3.9288281e-02,-1.1246439e-02,1.1236669e-03,2.7302076e-02,-5.4695910e-01,1.2232814e-01
3.1098092e+00,-6.8739987e-02,-1.5256251e-02,2.8919011e-03,-2.3627078e-01,-6.8316889e-02,-2.3394147e-01,4.0590594e-02,-9.8847343e-03,9.4921369e-05,1.3023144e-01,1.3617059e-01,-1.0287465e-01
3.1198092e+00,-7.0924677e-02,-1.6267798e-02,2.7181138e-03,-2.2301858e-01,-9.0301519e-02,-2.1862809e-01,4.2598751e-02,-6.6769965e-03,-2.0150729e-03,2.0081584e-01,3.2077408e-01,-2.1099963e-01
3.1298091e+00,-7.2754593e-02,-1.6649695e-02,2.7575577e-03,-1.8481854e-01,-2.8584511e-02,-1.8290833e-01,4.4448253e-02,-7.8586526e-03,-1.6988333e-03,1.8495040e-01,-1.1816572e-01,3.1623988e-02
3.1398091e+00,-7.4698791e-02,-1.7201710e-02,2.8788107e-03,-1.9713143e-01,-4.4849212e-02,-1.9435348e-01,4.5911178e-02,-7.0615538e-03,-1.9707276e-03,1.4629268e-01,7.9709955e-02,-2.7189450e-02
3.1498094e+00,-7.6408973e-02,-1.7675308e-02,2.8365173e-03,-1.7336607e-01,-3.7879982e-02,-1.7100853e-01,4.7207584e-02,-7.9350623e-03,-1.7995458e-03,1.2963765e-01,-8.7348850e-02,1.7117790e-02
3.1598094e+00,-7.8274144e-02,-1.8436002e-02,3.1429107e-03,-1.8998441e-01,-6.5635653e-02,-1.8698091e-01,4.8576706e-02,-6.8930741e-03,3.5496000e-05,1.3691231e-01,1.0419892e-01,1.8350435e-01
3.1698093e+00,-8.0143186e-02,-1.8713584e-02,3.3099903e-03,-1.8790027e-01,-1.6799166e-02,-1.8721175e-01,5.0169860e-02,-8.2883357e-03,8.6056530e-04,1.5931557e-01,-1.3952629e-01,8.2507008e-02
