time, x, y, z, vx, vy, vz, yaw, pitch, roll, yaw_rate, pitch_rate, roll_rate
0.0000000e+00,0.0000000e+00,0.0000000e+00,0.0000000e+00,0.0000000e+00,0.0000000e+00,0.0000000e+00,0.0000000e+00,0.0000000e+00,0.0000000e+00,0.0000000e+00,0.0000000e+00,0.0000000e+00
9.9999905e-03,5.8648490e-05,9.4167034e-05,1.0359578e-05,5.8630581e-03,9.4128901e-03,5.8727814e-03,-1.1424489e-04,-7.6539431e-04,1.2287991e-04,-1.1424500e-02,-7.6539504e-02,1.2288003e-02
1.9999981e-02,1.6838482e-04,4.5449495e-04,1.3923578e-04,1.0943644e-02,3.5996934e-02,1.1120417e-02,-3.8849020e-04,-3.6320620e-03,1.4570460e-03,-2.7424558e-02,-2.8666704e-01,1.3341673e-01
2.9999971e-02,2.0360578e-04,4.4076458e-04,1.4755837e-04,3.5187305e-03,-1.3811869e-03,3.5222808e-03,-8.1408683e-04,-3.1258683e-03,1.2727797e-03,-4.2559704e-02,5.0619413e-02,-1.8426646e-02
3.9999962e-02,1.9738539e-04,3.8992005e-04,1.4188681e-04,-6.1854026e-04,-5.0832820e-03,-6.3500808e-04,-5.8852158e-04,-2.4513563e-03,8.1586942e-04,2.2556547e-02,6.7451264e-02,-4.5691071e-02
4.9999952e-02,2.2349123e-04,3.9423814e-04,1.8297726e-04,2.6082078e-03,4.2733709e-04,2.6136982e-03,-6.9773605e-04,-2.4085939e-03,7.9518875e-04,-1.0921458e-02,4.2762440e-03,-2.0680683e-03
5.9999943e-02,3.1215753e-04,5.5397055e-04,2.2712078e-04,8.8367380e-03,1.5950498e-02,8.9371789e-03,-1.0940164e-03,-3.6426049e-03,1.3998877e-03,-3.9628076e-02,-1.2340122e-01,6.0469953e-02
6.9999933e-02,2.2895557e-04,2.4607474e-04,7.1585423e-05,-8.2889879e-03,-3.0785739e-02,-8.3655660e-03,-7.7057697e-04,-1.2309284e-03,8.9961118e-04,3.2343978e-02,2.4116788e-01,-5.0027701e-02
7.9999924e-02,2.6042645e-05,5.3134833e-06,-2.9024911e-05,-2.0289775e-02,-2.4071805e-02,-2.0298000e-02,-6.7564187e-05,-2.8156819e-04,-4.4491123e-06,7.0301345e-02,9.4936109e-02,-9.0406115e-02
8.9999914e-02,1.5541862e-05,3.5557574e-05,-2.6912371e-05,-1.0503179e-03,3.0245085e-03,-1.0495626e-03,-4.9508769e-05,-1.4146578e-04,-8.4613670e-05,1.8055435e-03,1.4010254e-02,-8.0164634e-03
1.0000014e-01,4.5545590e-05,1.5769462e-04,1.9427719e-05,2.9960796e-03,1.2210838e-02,3.0150215e-03,-2.1681635e-04,-1.0762163e-03,5.2525519e-04,-1.6730375e-02,-9.3472911e-02,6.0985490e-02
1.1000013e-01,1.4344938e-04,2.9494701e-04,7.3249050e-05,9.7780653e-03,1.3710463e-02,9.8233703e-03,-3.3195667e-04,-1.8385981e-03,7.9298732e-04,-1.1514043e-02,-7.6238254e-02,2.6773238e-02
1.2000012e-01,9.7838256e-05,1.8825329e-04,2.5450475e-05,-4.5582060e-03,-1.0664675e-02,-4.5750151e-03,-1.1543184e-04,-1.1455142e-03,3.6815513e-04,2.1652503e-02,6.9308452e-02,-4.2483260e-02
1.3000011e-01,8.0217537e-05,1.5814954e-04,6.4483610e-05,-1.7606021e-03,-3.0084272e-03,-1.7668693e-03,-1.3942270e-04,-1.2443315e-03,5.9670241e-04,-2.3990883e-03,-9.8817352e-03,2.2854750e-02
1.4000010e-01,9.1561485e-05,1.0082711e-04,2.4876696e-05,1.1350475e-03,-5.7328040e-03,1.1309318e-03,-1.6651746e-04,-6.5716707e-04,2.6698419e-04,-2.7094779e-03,5.8716499e-02,-3.2971854e-02
1.5000010e-01,1.6932995e-04,2.3164226e-04,6.2300822e-05,7.7671866e-03,1.3072199e-02,7.8021607e-03,-3.3991265e-04,-1.5363193e-03,6.7107847e-04,-1.7339536e-02,-8.7915304e-02,4.0409467e-02
1.6000009e-01,2.3189224e-04,4.5308218e-04,1.6638592e-04,6.2306280e-03,2.2132472e-02,6.3222780e-03,-8.7350867e-04,-2.7012476e-03,1.0002566e-03,-5.3359653e-02,-1.1649294e-01,3.2917845e-02
1.7000008e-01,2.5103053e-04,4.8852616e-04,2.0733630e-04,1.9087143e-03,3.5399997e-03,1.9270425e-03,-8.6150897e-04,-3.1481674e-03,1.0772132e-03,1.1999714e-03,-4.4692024e-02,7.6956652e-03
1.8000007e-01,2.4006812e-04,2.5174363e-04,7.2632136e-05,-1.0800384e-03,-2.3677686e-02,-1.1246832e-03,-6.5011988e-04,-1.1674788e-03,7.3809409e-04,2.1138930e-02,1.9806905e-01,-3.3911941e-02
1.9000006e-01,2.2483945e-04,7.6845894e-05,-9.2796554e-06,-1.5151070e-03,-1.7490343e-02,-1.5242638e-03,-4.1276836e-04,-4.8898331e-05,3.5616178e-04,2.3735174e-02,1.1185815e-01,-3.8193268e-02
2.0000005e-01,3.3149588e-04,5.0421930e-04,1.9892265e-04,1.0616576e-02,4.2710063e-02,1.0822888e-02,-8.3273811e-04,-3.3657512e-03,1.2634632e-03,-4.1997014e-02,-3.3168561e-01,9.0730225e-02
2.1000004e-01,1.6183672e-04,1.6116589e-04,3.6379292e-05,-1.6948507e-02,-3.4289987e-02,-1.7014384e-02,-2.8422515e-04,-1.1890872e-03,4.5221000e-04,5.4851348e-02,2.1766662e-01,-8.1125395e-02
2.2000003e-01,1.4022934e-04,1.5092399e-04,2.6140385e-05,-2.1595916e-03,-1.0224586e-03,-2.1627088e-03,-2.9040633e-04,-1.0911830e-03,3.9403554e-04,-6.1811835e-04,9.7904255e-03,-5.8174514e-03
2.3000002e-01,6.9177752e-05,-1.2789026e-04,-1.6069698e-04,-7.1051863e-03,-2.7889750e-02,-7.0725035e-03,-6.3512879e-06,1.1641786e-03,-2.7868464e-05,2.8405531e-02,2.2553637e-01,-4.2190441e-02
2.4000001e-01,1.6446250e-04,1.4171138e-04,3.5169155e-05,9.5211971e-03,2.6951679e-02,9.5597917e-03,-8.4647096e-05,-9.7591801e-04,5.2508339e-04,-7.8295882e-03,-2.1400986e-01,5.5295238e-02
2.5000000e-01,5.5497087e-05,5.8124805e-05,3.7292828e-05,-1.0886774e-02,-8.3523247e-03,-1.0911177e-02,-3.0886460e-04,-8.8980607e-04,6.6013274e-04,-2.2421772e-02,8.6112013e-03,1.3504948e-02
2.5999999e-01,5.4701572e-05,3.2771484e-05,1.6029706e-05,-7.9188348e-05,-2.5353214e-03,-8.0329316e-05,-1.4406763e-04,-3.0755972e-04,-2.5568760e-05,1.6479713e-02,5.8224691e-02,-6.8570215e-02
2.6999998e-01,1.5144224e-04,1.8970776e-04,7.2659722e-05,9.6642859e-03,1.5678012e-02,9.7091419e-03,-1.8037315e-04,-1.7921796e-03,7.1912919e-04,-3.6305547e-03,-1.4846212e-01,7.4469866e-02
2.7999997e-01,2.9304996e-04,4.8450463e-04,1.5046072e-04,1.4125610e-02,2.9445585e-02,1.4266535e-02,-6.9695310e-04,-3.0935268e-03,1.0323418e-03,-5.1658044e-02,-1.3013485e-01,3.1321291e-02
2.8999996e-01,2.4564207e-04,4.0371117e-04,1.4446566e-04,-4.7314822e-03,-8.0711136e-03,-4.7640748e-03,-6.7858615e-04,-2.4093937e-03,8.0715725e-04,1.8366969e-03,6.8413377e-02,-2.2518477e-02
2.9999995e-01,3.3140674e-05,-6.3682280e-06,-1.6086415e-05,-2.1244745e-02,-4.1008492e-02,-2.1254583e-02,-1.3302605e-04,-1.0886187e-04,-1.9235595e-06,5.4556061e-02,2.3005340e-01,-8.0908158e-02
3.0998540e-01,1.4445813e-04,1.6151505e-04,1.1827531e-04,1.1137112e-02,1.6801062e-02,1.1176474e-02,-2.4711061e-04,-1.2975302e-03,6.0101012e-04,-1.1425082e-02,-1.1904007e-01,6.0381241e-02
3.1998539e-01,2.3202195e-04,1.9451869e-04,9.9323206e-05,8.7489874e-03,3.2890802e-03,8.7680292e-03,-4.0895845e-04,-1.6961995e-03,6.9096339e-04,-1.6184800e-02,-3.9866975e-02,8.9953354e-03
3.2998538e-01,1.4124118e-04,9.7529754e-05,-7.3100578e-06,-9.0702746e-03,-9.6908154e-03,-9.0945150e-03,-1.6860922e-04,-1.0581116e-03,6.8004663e-04,2.4034947e-02,6.3808858e-02,-1.0916770e-03
3.3998537e-01,1.2544941e-04,6.2409439e-05,-4.7486828e-05,-1.5783905e-03,-3.5114438e-03,-1.5812789e-03,-7.5415308e-05,-4.4934067e-04,3.3107716e-04,9.3193998e-03,6.0877148e-02,-3.4896980e-02
3.4998560e-01,1.3218649e-04,1.4076670e-04,2.8523439e-06,6.7228846e-04,7.8349261e-03,6.8225545e-04,-1.3197379e-04,-1.0457727e-03,5.4887245e-04,-5.6557191e-03,-5.9641833e-02,2.1779031e-02
3.5998559e-01,1.4056789e-04,-8.2421220e-05,-1.2772757e-04,8.4205887e-04,-2.2317740e-02,8.6243113e-04,-1.7755509e-04,1.0862861e-03,5.4227055e-05,-4.5581344e-03,2.1320608e-01,-4.9464586e-02
3.6998558e-01,3.3812683e-04,3.9680498e-04,1.2875496e-04,1.9683890e-02,4.7890417e-02,1.9905438e-02,-8.8946903e-04,-2.5095301e-03,1.4864711e-03,-7.1191462e-02,-3.5958196e-01,1.4322455e-01
3.7998557e-01,3.8925895e-04,5.4269642e-04,2.3904323e-04,5.0939151e-03,1.4575515e-02,5.1710619e-03,-9.2069162e-04,-3.5653664e-03,1.1468465e-03,-3.1222618e-03,-1.0558373e-01,-3.3962494e-02
3.8998556e-01,1.3335700e-04,2.1724774e-04,8.9266274e-05,-2.5566469e-02,-3.2470949e-02,-2.5707627e-02,1.2561078e-04,-2.7563206e-03,1.0872022e-03,1.0463034e-01,8.0904661e-02,-5.9644354e-03
3.9998555e-01,3.0926398e-04,5.2365499e-04,2.3098624e-04,1.7543288e-02,3.0595819e-02,1.7715847e-02,-9.2396528e-04,-3.4635384e-03,1.0856489e-03,-1.0495771e-01,-7.0721851e-02,-1.5533340e-04
4.0998554e-01,3.2019621e-04,5.7405879e-04,2.1519680e-04,1.0866697e-03,5.0374473e-03,1.1131189e-03,-1.0227404e-03,-3.6719222e-03,1.2786182e-03,-9.8775236e-03,-2.0838392e-02,1.9296943e-02
4.1998553e-01,1.5019373e-04,6.0781232e-05,-7.4182801e-06,-1.6989800e-02,-5.1323869e-02,-1.7022595e-02,-1.2806312e-04,-3.5930798e-04,2.2887345e-04,8.9467816e-02,3.3126173e-01,-1.0497457e-01
4.2998552e-01,7.7974653e-05,-1.0881442e-06,-6.1750298e-05,-7.2226475e-03,-6.1863687e-03,-7.2216746e-03,-7.1360545e-07,-8.0304741e-05,-1.0205690e-04,1.2734963e-02,2.7900351e-02,-3.3093067e-02
4.3998551e-01,1.9537054e-04,3.3814486e-04,1.6671669e-04,1.1725099e-02,3.3891342e-02,1.1846009e-02,-1.8771773e-04,-2.8986048e-03,6.9250167e-04,-1.8700431e-02,-2.8183028e-01,7.9455933e-02
4.4998550e-01,2.0119283e-04,2.3130708e-04,7.6283911e-05,5.8608501e-04,-1.0684583e-02,5.6348299e-04,-3.9995739e-04,-1.7940390e-03,7.1755978e-04,-2.1223986e-02,1.1045668e-01,2.5058136e-03
4.5998549e-01,8.5468436e-05,4.5241477e-05,-1.5449913e-05,-1.1569247e-02,-1.8601866e-02,-1.1583224e-02,4.8382878e-07,-4.0645530e-04,2.7754271e-04,4.0044160e-02,1.3875851e-01,-4.4001749e-02
4.6998549e-01,1.0283785e-04,7.4117350e-05,-1.9270934e-05,1.7366981e-03,2.8866456e-03,1.7387575e-03,4.6221798e-05,-4.9718273e-04,2.1804924e-04,4.5738013e-03,-9.0727516e-03,-5.9493528e-03
4.7998548e-01,6.3558188e-05,-1.8273426e-04,-1.7931249e-04,-3.9316137e-03,-2.5691037e-02,-3.8858321e-03,9.1303749e-05,1.5898007e-03,-3.3057875e-04,4.5081995e-03,2.0869854e-01,-5.4862852e-02
4.8998547e-01,2.4856833e-04,1.6149978e-04,1.6329310e-06,1.8465002e-02,3.4410814e-02,1.8560414e-02,-5.4211150e-04,-1.2216020e-03,9.3819480e-04,-6.3341585e-02,-2.8114054e-01,1.2687748e-01
4.9998546e-01,3.5857569e-04,5.3024911e-04,2.0611612e-04,1.0951740e-02,3.6848083e-02,1.1138863e-02,-9.8799849e-04,-3.4069262e-03,1.1418774e-03,-4.4588741e-02,-2.1853263e-01,2.0368280e-02
5.0998545e-01,3.2640987e-04,5.0867388e-04,2.2613574e-04,-3.2102824e-03,-2.1469752e-03,-3.2299140e-03,-5.9097934e-04,-3.8597617e-03,1.5617667e-03,3.9701953e-02,-4.5283591e-02,4.1988974e-02
5.1998544e-01,3.2145188e-04,4.4303028e-04,2.0933625e-04,-4.9212222e-04,-6.5628182e-03,-5.1938484e-04,-4.5283229e-04,-3.4868153e-03,1.4197267e-03,1.3814718e-02,3.7294672e-02,-1.4204019e-02
5.2998543e-01,2.8346335e-04,1.9472758e-04,1.2672962e-05,-3.7811095e-03,-2.4829882e-02,-3.8192001e-03,-6.2242914e-04,-7.2738404e-04,6.0310535e-04,-1.6959702e-02,2.7594339e-01,-8.1662213e-02
5.3998542e-01,2.9707246e-04,2.6756833e-04,8.5199970e-06,1.3544628e-03,7.2835384e-03,1.3702258e-03,-7.4901303e-04,-1.1427098e-03,7.2997073e-04,-1.2658400e-02,-4.1532612e-02,1.2686551e-02
5.4998541e-01,1.0516246e-04,-1.5627422e-04,-1.8200841e-04,-1.9190650e-02,-4.2409492e-02,-1.9135644e-02,-8.7591636e-05,1.2272118e-03,-1.7427148e-04,6.6142202e-02,2.3699238e-01,-9.0424308e-02
5.5998540e-01,2.1545511e-04,1.4504574e-04,5.3220759e-05,1.1018633e-02,3.0121202e-02,1.1069403e-02,-1.7002848e-04,-1.1489236e-03,5.0024254e-04,-8.2436926e-03,-2.3761376e-01,6.7451466e-02
5.6998539e-01,2.1755741e-04,1.4589129e-04,4.6473122e-05,2.1011884e-04,8.4357406e-05,2.1042162e-04,-1.2015888e-04,-1.0594006e-03,4.8312020e-04,4.9869654e-03,8.9523087e-03,-1.7122349e-03
5.7998538e-01,2.5831637e-04,2.1604903e-04,8.9770620e-05,4.0711638e-03,7.0095739e-03,4.0912818e-03,-3.0412607e-04,-1.8228664e-03,6.3804530e-04,-1.8396737e-02,-7.6346657e-02,1.5492525e-02
5.8998537e-01,2.1514922e-04,3.2634326e-04,9.9007832e-05,-4.3146704e-03,1.1040315e-02,-4.2908735e-03,-3.1011145e-04,-2.8376008e-03,1.2659601e-03,-5.9853884e-04,-1.0147354e-01,6.2791541e-02
5.9998560e-01,1.3915796e-04,2.2680817e-04,-2.5161107e-05,-7.5919152e-03,-9.9423002e-03,-7.6203305e-03,-3.4223533e-04,-1.7842981e-03,4.7756289e-04,-3.2123142e-03,1.0532787e-01,-7.8837918e-02
6.0998559e-01,1.6275128e-04,1.6339781e-04,-5.4571682e-06,2.3604452e-03,-6.3432147e-03,2.3523718e-03,-2.4979248e-04,-1.1722120e-03,2.0007690e-04,9.2442932e-03,6.1208662e-02,-2.7748626e-02
6.1998558e-01,2.6113073e-04,3.4338234e-04,1.6918122e-04,9.8285639e-03,1.7973653e-02,9.8925606e-03,-1.4997739e-04,-2.6642356e-03,6.7991207e-04,9.9815189e-03,-1.4920250e-01,4.7983564e-02
6.2998557e-01,3.4239621e-04,4.6364351e-04,2.2805360e-04,8.1119681e-03,1.1997376e-02,8.1834304e-03,-3.0824118e-04,-3.8303091e-03,1.3379786e-03,-1.5826394e-02,-1.1660745e-01,6.5806715e-02
6.3998556e-01,3.3075551e-04,4.3312419e-04,2.2817998e-04,-1.1615956e-03,-3.0483472e-03,-1.1758849e-03,-4.3633639e-04,-3.4990917e-03,9.8152800e-04,-1.2809533e-02,3.3121768e-02,-3.5645094e-02
6.4998555e-01,5.4636587e-05,-4.4388123e-04,-3.1402094e-04,-2.7643209e-02,-8.7791865e-02,-2.7288777e-02,1.2239134e-04,3.4482233e-03,-7.4474286e-04,5.5872827e-02,6.9473216e-01,-1.7262725e-01
6.5998554e-01,2.0564592e-04,-7.7829725e-05,-1.1858498e-04,1.5097873e-02,3.6620685e-02,1.5066405e-02,-9.6387805e-05,9.3105857e-04,-3.0010837e-05,-2.1877936e-02,-2.5171671e-01,7.1473271e-02
6.6998553e-01,2.0774111e-04,-1.4687924e-04,-1.4921906e-04,2.0918622e-04,-6.9047235e-03,2.1742868e-04,4.7883724e-05,1.1452790e-03,9.1989673e-06,1.4427167e-02,2.1422059e-02,3.9209841e-03
6.7998552e-01,2.1889510e-04,6.4048238e-05,-3.3408867e-05,1.1156961e-03,2.1092051e-02,1.1285736e-03,5.1982389e-05,-5.8653998e-04,7.1797713e-04,4.0986687e-04,-1.7318206e-01,7.0877884e-02
6.8998551e-01,2.1980489e-04,1.9187085e-04,3.1520764e-05,8.7774860e-05,1.2782160e-02,1.0848825e-04,-2.4527881e-04,-1.3646016e-03,7.5784805e-04,-2.9726149e-02,-7.7806239e-02,3.9870952e-03
6.9998550e-01,3.6008780e-04,5.6795444e-04,2.4258535e-04,1.3988259e-02,3.7544080e-02,1.4238980e-02,-3.1255630e-04,-4.8556615e-03,2.0145285e-03,-6.7277547e-03,-3.4910632e-01,1.2566817e-01
7.0998549e-01,3.3523262e-04,4.6630203e-04,1.1667400e-04,-2.4774082e-03,-1.0155887e-02,-2.5314681e-03,-3.3681931e-04,-4.0621580e-03,1.8842734e-03,-2.4263041e-03,7.9350425e-02,-1.3025524e-02
7.1998549e-01,3.3047014e-04,3.3334260e-04,8.6909389e-05,-4.6899406e-04,-1.3295192e-02,-5.0396470e-04,-5.1385645e-04,-2.0532993e-03,8.8647957e-04,-1.7703730e-02,2.0088606e-01,-9.9779480e-02
7.2998548e-01,3.9083531e-04,5.0671095e-04,2.5294432e-04,6.0196323e-03,1.7316716e-02,6.1107285e-03,-5.7488073e-04,-3.8838705e-03,1.1462036e-03,-6.1024342e-03,-1.8305730e-01,2.5972429e-02
7.3998547e-01,3.6292000e-04,5.1229419e-04,2.6846435e-04,-2.7887033e-03,5.6806091e-04,-2.7923986e-03,-5.9248833e-04,-4.0774024e-03,1.1316763e-03,-1.7607611e-03,-1.9353200e-02,-1.4527289e-03
7.4998546e-01,2.9059229e-04,2.9823181e-04,7.3107947e-05,-7.2157913e-03,-2.1394024e-02,-7.2857476e-03,-5.2153920e-04,-2.2036533e-03,8.0448967e-04,7.0949196e-03,1.8737509e-01,-3.2718698e-02
7.5998545e-01,1.9362105e-04,2.0119548e-04,-1.4820688e-05,-9.6885129e-03,-9.6895843e-03,-9.7197794e-03,-1.8054782e-04,-1.6277427e-03,7.0797236e-04,3.4099170e-02,5.7591109e-02,-9.6517402e-03
7.6998544e-01,1.3728973e-04,1.8982319e-05,-4.9845199e-05,-5.6332092e-03,-1.8218320e-02,-5.6428049e-03,7.1414227e-05,-4.6311015e-04,2.1825581e-04,2.5196229e-02,1.1646337e-01,-4.8971702e-02
7.7998543e-01,1.8401638e-04,1.1433150e-04,4.5029409e-05,4.6711447e-03,9.5316376e-03,4.6808981e-03,-5.1167977e-05,-7.5448974e-04,2.2179597e-04,-1.2258232e-02,-2.9137987e-02,3.5401632e-04
7.8998542e-01,1.3382544e-04,-8.3792323e-05,-7.8601952e-05,-5.0183348e-03,-1.9817265e-02,-5.0006290e-03,-3.7548274e-05,9.3309996e-04,3.9416215e-06,1.3619716e-03,1.6875913e-01,-2.1785455e-02
7.9998541e-01,1.9052129e-04,-3.0603684e-05,-6.9756291e-05,5.6657113e-03,5.3209457e-03,5.6715186e-03,-1.8754325e-04,1.7868483e-04,5.0805246e-04,-1.4999512e-02,-7.5441584e-02,5.0411132e-02
8.0998540e-01,1.6863208e-04,-2.1290718e-04,-1.8675850e-04,-2.1899804e-03,-1.8233743e-02,-2.1595444e-03,2.8036119e-05,1.5813891e-03,-2.4963427e-04,2.1557958e-02,1.4027056e-01,-7.5768746e-02
8.1998539e-01,1.4045802e-04,-2.4193773e-04,-2.0561827e-04,-2.8184490e-03,-2.9076193e-03,-2.8116580e-03,4.0956877e-05,1.6619997e-03,-3.2715775e-04,1.2920770e-03,8.0610680e-03,-7.7523547e-03
8.2998538e-01,3.0031609e-04,2.0535942e-04,2.6872432e-05,1.5943854e-02,4.4728230e-02,1.6031942e-02,-6.9634969e-04,-7.8982673e-04,6.7638657e-04,-7.3730727e-02,-2.4518288e-01,1.0035453e-01
8.3998537e-01,3.6119860e-04,3.1495792e-04,8.9257564e-05,6.0725827e-03,1.0956418e-02,6.1100671e-03,-9.1971039e-04,-1.4809559e-03,9.1803993e-04,-2.2336092e-02,-6.9112986e-02,2.4165359e-02
8.4998560e-01,3.8350060e-04,4.4508577e-04,1.6183026e-04,2.2188769e-03,1.3007679e-02,2.2691029e-03,-6.8882219e-04,-2.8174357e-03,1.0345041e-03,2.3088291e-02,-1.3364492e-01,1.1646155e-02
8.5998559e-01,3.8579385e-04,5.2347595e-04,1.9328882e-04,2.2379873e-04,7.8382400e-03,2.5963737e-04,-6.6196450e-04,-3.8248791e-03,1.4715520e-03,2.6857720e-03,-1.0074443e-01,4.3704827e-02
8.6998558e-01,4.0675900e-04,5.3540125e-04,1.9191529e-04,2.0927777e-03,1.1871463e-03,2.1032990e-03,-8.9306329e-04,-3.4538176e-03,1.2745043e-03,-2.3109902e-02,3.7106185e-02,-1.9704789e-02
8.7998557e-01,2.9029614e-04,2.0353019e-04,5.9511650e-05,-1.1629524e-02,-3.3172938e-02,-1.1703376e-02,-3.0025499e-04,-1.5152772e-03,5.8441441e-04,5.9280887e-02,1.9385422e-01,-6.9009055e-02
8.8998556e-01,2.5247561e-04,1.9052256e-04,8.2831944e-05,-3.7780906e-03,-1.2951797e-03,-3.7879321e-03,-2.3547480e-04,-1.7097152e-03,9.6711905e-04,6.4780244e-03,-1.9443815e-02,3.8270500e-02
8.9998555e-01,1.8228500e-04,4.8143323e-05,-8.9346138e-06,-7.0172548e-03,-1.4235157e-02,-7.0265177e-03,-4.8743565e-05,-4.4470216e-04,1.5941440e-04,1.8673142e-02,1.2650142e-01,-8.0770542e-02
9.0998554e-01,1.8638816e-04,2.6393934e-05,-3.1430558e-05,4.1038851e-04,-2.1750568e-03,4.0962965e-04,-6.6535017e-05,-3.4909172e-04,1.7679909e-04,-1.7791469e-03,9.5610531e-03,1.7384706e-03
9.1998553e-01,3.7542096e-04,4.3761134e-04,1.8572495e-04,1.8871450e-02,4.1061555e-02,1.9065341e-02,-3.0235984e-04,-3.4715370e-03,1.0264767e-03,-2.3582505e-02,-3.1224482e-01,8.4967837e-02
9.2998552e-01,3.7423730e-04,4.4884102e-04,2.1921758e-04,-1.1855919e-04,1.1233478e-03,-1.1452372e-04,-2.9006681e-04,-3.5400772e-03,1.1232417e-03,1.2293049e-03,-6.8540281e-03,9.6765115e-03
9.3998551e-01,3.2078243e-04,4.2075670e-04,2.1520777e-04,-5.3393557e-03,-2.7925281e-03,-5.3599381e-03,-3.4387718e-04,-3.3136123e-03,9.6665965e-04,-5.3810427e-03,2.2646508e-02,-1.5658218e-02
9.4998550e-01,2.1940930e-04,1.2201325e-04,4.0382350e-05,-1.0128482e-02,-2.9867764e-02,-1.0165596e-02,-1.8951140e-04,-8.4011524e-04,3.1360551e-04,1.5436592e-02,2.4734995e-01,-6.5305476e-02
9.5998549e-01,3.0050192e-04,1.7706958e-04,6.3391825e-05,8.1037453e-03,5.4965078e-03,8.1209783e-03,-2.0726726e-04,-1.3318421e-03,5.4041286e-04,-1.7755869e-03,-4.9172730e-02,2.2680756e-02
9.6998549e-01,2.7863768e-04,9.1815336e-05,2.1117652e-06,-2.1854363e-03,-8.5235353e-03,-2.1947989e-03,-3.5056478e-05,-9.0101078e-04,3.1628230e-04,1.7221094e-02,4.3083170e-02,-2.2413077e-02
9.7998548e-01,1.8334962e-04,-1.5748088e-04,-1.5711452e-04,-9.5291285e-03,-2.4940635e-02,-9.4996987e-03,-3.1953542e-05,1.1231535e-03,-1.1650434e-04,3.1029388e-04,2.0241663e-01,-4.3278705e-02
9.8998547e-01,3.0613798e-04,1.8286427e-04,7.6651641e-05,1.2261088e-02,3.4019202e-02,1.2338969e-02,-2.9346349e-04,-1.5387360e-03,6.3270997e-04,-2.6151020e-02,-2.6618921e-01,7.4921502e-02
9.9998546e-01,2.7080830e-04,1.0710156e-04,7.6138886e-06,-3.5288329e-03,-7.5731024e-03,-3.5438981e-03,-1.0920361e-04,-1.0059386e-03,9.3670884e-04,1.8426006e-02,5.3279799e-02,3.0399916e-02
1.0099854e+00,3.7617263e-04,2.3785341e-04,5.4085956e-05,1.0515792e-02,1.3062487e-02,1.0572777e-02,-5.2921374e-04,-1.7312877e-03,1.3022739e-03,-4.2001053e-02,-7.2534980e-02,3.6556538e-02
1.0199854e+00,4.2600124e-04,4.0328000e-04,1.3677605e-04,4.9678720e-03,1.6530435e-02,5.0381497e-03,-5.6351742e-04,-3.0009313e-03,1.1375160e-03,-3.4303718e-03,-1.2696449e-01,-1.6475800e-02
1.0299854e+00,2.5280906e-04,1.1598461e-05,-2.2184498e-05,-1.7321605e-02,-3.9150228e-02,-1.7357438e-02,1.8816269e-04,-8.4790863e-04,2.8865671e-04,7.5168082e-02,2.1530248e-01,-8.4886012e-02
1.0399854e+00,2.5089527e-04,3.0252955e-05,5.1506318e-05,-1.9079897e-04,1.8657641e-03,-1.8889030e-04,2.3229561e-04,-1.4116764e-03,7.6285410e-04,4.4132965e-03,-5.6376829e-02,4.7419784e-02
1.0499794e+00,1.7203563e-04,-2.4224214e-04,-9.4157488e-05,-7.8954558e-03,-2.7268068e-02,-7.8780003e-03,3.0388959e-04,5.9350457e-04,4.4410481e-04,7.1636746e-03,2.0063787e-01,-3.1893969e-02
1.0599794e+00,2.6721565e-04,-2.1619094e-05,3.5588231e-05,9.5155709e-03,2.2046342e-02,9.5574052e-03,2.9438036e-04,-1.3812753e-03,9.3829519e-04,-9.5092391e-04,-1.9747818e-01,4.9419085e-02
1.0699794e+00,2.0538361e-04,-6.8729775e-05,-1.4322626e-05,-6.1811364e-03,-4.7013766e-03,-6.1926564e-03,3.7084366e-04,-1.1959402e-03,6.1769124e-04,7.6463374e-03,1.8533534e-02,-3.2060425e-02
1.0799794e+00,1.4562660e-04,-1.1324845e-04,-2.9953962e-05,-5.9750991e-03,-4.4453552e-03,-5.9811631e-03,3.0696950e-04,-7.8296236e-04,3.3029291e-04,-6.3874219e-03,4.1297820e-02,-2.8739861e-02
1.0899794e+00,1.9251999e-04,4.8675172e-06,2.5360197e-05,4.6886896e-03,1.1804144e-02,4.7087505e-03,1.8838557e-04,-1.3997928e-03,6.1379749e-04,-1.1858404e-02,-6.1683101e-02,2.8350486e-02
1.0999796e+00,2.2682595e-04,3.0710233e-05,6.1444188e-05,3.4278099e-03,2.5787424e-03,3.4373335e-03,1.6803847e-04,-1.4244229e-03,9.1541904e-04,-2.0346639e-03,-2.4629524e-03,3.0161465e-02
1.1099796e+00,2.5153447e-04,3.6928162e-05,9.2189891e-05,2.4691772e-03,6.1872775e-04,2.4733003e-03,1.5824672e-04,-1.0815912e-03,7.1853490e-04,-9.7917545e-04,3.4283198e-02,-1.9688433e-02
1.1199470e+00,2.2252095e-04,2.1478382e-05,8.8792468e-05,-2.9097546e-03,-1.5459535e-03,-2.9141428e-03,2.6045280e-04,-1.1433060e-03,5.1912217e-04,1.0254111e-02,-6.1917077e-03,-2.0006641e-02
1.1299469e+00,2.1426128e-04,-1.3659235e-05,2.8566097e-05,-8.2689899e-04,-3.5127225e-03,-8.2946338e-04,3.2329338e-04,-9.3658785e-04,2.4801239e-04,6.2840639e-03,2.0671835e-02,-2.7111004e-02
1.1399469e+00,1.5721078e-04,-2.2581174e-04,-1.4735581e-04,-5.7104820e-03,-2.1215283e-02,-5.6995790e-03,3.6013066e-04,3.6263255e-04,3.8798168e-04,3.6837315e-03,1.2992216e-01,1.3996943e-02
1.1499469e+00,2.0489941e-04,-2.0474490e-04,-1.5061729e-04,4.7680819e-03,2.1089458e-03,4.7686547e-03,2.8900477e-04,7.6285416e-04,2.9238471e-04,-7.1125960e-03,4.0022199e-02,-9.5597065e-03
1.1599469e+00,1.9442784e-04,-1.6921074e-04,-9.5496384e-05,-1.0456515e-03,3.5532161e-03,-1.0493515e-03,2.8427524e-04,4.7784767e-04,4.7381030e-04,-4.7295285e-04,-2.8500676e-02,1.8142577e-02
1.1699469e+00,1.6435863e-04,-1.9985832e-04,-1.2623548e-04,-3.0066237e-03,-3.0655689e-03,-3.0064000e-03,2.4010736e-04,5.0868854e-04,3.4434840e-04,-4.4167921e-03,3.0840903e-03,-1.2946202e-02
1.1799469e+00,1.5705646e-04,-2.6985018e-04,-1.5968436e-04,-7.3126137e-04,-6.9996622e-03,-7.2464420e-04,1.6618556e-04,8.1341419e-04,1.6377166e-04,-7.3921875e-03,3.0472594e-02,-1.8057691e-02
1.1899469e+00,3.5333437e-04,2.3297954e-04,1.3511122e-04,1.9605224e-02,5.0217700e-02,1.9816703e-02,1.0669472e-04,-3.2035371e-03,1.4230104e-03,-5.9490893e-03,-4.0169551e-01,1.2592399e-01
1.1999469e+00,2.7110266e-04,-5.0896172e-05,1.3590103e-05,-8.2319216e-03,-2.8374830e-02,-8.2584228e-03,4.1719822e-04,-1.1325650e-03,3.7683820e-04,3.1050380e-02,2.0709741e-01,-1.0461732e-01
1.2099469e+00,2.0732558e-04,-1.4301416e-04,-2.1393477e-05,-6.3824101e-03,-9.2075114e-03,-6.3792206e-03,4.4923700e-04,-2.2417396e-04,-8.7472029e-05,3.2038807e-03,9.0839189e-02,-4.6431067e-02
1.2199469e+00,3.6378629e-04,3.8142867e-04,2.3022982e-04,1.5601223e-02,5.2390479e-02,1.5869707e-02,-3.9863071e-04,-3.8102356e-03,1.5299054e-03,-8.4786852e-02,-3.5860650e-01,1.6173789e-01
1.2299469e+00,4.1524243e-04,4.5482718e-04,2.1538211e-04,5.1335585e-03,7.3200293e-03,5.1857545e-03,-4.2579946e-04,-4.2587970e-03,1.7349000e-03,-2.7168775e-03,-4.4856187e-02,2.0499487e-02
1.2399468e+00,2.7518196e-04,5.6664926e-05,2.6234060e-05,-1.4008460e-02,-3.9788333e-02,-1.4082822e-02,3.2409178e-04,-1.6647281e-03,7.4966551e-04,7.4989196e-02,2.5940715e-01,-9.8523547e-02
1.2499468e+00,3.3103309e-04,2.2498056e-04,1.6209104e-04,5.5859647e-03,1.6810947e-02,5.6460816e-03,3.8414240e-04,-3.2902585e-03,1.0056004e-03,6.0050674e-03,-1.6255320e-01,2.5593512e-02
1.2599468e+00,3.6509751e-04,3.2417177e-04,2.2233409e-04,3.4046416e-03,9.9038586e-03,3.4523736e-03,2.8384696e-04,-4.1683763e-03,1.3548881e-03,-1.0029553e-02,-8.7811859e-02,3.4928809e-02
1.2699468e+00,3.1594232e-04,1.0988496e-04,1.1441022e-04,-4.9151234e-03,-2.1416815e-02,-4.9674524e-03,2.4943006e-04,-2.1558746e-03,1.1681500e-03,-3.4416934e-03,2.0125036e-01,-1.8673835e-02
1.2799468e+00,2.6562959e-04,1.6193040e-05,7.4818015e-05,-5.0315984e-03,-9.3576173e-03,-5.0524690e-03,5.1832821e-04,-1.7792533e-03,9.0079567e-04,2.6889841e-02,3.7662167e-02,-2.6735456e-02
1.2899468e+00,2.5864289e-04,-7.7348763e-06,5.2852335e-05,-6.9931450e-04,-2.3913511e-03,-7.0295439e-04,4.5992718e-04,-1.5994035e-03,6.5408106e-04,-5.8401087e-03,1.7985002e-02,-2.4671485e-02
1.2999468e+00,3.0790327e-04,3.3895261e-05,6.7341765e-05,4.9237176e-03,4.1483160e-03,4.9407482e-03,6.7928217e-04,-2.3003796e-03,1.0453284e-03,2.1935520e-02,-7.0097682e-02,3.9124776e-02
1.3099468e+00,4.4642172e-04,2.4315506e-04,1.5396554e-04,1.3834180e-02,2.0874702e-02,1.3946602e-02,2.8612776e-04,-3.4025867e-03,1.7069754e-03,-3.9315479e-02,-1.1022082e-01,6.6164761e-02
1.3199468e+00,4.3940281e-04,2.9948288e-04,1.8337212e-04,-6.9942109e-04,5.6355394e-03,-6.8198583e-04,2.1059784e-04,-3.7602139e-03,1.8283539e-03,-7.5529989e-03,-3.5762747e-02,1.2137864e-02
1.3299468e+00,4.2511633e-04,3.5653492e-04,2.2404281e-04,-1.4280561e-03,5.7103329e-03,-1.4086335e-03,-2.9708117e-04,-3.9076422e-03,1.6003445e-03,-5.0767950e-02,-1.4742847e-02,-2.2800963e-02
1.3399467e+00,4.5763252e-04,4.0471331e-04,2.1567434e-04,3.2446576e-03,4.8052194e-03,3.2771591e-03,-3.5832317e-04,-4.2207241e-03,1.6095074e-03,-6.1242059e-03,-3.1308218e-02,9.1628533e-04
1.3499470e+00,3.6369482e-04,1.8067031e-06,-5.9601745e-05,-9.3877441e-03,-4.0279521e-02,-9.4430521e-03,7.6402622e-05,-1.0081764e-03,9.4584357e-04,4.3471585e-02,3.2124741e-01,-6.6364862e-02
1.3599470e+00,3.0873095e-04,-1.2963298e-04,-1.0546750e-04,-5.4966256e-03,-1.3141163e-02,-5.5028928e-03,3.2857152e-04,-1.8380639e-04,7.4293230e-04,2.5216914e-02,8.2437084e-02,-2.0291147e-02
1.3699470e+00,3.1174202e-04,7.0499275e-05,1.0135622e-04,3.0501195e-04,2.0012578e-02,3.3909641e-04,2.0926114e-04,-1.8838523e-03,9.4182074e-04,-1.1931050e-02,-1.7000475e-01,1.9888863e-02
1.3799469e+00,1.4047360e-04,-3.2107518e-04,-1.0873137e-04,-1.7145809e-02,-3.9160459e-02,-1.7101073e-02,5.3344605e-04,7.0806744e-04,1.1304446e-04,3.2418522e-02,2.5919222e-01,-8.2877707e-02
1.3899469e+00,3.5277479e-04,1.8640268e-04,1.2233147e-04,2.1222617e-02,5.0684885e-02,2.1387457e-02,2.2577314e-04,-2.7279199e-03,8.9361471e-04,-3.0767320e-02,-3.4359907e-01,7.8057100e-02
1.3999469e+00,2.6367414e-04,1.8851865e-04,5.2646339e-05,-8.8970092e-03,2.4736245e-04,-8.9222005e-03,6.3057476e-04,-3.3786983e-03,1.4501110e-03,4.0480201e-02,-6.5077900e-02,5.5649679e-02
1.4099469e+00,2.1504459e-04,1.4758395e-04,2.7394375e-05,-4.8593228e-03,-4.0750061e-03,-4.8820659e-03,6.5378581e-04,-3.1353804e-03,1.2969733e-03,2.3211070e-03,2.4331812e-02,-1.5313779e-02
1.4199469e+00,1.6125433e-04,-3.3094844e-04,-1.5702988e-04,-5.4071621e-03,-4.7856687e-02,-5.3202436e-03,5.7152756e-04,1.2120840e-03,-1.4534378e-04,-8.2258335e-03,4.3474686e-01,-1.4423185e-01
1.4299469e+00,2.1859428e-04,-7.9858070e-05,5.4684602e-05,5.7413506e-03,2.5101140e-02,5.7612618e-03,4.1853662e-04,-9.5993341e-04,5.5074659e-04,-1.5299109e-02,-2.1720195e-01,6.9609103e-02
1.4399469e+00,4.4742217e-04,2.7040887e-04,2.3210966e-04,2.2855469e-02,3.4926211e-02,2.3063064e-02,2.8386893e-04,-4.0892602e-03,1.6279939e-03,-1.3466781e-02,-3.1293298e-01,1.0772483e-01
1.4499469e+00,4.3570737e-04,1.7489209e-04,1.5772440e-04,-1.1744125e-03,-9.5470899e-03,-1.2055236e-03,4.7586595e-04,-3.3956793e-03,1.3761500e-03,1.9199721e-02,6.9358154e-02,-2.5184419e-02
1.4599469e+00,4.2041392e-04,2.7767657e-04,2.0884451e-04,-1.5247217e-03,1.0284703e-02,-1.4915093e-03,2.4891940e-04,-3.8804532e-03,1.3504233e-03,-2.2694677e-02,-4.8477432e-02,-2.5726686e-03
1.4699469e+00,4.5125743e-04,4.1135603e-04,2.6428960e-04,3.0812260e-03,1.3352892e-02,3.1520057e-03,1.1104109e-04,-4.7187372e-03,1.4943417e-03,-1.3787845e-02,-8.3828488e-02,1.4391857e-02
1.4799469e+00,2.9781619e-04,-1.5443603e-04,-7.2454611e-05,-1.5351940e-02,-5.6573724e-02,-1.5356741e-02,3.1194957e-04,-4.8595796e-05,6.4160993e-04,2.0090867e-02,4.6701459e-01,-8.5273261e-02
1.4899468e+00,3.7504459e-04,-6.9898189e-05,-4.4178441e-05,7.7177929e-03,8.4436461e-03,7.7389823e-03,4.5777482e-04,-8.5446074e-04,1.1547855e-03,1.4582539e-02,-8.0586571e-02,5.1317601e-02
1.4999468e+00,4.9256869e-04,3.1626644e-04,1.8380450e-04,1.1742925e-02,3.8565144e-02,1.1929220e-02,2.7633224e-04,-4.0593787e-03,1.7144598e-03,-1.8144276e-02,-3.2049210e-01,5.5967491e-02
1.5099468e+00,4.8381085e-04,4.1791970e-04,2.0868860e-04,-8.7410986e-04,1.0169430e-02,-8.2866378e-04,1.8298019e-05,-4.7807801e-03,1.6992677e-03,-2.5803446e-02,-7.2140212e-02,-1.5192179e-03
1.5199468e+00,3.5665448e-04,1.1635484e-04,4.6467552e-05,-1.2705667e-02,-3.0127171e-02,-1.2794938e-02,1.4148019e-04,-2.1582436e-03,1.1199407e-03,1.2318229e-02,2.6225390e-01,-5.7932756e-02
1.5299468e+00,3.8717403e-04,2.6648155e-04,1.5198751e-04,3.0547621e-03,1.4999562e-02,3.1130636e-03,5.3678668e-04,-3.7217312e-03,1.7202182e-03,3.9530687e-02,-1.5634891e-01,6.0027814e-02
1.5399468e+00,4.3317822e-04,3.5309920e-04,2.1215095e-04,4.5914324e-03,8.6461882e-03,4.6385645e-03,-2.2064611e-04,-3.5906666e-03,1.5377215e-03,-7.5743352e-02,1.3106470e-02,-1.8249687e-02
1.5499468e+00,3.5623020e-04,1.6898000e-04,1.8382815e-04,-7.6948032e-03,-1.8384381e-02,-7.7604226e-03,4.0595634e-04,-3.1599222e-03,9.7169701e-04,6.2660305e-02,4.3074483e-02,-5.6602506e-02
1.5599468e+00,4.3282425e-04,2.5132267e-04,1.9698298e-04,7.6538924e-03,8.2033517e-03,7.6980149e-03,3.4848603e-04,-3.6774138e-03,1.0946816e-03,-5.7470368e-03,-5.1749217e-02,1.2298471e-02
1.5699468e+00,4.7190943e-04,4.1583256e-04,2.1034113e-04,3.9001042e-03,1.6429844e-02,4.0047528e-03,-2.8068574e-05,-5.3704211e-03,2.0334149e-03,-3.7655496e-02,-1.6930089e-01,9.3873415e-02
1.5799468e+00,3.1934405e-04,3.6083143e-06,3.7506271e-05,-1.5251305e-02,-4.1190763e-02,-1.5347152e-02,2.4138160e-04,-1.8300642e-03,9.9561179e-04,2.6945043e-02,3.5403603e-01,-1.0378040e-01
1.5899467e+00,2.1823824e-04,-5.9520470e-05,2.1740566e-05,-1.0107033e-02,-6.2969496e-03,-1.0124074e-02,5.1275563e-04,-1.0621524e-03,6.7160206e-04,2.7137429e-02,7.6791257e-02,-3.2401004e-02
1.5999470e+00,2.2444128e-04,3.5862968e-06,6.8817653e-05,6.2423622e-04,6.3090510e-03,6.3130010e-04,7.0299951e-04,-1.6669745e-03,7.8884303e-04,1.9023952e-02,-6.0480831e-02,1.1723828e-02
1.6099470e+00,2.4648128e-04,-1.9080974e-04,-7.9590540e-05,2.1892073e-03,-1.9441560e-02,2.2016551e-03,6.8177312e-04,-1.9944065e-04,6.9886236e-04,-2.1226406e-03,1.4675353e-01,-8.9980755e-03
1.6199470e+00,4.0676640e-04,9.8773560e-05,8.1105823e-05,1.6018451e-02,2.8914795e-02,1.6117001e-02,2.8452907e-04,-2.4251473e-03,1.1420182e-03,-3.9724443e-02,-2.2257088e-01,4.4315627e-02
1.6299469e+00,2.7868415e-04,-1.1433266e-04,-1.4332228e-05,-1.2810223e-02,-2.1287296e-02,-1.2845022e-02,4.6415249e-04,-1.3560978e-03,6.1692196e-04,1.7962360e-02,1.0690505e-01,-5.2509675e-02
1.6399469e+00,4.0645064e-04,1.2213075e-04,7.1930393e-05,1.2761162e-02,2.3625048e-02,1.2831467e-02,-1.4375695e-04,-1.8073442e-03,9.4660327e-04,-6.0791002e-02,-4.5124682e-02,3.2968163e-02
1.6499469e+00,4.5262831e-04,2.7707677e-04,8.9035593e-05,4.6076306e-03,1.5477715e-02,4.6841050e-03,-3.3289565e-05,-3.6632416e-03,2.0821480e-03,1.1046749e-02,-1.8558991e-01,1.1355458e-01
1.6599469e+00,3.8554297e-04,-2.2701276e-05,-7.1945491e-05,-6.7074246e-03,-2.9969290e-02,-6.7477090e-03,2.3263565e-04,-1.0369747e-03,1.2050848e-03,2.6592547e-02,2.6262694e-01,-8.7706409e-02
1.6699469e+00,5.0306682e-04,4.7928784e-04,2.3527816e-04,1.1719409e-02,5.0140793e-02,1.2030358e-02,-1.7349877e-04,-5.0577478e-03,2.0636197e-03,-4.0613481e-02,-4.0207770e-01,8.5853574e-02
1.6799469e+00,3.3258044e-04,-7.9001892e-05,-1.4190243e-05,-1.7055394e-02,-5.5796718e-02,-1.7147395e-02,4.9750062e-04,-1.3922360e-03,1.2329678e-03,6.7100002e-02,3.6655154e-01,-8.3065271e-02
1.6899469e+00,3.2385813e-04,-3.1948036e-05,5.2756037e-05,-8.6975673e-04,4.7068994e-03,-8.6654013e-04,4.1919562e-04,-1.3155488e-03,5.7517834e-04,-7.8305073e-03,7.6687195e-03,-6.5779007e-02
1.6999469e+00,3.9094611e-04,8.6855676e-05,9.4095901e-05,6.7020782e-03,1.1862748e-02,6.7466238e-03,1.5434918e-04,-2.4656358e-03,1.2749816e-03,-2.6484669e-02,-1.1500881e-01,6.9980393e-02
1.7099469e+00,2.9838265e-04,1.8254218e-04,6.9520116e-05,-9.2379985e-03,9.6043932e-03,-9.2376663e-03,3.5295162e-04,-3.5082568e-03,1.6169007e-03,1.9860263e-02,-1.0426220e-01,3.4191938e-02
1.7199469e+00,2.2590009e-04,-2.7268971e-04,-1.7987445e-04,-7.2739378e-03,-4.5522908e-02,-7.2245413e-03,5.8571699e-04,5.4288442e-04,1.3624065e-04,2.3276560e-02,4.0511451e-01,-1.4806614e-01
1.7299469e+00,2.5087655e-04,-5.1992528e-05,-2.6336189e-05,2.5091669e-03,2.2065803e-02,2.5207757e-03,5.7289607e-04,-9.9680344e-04,4.5039197e-04,-1.2820937e-03,-1.5396893e-01,3.1415161e-02
1.7399468e+00,4.0616165e-04,1.4588122e-04,9.3905761e-05,1.5512237e-02,1.9746936e-02,1.5596156e-02,1.4675141e-04,-2.4517439e-03,1.2350683e-03,-4.2614507e-02,-1.4549419e-01,7.8467706e-02
1.7499180e+00,4.2003104e-04,2.7157636e-04,2.2414000e-04,1.3923989e-03,1.2600319e-02,1.4391758e-03,2.7720452e-04,-3.6634598e-03,1.4723294e-03,1.3083067e-02,-1.2152228e-01,2.3794782e-02
1.7599180e+00,2.6373327e-04,2.0207308e-05,1.2229270e-04,-1.5632329e-02,-2.5094424e-02,-1.5695421e-02,4.6211776e-04,-2.2518467e-03,5.8068219e-04,1.8491341e-02,1.4116144e-01,-8.9164809e-02
1.7698154e+00,1.4996214e-04,-5.5277949e-04,-3.0368097e-04,-1.1538830e-02,-5.7920076e-02,-1.1309334e-02,6.6924396e-04,3.1172774e-03,-4.4535338e-04,2.0927186e-02,5.4247437e-01,-1.0366644e-01
1.7798154e+00,4.4072917e-04,1.1657149e-04,2.8398928e-05,2.9033415e-02,6.6890989e-02,2.9221309e-02,-1.2752404e-04,-1.6416419e-03,1.1954182e-03,-7.9676876e-02,-4.7589239e-01,1.6407732e-01
1.7898154e+00,4.1699047e-04,-1.9867605e-05,-3.0785742e-05,-2.3753619e-03,-1.3640385e-02,-2.3926376e-03,3.2278675e-04,-1.1617779e-03,1.2270169e-03,4.5031123e-02,4.7986452e-02,3.1598728e-03
1.7998154e+00,5.3191158e-04,4.3675608e-04,2.5000269e-04,1.1458525e-02,4.5614332e-02,1.1714458e-02,-3.1276880e-04,-4.4495349e-03,1.6792750e-03,-6.3555616e-02,-3.2877602e-01,4.5225848e-02
1.8098154e+00,4.0828930e-04,2.0159965e-04,1.5615692e-04,-1.2350496e-02,-2.3474452e-02,-1.2451983e-02,3.2184700e-04,-2.9986895e-03,1.5609825e-03,6.3461641e-02,1.4508469e-01,-1.1829255e-02
1.8198154e+00,3.9208098e-04,7.1967198e-05,7.7963611e-05,-1.6247532e-03,-1.2958678e-02,-1.6532063e-03,4.7335456e-04,-2.3264577e-03,1.3661096e-03,1.5150770e-02,6.7223243e-02,-1.9487314e-02
1.8298154e+00,3.9495895e-04,2.8597461e-05,1.2012810e-06,2.8492284e-04,-4.3377102e-03,2.7949983e-04,5.6301756e-04,-2.0115625e-03,1.5007540e-03,8.9663095e-03,3.1489552e-02,1.3464456e-02
1.8398154e+00,4.2282651e-04,2.5212183e-04,9.8619487e-05,2.7828882e-03,2.2343569e-02,2.8609216e-03,-4.3486154e-06,-3.1499518e-03,1.3530193e-03,-5.6736672e-02,-1.1383904e-01,-1.4773488e-02
1.8498156e+00,1.5325318e-04,-3.3496765e-04,-1.9939212e-04,-2.6989570e-02,-5.8725094e-02,-2.6885653e-02,5.6073747e-04,1.2114813e-03,2.2760792e-06,5.6507315e-02,4.3613332e-01,-1.3507123e-01
1.8598156e+00,3.0552025e-04,6.1143672e-05,6.9628938e-05,1.5219827e-02,3.9579038e-02,1.5316902e-02,1.4332395e-04,-1.9602528e-03,8.2529582e-04,-4.1741392e-02,-3.1717371e-01,8.2302053e-02
1.8698156e+00,3.8039149e-04,2.3748709e-04,1.9898386e-04,7.4809634e-03,1.7604779e-02,7.5625264e-03,2.2842537e-04,-3.7010655e-03,1.3608315e-03,8.5101507e-03,-1.7408144e-01,5.3553615e-02
1.8798156e+00,3.8192359e-04,1.8900452e-04,1.5738187e-04,1.5113830e-04,-4.8488184e-03,1.3675603e-04,3.8805708e-04,-3.4321347e-03,1.2388599e-03,1.5963186e-02,2.6893110e-02,-1.2197173e-02
1.8898156e+00,2.6390859e-04,-1.2492952e-04,-6.2755260e-05,-1.1815020e-02,-3.1378427e-02,-1.1827877e-02,5.2260692e-04,-7.4776550e-04,2.4533514e-04,1.3454997e-02,2.6843717e-01,-9.9352566e-02
1.8998156e+00,2.5961293e-04,-2.4326055e-04,-1.2693333e-04,-4.3616495e-04,-1.1833055e-02,-4.2451866e-04,5.6529835e-04,4.3444734e-04,2.1214963e-04,4.2691465e-03,1.1822140e-01,-3.3185545e-03
1.9098155e+00,3.0003446e-04,-1.3367895e-04,-5.2427742e-05,4.0443505e-03,1.0956130e-02,4.0454925e-03,4.0093310e-04,-1.0351089e-04,5.4409560e-04,-1.6436541e-02,-5.3795874e-02,3.3194629e-02
1.9198155e+00,3.0951322e-04,6.0912817e-05,1.0713023e-04,9.5761422e-04,1.9456440e-02,9.9354374e-04,5.5438438e-04,-2.2925297e-03,1.1068200e-03,1.5345143e-02,-2.1890209e-01,5.6272493e-02
1.9298155e+00,3.4644298e-04,8.9321848e-05,1.0123878e-04,3.6903464e-03,2.8296247e-03,3.7042556e-03,5.6267662e-04,-2.4867107e-03,1.1450609e-03,8.2922442e-04,-1.9418126e-02,3.8240928e-03
1.9398155e+00,3.6075558e-04,-1.7647959e-05,6.0475415e-05,1.4252720e-03,-1.0700120e-02,1.4137397e-03,4.5420135e-04,-1.7430040e-03,7.8985322e-04,-1.0847537e-02,7.4370741e-02,-3.5520800e-02
1.9498155e+00,2.8649521e-04,-2.1494087e-04,-1.1777802e-04,-7.4289289e-03,-1.9728547e-02,-7.4251853e-03,3.3380473e-04,2.3114751e-04,4.9814041e-04,-1.2039673e-02,1.9741534e-01,-2.9171309e-02
1.9598155e+00,4.7960537e-04,3.0854049e-04,2.1668372e-04,1.9296403e-02,5.2257746e-02,1.9568889e-02,2.8530170e-04,-4.3654226e-03,1.5298151e-03,-4.8503077e-03,-4.5965745e-01,1.0316756e-01
1.9698155e+00,5.1113587e-04,5.7718025e-04,3.5071192e-04,3.1439503e-03,2.6843813e-02,3.3291716e-03,-1.0540970e-04,-6.3254576e-03,1.9870263e-03,-3.9071178e-02,-1.9600369e-01,4.5721166e-02
1.9798155e+00,5.7577067e-04,5.8746363e-04,3.0800222e-04,6.4506911e-03,9.9404122e-04,6.4816091e-03,-4.3131174e-04,-5.7241411e-03,1.9090730e-03,-3.2590235e-02,6.0131708e-02,-7.7953363e-03
1.9898155e+00,4.5834766e-04,9.2066915e-05,1.6461081e-05,-1.1732711e-02,-4.9518410e-02,-1.1841374e-02,7.1586827e-05,-1.7348176e-03,1.1191110e-03,5.0289905e-02,3.9893273e-01,-7.8996275e-02
1.9998155e+00,5.0342956e-04,2.1033419e-04,1.1642456e-04,4.5045516e-03,1.1813553e-02,4.5462457e-03,1.1203749e-04,-2.7992712e-03,1.1013882e-03,4.0450697e-03,-1.0644546e-01,-1.7722847e-03
2.0098155e+00,2.7446424e-04,4.9030718e-05,7.2932714e-05,-2.2881992e-02,-1.6056536e-02,-2.2962907e-02,5.5685458e-04,-2.6621584e-03,1.0276302e-03,4.4481752e-02,1.3711297e-02,-7.3758035e-03
2.0198154e+00,1.7991256e-04,3.4339672e-05,3.8721499e-05,-9.4434518e-03,-1.4374828e-03,-9.4717414e-03,6.9450013e-04,-2.6459056e-03,1.3468623e-03,1.3764569e-02,1.6252812e-03,3.1923243e-02
2.0298154e+00,3.6716312e-04,4.1657728e-04,2.5721548e-04,1.8701177e-02,3.8131871e-02,1.8935202e-02,2.4985262e-04,-4.6292175e-03,1.7846474e-03,-4.4464794e-02,-1.9833138e-01,4.3778550e-02
2.0398154e+00,4.2844043e-04,2.9788564e-04,1.6066150e-04,6.1193892e-03,-1.1889697e-02,6.0962143e-03,-7.8013227e-06,-3.3631146e-03,1.3764823e-03,-2.5765418e-02,1.2661041e-01,-4.0816552e-02
2.0498154e+00,4.5265890e-04,2.3293880e-04,1.6460390e-04,2.4168712e-03,-6.5036658e-03,2.4026596e-03,3.1710767e-04,-3.4003230e-03,1.2040033e-03,3.2490930e-02,-3.7208502e-03,-1.7247911e-02
2.0598154e+00,2.8540208e-04,-3.6398541e-06,7.0792323e-05,-1.6729644e-02,-2.3612844e-02,-1.6785298e-02,5.5201381e-04,-2.1364878e-03,5.4458915e-04,2.3490636e-02,1.2638365e-01,-6.5941482e-02
2.0698154e+00,3.9465861e-04,2.3228844e-04,2.3267444e-04,1.0924834e-02,2.3547218e-02,1.1024492e-02,5.0336421e-04,-3.6544207e-03,1.1620901e-03,-4.8649646e-03,-1.5179343e-01,6.1750159e-02
2.0798154e+00,3.8387440e-04,-1.2131786e-05,6.1278515e-05,-1.0901824e-03,-2.4439702e-02,-1.1189556e-03,5.2524759e-04,-1.6138431e-03,9.9919227e-04,2.1883402e-03,2.0405795e-01,-1.6289804e-02
2.0898154e+00,2.7336490e-04,-2.9753071e-04,-1.3448387e-04,-1.1058621e-02,-2.8542152e-02,-1.1037524e-02,4.8905649e-04,6.9157635e-04,5.6954881e-04,-3.6191137e-03,2.3054217e-01,-4.2964387e-02
2.0998156e+00,3.4763226e-04,9.2411494e-07,4.4526043e-05,7.4324897e-03,2.9828383e-02,7.4863536e-03,4.2494178e-04,-1.7772805e-03,9.0948614e-04,-6.4113236e-03,-2.4688003e-01,3.3992955e-02
2.1098156e+00,3.2558916e-04,6.8114878e-05,8.2410468e-05,-2.1978398e-03,6.7260246e-03,-2.1895550e-03,6.8397934e-04,-2.4731512e-03,8.5076384e-04,2.5903780e-02,-6.9587136e-02,-5.8722355e-03
2.1198156e+00,4.4645611e-04,2.5834989e-04,1.3374575e-04,1.2072095e-02,1.8976512e-02,1.2174882e-02,3.4441739e-04,-3.5286918e-03,1.7493854e-03,-3.3956227e-02,-1.0555417e-01,8.9862238e-02
2.1298156e+00,4.4818125e-04,2.0226399e-04,1.0116009e-04,1.7058131e-04,-5.6091503e-03,1.5553112e-04,2.8748599e-04,-3.0845247e-03,1.8584088e-03,-5.6931461e-03,4.4416757e-02,1.0902357e-02
2.1398156e+00,5.0313679e-04,3.9256084e-04,2.1878690e-04,5.4916141e-03,1.9000121e-02,5.6008472e-03,4.0898815e-04,-4.9210978e-03,2.1317347e-03,1.2150228e-02,-1.8365749e-01,2.7332615e-02
2.1498156e+00,5.1555671e-04,3.7816067e-04,2.1488133e-04,1.2395655e-03,-1.4455410e-03,1.2379963e-03,1.1349631e-04,-4.3362094e-03,1.8213632e-03,-2.9549213e-02,5.8488898e-02,-3.1037181e-02
2.1598155e+00,5.6946698e-04,5.9404700e-04,3.1636411e-04,5.3781502e-03,2.1554827e-02,5.5372682e-03,-5.1657358e-05,-6.2348771e-03,2.1801762e-03,-1.6515382e-02,-1.8986695e-01,3.5881337e-02
2.1698155e+00,4.5401112e-04,3.1421791e-04,2.2984702e-04,-1.1532877e-02,-2.7931584e-02,-1.1681851e-02,1.5961368e-04,-4.2597334e-03,1.4874228e-03,2.1127124e-02,1.9751456e-01,-6.9275409e-02
2.1798155e+00,4.0229883e-04,2.3397038e-04,1.7752722e-04,-5.1677788e-03,-8.0039428e-03,-5.2068298e-03,3.5396255e-04,-3.6569341e-03,1.2166371e-03,1.9434905e-02,6.0279994e-02,-2.7078594e-02
2.1898155e+00,2.7343348e-04,-4.6958151e-05,1.9841123e-05,-1.2891295e-02,-2.8070103e-02,-1.2931354e-02,4.8035846e-04,-1.2842261e-03,6.7839452e-04,1.2639604e-02,2.3727102e-01,-5.3824311e-02
2.1998155e+00,2.9852348e-04,4.1290049e-05,2.6718986e-05,2.5112545e-03,8.8187716e-03,2.5279736e-03,4.8185692e-04,-1.9237207e-03,7.9677450e-04,1.4984597e-04,-6.3949523e-02,1.1838009e-02
2.2098155e+00,3.0666321e-04,7.9891491e-05,5.8292255e-05,8.1541130e-04,3.8576642e-03,8.2424311e-04,5.9999862e-04,-2.4336419e-03,1.0778254e-03,1.1814181e-02,-5.0992168e-02,2.8105112e-02
2.2198155e+00,3.3817485e-04,8.0606879e-05,7.9302276e-05,3.1477146e-03,6.1696678e-05,3.1548233e-03,7.1331290e-04,-2.4073019e-03,1.1108781e-03,1.1331439e-02,2.6340013e-03,3.3052753e-03
2.2298155e+00,3.4159010e-04,3.0565120e-05,6.7109293e-05,3.3881240e-04,-5.0049173e-03,3.3333505e-04,4.9852624e-04,-1.6799544e-03,6.3983934e-04,-2.1478686e-02,7.2734823e-02,-4.7103918e-02
2.2398155e+00,4.2815961e-04,2.8967936e-04,2.0008396e-04,8.6441111e-03,2.5883570e-02,8.7526665e-03,-4.8829313e-05,-3.2490286e-03,1.3370348e-03,-5.4735608e-02,-1.5690757e-01,6.9719608e-02
2.2498155e+00,2.3452295e-04,-3.3370713e-04,-1.2950812e-04,-1.9395208e-02,-6.2354780e-02,-1.9280209e-02,5.3322036e-04,1.3665496e-03,8.8522821e-05,5.8205023e-02,4.6155827e-01,-1.2485131e-01
2.2598155e+00,4.0757433e-04,4.0554771e-04,3.3196817e-04,1.7270563e-02,7.3834273e-02,1.7724338e-02,-1.8403355e-05,-5.2249054e-03,1.9185061e-03,-5.5162424e-02,-6.5914613e-01,1.8299850e-01
2.2698154e+00,2.6056329e-04,4.4923862e-04,3.6340901e-04,-1.4670191e-02,4.4497550e-03,-1.4707818e-02,-1.8195476e-04,-5.6611911e-03,2.1554453e-03,-1.6355156e-02,-4.3628614e-02,2.3693949e-02
2.2798154e+00,-4.7969117e-05,1.1138328e-04,1.7968325e-04,-3.0808637e-02,-3.3689288e-02,-3.1002788e-02,2.0483513e-04,-2.9062273e-03,1.6695123e-03,3.8679026e-02,2.7549665e-01,-4.8593350e-02
2.2898154e+00,-3.5450693e-04,-1.2082225e-05,1.3638898e-04,-3.0613464e-02,-1.2283490e-02,-3.0719399e-02,1.9487875e-04,-1.8593734e-03,1.3937096e-03,-9.9563972e-04,1.0468549e-01,-2.7580297e-02
2.2998154e+00,-7.0975606e-04,-1.7958938e-04,1.1894663e-04,-3.5497080e-02,-1.6682398e-02,-3.5584906e-02,5.5899013e-04,-1.3626094e-03,1.0472926e-03,3.6411173e-02,4.9676446e-02,-3.4641733e-02
2.3098154e+00,-1.1128358e-03,-1.5109840e-04,1.9734802e-04,-4.0255657e-02,3.0143936e-03,-4.0348295e-02,9.6286046e-04,-3.1344112e-03,1.2296470e-03,4.0387071e-02,-1.7718034e-01,1.8235462e-02
2.3198154e+00,-1.3305072e-03,-1.4513327e-04,1.9938958e-04,-2.1748441e-02,6.8477343e-04,-2.1783275e-02,9.5651186e-04,-3.0957739e-03,8.3313377e-04,-6.3486041e-04,3.8637283e-03,-3.9651365e-02
2.3298154e+00,-1.4082846e-03,-8.5816761e-05,2.3564467e-04,-7.7628396e-03,5.9657029e-03,-7.7665759e-03,1.0523746e-03,-3.3260295e-03,1.1118742e-03,9.5862849e-03,-2.3025581e-02,2.7874073e-02
2.3398154e+00,-1.4337159e-03,-3.7249559e-05,3.2210227e-04,-2.5327125e-03,4.8704329e-03,-2.5272717e-03,1.1630706e-03,-4.2376943e-03,1.8748605e-03,1.1069611e-02,-9.1166570e-02,7.6298695e-02
2.3498156e+00,-1.4865678e-03,8.6911055e-05,4.8239021e-04,-5.2606216e-03,1.2445482e-02,-5.2393967e-03,8.4553838e-04,-4.7901230e-03,2.6355355e-03,-3.1752497e-02,-5.5241606e-02,7.6065764e-02
2.3598156e+00,-1.7170577e-03,3.7033162e-04,6.0446465e-04,-2.2966253e-02,2.8495449e-02,-2.2942279e-02,2.4293274e-04,-6.4153084e-03,3.2864036e-03,-6.0260621e-02,-1.6251869e-01,6.5086871e-02
2.3698156e+00,-2.2494923e-03,8.6354152e-05,4.7515695e-04,-5.3169678e-02,-2.8044314e-02,-5.3504015e-02,1.1232063e-03,-5.4961155e-03,1.9832870e-03,8.8027444e-02,9.1919372e-02,-1.3031178e-01
2.3798156e+00,-2.8349563e-03,-3.2245615e-04,2.5193043e-04,-5.8607820e-02,-4.0570674e-02,-5.8700754e-02,1.9621891e-03,-3.3332373e-03,3.1986918e-04,8.3898354e-02,2.1628802e-01,-1.6634195e-01
2.3898156e+00,-3.1426827e-03,-6.1347880e-04,1.5393517e-04,-3.0823025e-02,-2.8962837e-02,-3.0853738e-02,2.2055201e-03,-2.3204301e-03,4.4691541e-04,2.4333126e-02,1.0128082e-01,1.2704636e-02
2.3998156e+00,-3.2497712e-03,-6.5195972e-04,3.4385565e-04,-1.0708960e-02,-3.8006095e-03,-1.0725711e-02,2.4365070e-03,-1.9941934e-03,8.6316110e-04,2.3098713e-02,3.2623702e-02,4.1624609e-02
2.4098155e+00,-3.2573884e-03,-7.4067625e-04,3.0571035e-04,-7.8563386e-04,-8.8680973e-03,-7.7874085e-04,2.8103108e-03,-1.8020079e-03,1.3268345e-03,3.7380413e-02,1.9218576e-02,4.6367381e-02
2.4198155e+00,-3.4963321e-03,-1.3048688e-03,-7.1968660e-05,-2.4058943e-02,-5.6413085e-02,-2.3743512e-02,3.0737135e-03,2.8327646e-03,3.6656478e-04,2.6340297e-02,4.6347769e-01,-9.6027060e-02
2.4298155e+00,-3.6283755e-03,-9.8427440e-04,6.5389259e-05,-1.3098586e-02,3.2092055e-02,-1.3230507e-02,2.6818116e-03,2.0515151e-04,1.4935011e-03,-3.9190227e-02,-2.6276156e-01,1.1269374e-01
2.4398155e+00,-4.0906188e-03,-1.1045351e-03,1.6375922e-04,-4.6241505e-02,-1.1848909e-02,-4.6253002e-02,3.2322574e-03,-5.9891381e-04,4.6516858e-04,5.5044630e-02,-8.0406608e-02,-1.0283335e-01
2.4498155e+00,-4.5727274e-03,-8.2479367e-04,3.7892946e-04,-4.8118874e-02,2.8213791e-02,-4.8163183e-02,2.9951475e-03,-1.9785862e-03,1.6644353e-04,-2.3711016e-02,-1.3796737e-01,-2.9872533e-02
2.4598155e+00,-5.0722253e-03,-9.4567818e-04,3.7273849e-04,-5.0011830e-02,-1.1814623e-02,-4.9953319e-02,3.3142170e-03,-2.1671412e-03,-4.4470095e-04,3.1906989e-02,-1.8855515e-02,-6.1114506e-02
2.4698155e+00,-5.2528388e-03,-8.0808796e-04,4.5073667e-04,-1.8023062e-02,1.3871593e-02,-1.8013484e-02,3.1376415e-03,-3.1026422e-03,-2.7399539e-04,-1.7657572e-02,-9.3550193e-02,1.7070572e-02
2.4798155e+00,-5.4797438e-03,-1.4081061e-03,1.6209584e-04,-2.2974322e-02,-5.9931006e-02,-2.2591989e-02,4.3891467e-03,1.2950694e-03,-9.1138947e-04,1.2515064e-01,4.3977159e-01,-6.3739469e-02
2.4898155e+00,-5.4958145e-03,-1.6044019e-03,1.4001265e-04,-1.6976577e-03,-1.9626700e-02,-1.5482714e-03,4.5908495e-03,2.9709348e-03,-2.9786314e-04,2.0170298e-02,1.6758670e-01,6.1352691e-02
2.4998155e+00,-5.7280681e-03,-1.9193395e-03,-1.2075444e-05,-2.3393295e-02,-3.1487729e-02,-2.3064519e-02,5.1965934e-03,4.9714278e-03,-1.9685779e-04,6.0574451e-02,2.0004949e-01,1.0100545e-02
2.5098155e+00,-5.8223228e-03,-1.0412614e-03,3.6639923e-04,-9.1726324e-03,8.7823937e-02,-9.5249483e-03,2.7456941e-03,1.0025832e-03,1.2429782e-03,-2.4509017e-01,-3.9688485e-01,1.4398373e-01
2.5198154e+00,-6.6036967e-03,-1.8714540e-03,-2.1744765e-05,-7.8646730e-02,-8.3001896e-02,-7.7643491e-02,4.8251054e-03,4.6321735e-03,-1.4037291e-03,2.0794134e-01,3.6295938e-01,-2.6467098e-01
2.5298154e+00,-7.0981745e-03,-1.8933242e-03,6.3944730e-06,-4.9501055e-02,-2.1127685e-03,-4.9397782e-02,5.0460227e-03,3.5481731e-03,-8.6628973e-04,2.2091747e-02,-1.0840014e-01,5.3743989e-02
2.5398154e+00,-7.5940923e-03,-1.9779378e-03,2.0403691e-04,-4.9663350e-02,-8.3419060e-03,-4.9540463e-02,5.1382486e-03,2.7338234e-03,-5.7892731e-04,9.2225952e-03,-8.1435042e-02,2.8736270e-02
2.5498154e+00,-8.0583530e-03,-2.3402219e-03,-4.4607633e-05,-4.6696879e-02,-3.6254990e-02,-4.6132921e-02,5.3649733e-03,5.9717555e-03,-1.6613364e-03,2.2672499e-02,3.2379352e-01,-1.0824102e-01
2.5598154e+00,-8.3413030e-03,-2.3211095e-03,-3.2520353e-05,-2.8341507e-02,1.8849186e-03,-2.8250237e-02,5.1045233e-03,6.0448056e-03,-2.0025712e-03,-2.6045028e-02,7.3050135e-03,-3.4123505e-02
2.5698154e+00,-8.2982261e-03,-1.8496877e-03,4.4003566e-04,4.5348853e-03,4.7124586e-02,4.2672996e-03,4.7941197e-03,8.2977552e-04,-2.8606933e-04,-3.1040391e-02,-5.2150350e-01,1.7165035e-01
2.5798154e+00,-8.3882132e-03,-1.8332709e-03,5.6813065e-04,-8.9825825e-03,1.6788117e-03,-9.0079929e-03,4.7305517e-03,6.0187225e-04,9.1895773e-04,-6.3568054e-03,-2.2790349e-02,1.2050282e-01
2.5898154e+00,-8.4725508e-03,-1.5384386e-03,8.0306879e-04,-8.2992588e-03,2.9524177e-02,-8.4240576e-03,3.9798799e-03,-8.9925368e-04,2.0261975e-03,-7.5067254e-02,-1.5011274e-01,1.1072408e-01
2.5998156e+00,-9.1510282e-03,-1.9392896e-03,6.2518549e-04,-6.7988475e-02,-3.9836569e-02,-6.7849590e-02,4.9177247e-03,1.2746501e-03,7.9579281e-04,9.3782341e-02,2.1738541e-01,-1.2303765e-01
2.6098156e+00,-9.7220570e-03,-1.9315940e-03,6.6983458e-04,-5.7099480e-02,1.0237175e-03,-5.7102385e-02,5.0190128e-03,5.6800257e-04,-1.9848158e-05,1.0128814e-02,-7.0664825e-02,-8.1564175e-02
2.6198156e+00,-1.0331879e-02,-2.3611698e-03,5.1057285e-04,-6.1280521e-02,-4.2687772e-02,-6.0872736e-02,5.8470896e-03,1.4359162e-03,-7.8892505e-04,8.2807756e-02,8.6791446e-02,-7.6907762e-02
2.6298156e+00,-1.0390695e-02,-2.5154328e-03,5.7917272e-04,-5.9802517e-03,-1.5396288e-02,-5.8607821e-03,6.4259631e-03,1.3767415e-03,6.1403264e-05,5.7887411e-02,-5.9174730e-03,8.5032912e-02
2.6398156e+00,-1.0442009e-02,-2.7586032e-03,5.3070804e-04,-5.2964619e-03,-2.4297989e-02,-5.0533972e-03,6.9226960e-03,3.3442540e-03,6.1171550e-04,4.9673340e-02,1.9675144e-01,5.5031276e-02
2.6498156e+00,-1.0858053e-02,-2.8696894e-03,5.1031832e-04,-4.1652018e-02,-1.0954170e-02,-4.1597799e-02,7.2710934e-03,3.5642431e-03,7.7119251e-04,3.4839765e-02,2.1998934e-02,1.5947716e-02
2.6598155e+00,-1.1348596e-02,-2.9394634e-03,4.8736189e-04,-4.9126596e-02,-6.8119493e-03,-4.9005220e-02,7.2368889e-03,3.8705742e-03,-4.7033601e-04,-3.4204510e-03,3.0633133e-02,-1.2415297e-01
2.6698155e+00,-1.1808634e-02,-2.5973478e-03,7.8789028e-04,-4.5784970e-02,3.4523363e-02,-4.5989386e-02,7.0079666e-03,2.1259188e-04,-4.7735824e-04,-2.2892253e-02,-3.6579858e-01,-7.0222342e-04
2.6798155e+00,-1.2356572e-02,-2.6668141e-03,8.6016473e-04,-5.4882014e-02,-6.5235768e-03,-5.4757492e-02,7.2099238e-03,-5.0807531e-04,-7.2224209e-04,2.0195738e-02,-7.2066787e-02,-2.4488409e-02
2.6898155e+00,-1.2591517e-02,-2.6803378e-03,1.0520330e-03,-2.3496546e-02,-1.1201588e-03,-2.3504707e-02,7.6845362e-03,-2.1966957e-03,3.2642970e-04,4.7461294e-02,-1.6886220e-01,1.0486728e-01
2.6998155e+00,-1.2737033e-02,-2.7576703e-03,1.1261191e-03,-1.4590799e-02,-7.5976386e-03,-1.4583801e-02,7.7277234e-03,-1.5739468e-03,1.3836654e-03,4.3187147e-03,6.2274949e-02,1.0572367e-01
2.7098155e+00,-1.3281848e-02,-4.0174313e-03,1.9585402e-04,-5.5648892e-02,-1.2606431e-01,-5.3079863e-02,8.7108424e-03,1.0558247e-02,-1.3239986e-03,9.8311998e-02,1.2132206e+00,-2.7076665e-01
2.7198155e+00,-1.3120604e-02,-2.8153844e-03,9.9192664e-04,1.7059354e-02,1.2007579e-01,1.6123627e-02,7.9850286e-03,2.2086649e-04,1.5088736e-03,-7.2581446e-02,-1.0337391e+00,2.8328749e-01
2.7298155e+00,-1.3426959e-02,-2.9161533e-03,1.0357343e-03,-3.0662239e-02,-9.8237679e-03,-3.0690974e-02,8.2398357e-03,-1.1744563e-05,1.8028525e-03,2.5480732e-02,-2.3261127e-02,2.9397919e-02
2.7398155e+00,-1.4029490e-02,-3.0531927e-03,1.0958184e-03,-6.0248374e-02,-1.3149853e-02,-6.0381323e-02,8.5991303e-03,-5.8745197e-04,1.9965421e-03,3.5929495e-02,-5.7570796e-02,1.9368975e-02
2.7498155e+00,-1.4725906e-02,-3.0002311e-03,1.2070197e-03,-6.9453113e-02,6.0415663e-03,-6.9769108e-02,8.7686637e-03,-1.9340955e-03,1.9997456e-03,1.6953356e-02,-1.3466448e-01,3.2035303e-04
2.7598155e+00,-1.5225837e-02,-2.6836896e-03,1.4054383e-03,-4.9646732e-02,3.2384815e-02,-4.9870370e-02,8.5911179e-03,-6.0501272e-03,1.4528755e-03,-1.7754600e-02,-4.1160356e-01,-5.4687070e-02
2.7698154e+00,-1.5731335e-02,-2.8715581e-03,1.3335094e-03,-5.0664469e-02,-1.8113718e-02,-5.0680498e-02,8.3266031e-03,-4.9686789e-03,7.9086892e-04,-2.6451505e-02,1.0814493e-01,-6.6200718e-02
2.7798154e+00,-1.5992706e-02,-2.8765957e-03,1.5379455e-03,-2.6098410e-02,-1.0052130e-04,-2.6180530e-02,8.7914446e-03,-6.6248670e-03,1.6125047e-03,4.6484194e-02,-1.6561897e-01,8.2163654e-02
2.7898154e+00,-1.6101471e-02,-2.8403593e-03,1.6512267e-03,-1.0818939e-02,3.7927597e-03,-1.0876281e-02,9.0743936e-03,-6.4817400e-03,2.2268919e-03,2.8294933e-02,1.4312716e-02,6.1438779e-02
2.7998154e+00,-1.6334610e-02,-2.7519149e-03,1.7557124e-03,-2.3165237e-02,9.2044004e-03,-2.3322781e-02,8.6196280e-03,-6.8220318e-03,3.0653250e-03,-4.5476610e-02,-3.4029208e-02,8.3843395e-02
2.8098154e+00,-1.6877535e-02,-3.0382610e-03,1.5477596e-03,-5.4417411e-02,-2.7925675e-02,-5.4536163e-02,8.8316243e-03,-4.1918285e-03,2.3152585e-03,2.1199649e-02,2.6302057e-01,-7.5006727e-02
2.8198154e+00,-1.7598973e-02,-3.3563649e-03,1.4608213e-03,-7.2386144e-02,-3.0948325e-02,-7.2276065e-02,9.4499084e-03,-2.4770330e-03,7.6369779e-04,6.1828469e-02,1.7147972e-01,-1.5515622e-01
2.8298154e+00,-1.8351424e-02,-3.8914309e-03,1.2506959e-03,-7.5859988e-02,-5.2679367e-02,-7.5211680e-02,1.0635627e-02,-3.1902190e-04,-6.6404712e-04,1.1857198e-01,2.1580131e-01,-1.4277463e-01
2.8398154e+00,-1.8574933e-02,-3.9540464e-03,1.3947871e-03,-2.2413888e-02,-5.9894744e-03,-2.2362362e-02,1.1161077e-02,-9.9444384e-04,2.4566273e-04,5.2545086e-02,-6.7542259e-02,9.0971072e-02
2.8498156e+00,-1.8763787e-02,-4.6449961e-03,1.1594279e-03,-1.9687274e-02,-6.8953042e-02,-1.8576152e-02,1.1615059e-02,4.4665193e-03,-5.4365333e-05,4.5397174e-02,5.4608382e-01,-3.0002120e-02
2.8598156e+00,-1.8743874e-02,-3.9322947e-03,1.5702992e-03,2.7548874e-03,7.1244191e-02,2.0122225e-03,1.0771008e-02,-2.1623152e-04,1.9893702e-03,-8.4405205e-02,-4.6827553e-01,2.0437375e-01
2.8698156e+00,-1.8999815e-02,-3.4798752e-03,1.8987497e-03,-2.5068594e-02,4.5581298e-02,-2.5512167e-02,1.0114827e-02,-3.2339797e-03,2.6007390e-03,-6.5618172e-02,-3.0177510e-01,6.1136935e-02
2.8798156e+00,-1.9845137e-02,-4.5210486e-03,1.5975242e-03,-8.5706033e-02,-1.0336244e-01,-8.4276436e-02,1.1670643e-02,2.8263971e-03,4.2016476e-04,1.5558173e-01,6.0603825e-01,-2.1805763e-01
2.8898156e+00,-2.0900719e-02,-5.4620776e-03,1.2480164e-03,-1.0681203e-01,-9.3500432e-02,-1.0483002e-01,1.2873424e-02,7.2655493e-03,-4.8419858e-04,1.2027819e-01,4.4391565e-01,-9.0436420e-02
2.8998156e+00,-2.1751167e-02,-5.2996915e-03,1.5347811e-03,-8.4832877e-02,1.6985020e-02,-8.5110863e-02,1.2580786e-02,3.7873423e-03,1.1942430e-05,-2.9263788e-02,-3.4782103e-01,4.9614149e-02
2.9098155e+00,-2.2433290e-02,-5.2290519e-03,1.6327495e-03,-6.8144215e-02,7.7758924e-03,-6.8203131e-02,1.2764120e-02,2.3190797e-03,-4.0357599e-04,1.8333409e-02,-1.4682641e-01,-4.1551882e-02
2.9198155e+00,-2.2894629e-02,-5.0134475e-03,1.8113550e-03,-4.5813728e-02,2.2182714e-02,-4.6157970e-02,1.2941950e-02,-5.8523936e-04,8.0801998e-04,1.7783034e-02,-2.9043218e-01,1.2115971e-01
2.9298155e+00,-2.3269722e-02,-5.1065818e-03,1.8760993e-03,-3.7583746e-02,-8.8104849e-03,-3.7556308e-02,1.3188057e-02,-1.9912114e-04,1.2026845e-03,2.4610694e-02,3.8611859e-02,3.9466488e-02
2.9398155e+00,-2.3943637e-02,-5.7371241e-03,1.6867886e-03,-6.8209318e-02,-6.2286902e-02,-6.7282359e-02,1.4175383e-02,2.8827498e-03,1.0270227e-03,9.8732681e-02,3.0818739e-01,-1.7566195e-02
2.9498155e+00,-2.4543952e-02,-5.8711485e-03,1.7918751e-03,-6.0167337e-02,-1.2694921e-02,-6.0049514e-02,1.4689185e-02,2.9248420e-03,9.1005759e-04,5.1380252e-02,4.2092202e-03,-1.1696522e-02
2.9598155e+00,-2.5260073e-02,-5.4740632e-03,2.1946133e-03,-7.0938986e-02,4.0778192e-02,-7.1681010e-02,1.4226705e-02,-7.6530112e-04,1.4094533e-03,-4.6248005e-02,-3.6901466e-01,4.9939615e-02
2.9698155e+00,-2.6423509e-02,-5.8005783e-03,2.1325368e-03,-1.1680955e-01,-3.0937291e-02,-1.1634539e-01,1.4705858e-02,1.3330663e-06,1.4795892e-05,4.7915291e-02,7.6663491e-02,-1.3946587e-01
2.9798155e+00,-2.7329631e-02,-6.0335067e-03,2.0875151e-03,-9.1042239e-02,-2.1916917e-02,-9.0524548e-02,1.5305198e-02,1.4987932e-04,-9.2818591e-04,5.9934125e-02,1.4854639e-02,-9.4298270e-02
2.9898155e+00,-2.7853617e-02,-5.8227952e-03,2.4630148e-03,-5.2035969e-02,2.2086285e-02,-5.2341903e-02,1.5677236e-02,-3.7467964e-03,4.9354758e-04,3.7203817e-02,-3.8966794e-01,1.4217348e-01
2.9998155e+00,-2.8306158e-02,-6.2057089e-03,2.4591463e-03,-4.5798454e-02,-3.7485244e-02,-4.5381412e-02,1.6011013e-02,-1.6919404e-03,1.3908469e-03,3.3377758e-02,2.0548579e-01,8.9730015e-02
3.0098155e+00,-2.9082707e-02,-7.5112291e-03,1.6736560e-03,-8.0031492e-02,-1.2985721e-01,-7.6397054e-02,1.7801268e-02,9.1962306e-03,-8.3695437e-04,1.7902568e-01,1.0888181e+00,-2.2278034e-01
3.0198154e+00,-2.9716818e-02,-7.3430189e-03,1.8882226e-03,-6.3138337e-02,1.7565151e-02,-6.3481645e-02,1.7794322e-02,6.0149298e-03,-5.7570890e-04,-6.9469718e-04,-3.1813039e-01,2.6124572e-02
3.0298154e+00,-3.0389234e-02,-6.9325295e-03,2.3440529e-03,-6.6437276e-02,4.2175904e-02,-6.7343753e-02,1.7681832e-02,8.2517351e-04,1.0120400e-03,-1.1248938e-02,-5.1897612e-01,1.5877504e-01
3.0398154e+00,-3.1409931e-02,-7.3269932e-03,2.3663793e-03,-1.0271233e-01,-3.7831259e-02,-1.0203656e-01,1.8440150e-02,2.6803002e-03,6.6032317e-04,7.5831823e-02,1.8551284e-01,-3.5171716e-02
3.0498154e+00,-3.2615655e-02,-8.0500024e-03,2.1595946e-03,-1.2209512e-01,-7.0641679e-02,-1.2002267e-01,1.9753360e-02,6.1241237e-03,-9.7923105e-04,1.3132113e-01,3.4438268e-01,-1.6395558e-01
3.0598154e+00,-3.3517171e-02,-8.3291997e-03,2.1171011e-03,-9.0834194e-02,-2.6746616e-02,-8.9821634e-02,2.0164461e-02,7.2319516e-03,-1.5308970e-03,4.1110137e-02,1.1078290e-01,-5.5166650e-02
3.0698154e+00,-3.4557489e-02,-8.6907559e-03,2.1027841e-03,-1.0490884e-01,-3.4876183e-02,-1.0358723e-01,2.0579554e-02,8.3769233e-03,-1.4900712e-03,4.1509329e-02,1.1449728e-01,4.0825902e-03
3.0798154e+00,-3.5636648e-02,-8.5114807e-03,2.4626703e-03,-1.0760863e-01,1.9622941e-02,-1.0792804e-01,2.0159030e-02,4.4148896e-03,-7.0352893e-04,-4.2052421e-02,-3.9620375e-01,7.8654298e-02
3.0898154e+00,-3.6736925e-02,-8.6673809e-03,2.5782948e-03,-1.1044870e-01,-1.3732794e-02,-1.0985326e-01,2.0719440e-02,3.8737726e-03,-1.1059224e-03,5.6041062e-02,-5.4111749e-02,-4.0239382e-02
3.0998156e+00,-3.7659150e-02,-8.9726540e-03,2.6855210e-03,-9.2940587e-02,-2.8928089e-02,-9.2012464e-02,2.1603524e-02,4.3522880e-03,-8.9248399e-04,8.8406359e-02,4.7850446e-02,2.1343349e-02
3.1098156e+00,-3.8506220e-02,-9.1861162e-03,2.8057098e-03,-8.5151267e-02,-1.9739703e-02,-8.4651299e-02,2.2493780e-02,3.5906538e-03,1.7103077e-04,8.9025739e-02,-7.6163495e-02,1.0635158e-01
3.1198156e+00,-3.9330164e-02,-8.7511313e-03,3.1287015e-03,-8.1252612e-02,4.5411772e-02,-8.2496112e-02,2.2401858e-02,-9.5158502e-04,1.7805142e-03,-9.1922003e-03,-4.5422431e-01,1.6094850e-01
3.1298156e+00,-4.0830131e-02,-9.8181103e-03,2.7887737e-03,-1.5253985e-01,-1.0351848e-01,-1.4966004e-01,2.4349884e-02,3.3647660e-03,6.9478245e-05,1.9480276e-01,4.3163551e-01,-1.7110376e-01
3.1398156e+00,-4.1860734e-02,-9.2846063e-03,3.3739618e-03,-1.0154810e-01,5.5959218e-02,-1.0317798e-01,2.3729872e-02,-1.7283316e-03,2.1068770e-03,-6.2001267e-02,-5.0931025e-01,2.0374007e-01
3.1498156e+00,-4.3556560e-02,-1.0061030e-02,3.3536780e-03,-1.7126982e-01,-7.3240611e-02,-1.6984536e-01,2.5806004e-02,-1.0810361e-06,1.5314845e-03,2.0761337e-01,1.7272522e-01,-5.7539301e-02
3.1598155e+00,-4.5326586e-02,-1.0648826e-02,3.2612490e-03,-1.7838715e-01,-5.3990007e-02,-1.7713862e-01,2.7140145e-02,1.9914250e-04,8.2166520e-04,1.3341425e-01,2.0022373e-02,-7.0982001e-02
3.1698155e+00,-4.6884510e-02,-1.1164249e-02,3.3025584e-03,-1.5711239e-01,-4.7394347e-02,-1.5578423e-01,2.8103635e-02,1.6051816e-03,4.2985987e-04,9.6349065e-02,1.4060405e-01,-3.9180570e-02
3.1798155e+00,-4.8307992e-02,-1.1273692e-02,3.4977462e-03,-1.4236826e-01,-6.6183896e-03,-1.4259516e-01,2.9196878e-02,-1.1624166e-03,1.6772285e-03,1.0932445e-01,-2.7676009e-01,1.2473698e-01
