time, x, y, z, vx, vy, vz, yaw, pitch, roll, yaw_rate, pitch_rate, roll_rate
0.0000000e+00,0.0000000e+00,0.0000000e+00,0.0000000e+00,0.0000000e+00,0.0000000e+00,0.0000000e+00,0.0000000e+00,0.0000000e+00,0.0000000e+00,0.0000000e+00,0.0000000e+00,0.0000000e+00
9.9999905e-03,-4.4168221e-04,6.1338707e-04,-7.9672091e-05,-4.4221556e-02,6.1686585e-02,-4.3627220e-02,8.7590062e-04,-7.0512069e-03,-2.4263282e-03,8.7590145e-02,-7.0512137e-01,-2.4263305e-01
1.9999981e-02,1.9571578e-04,4.9745229e-04,7.0245335e-05,6.3694694e-02,-1.2081436e-02,6.3694374e-02,1.8943370e-04,-7.4659514e-03,6.7389235e-04,-6.8646758e-02,-4.1474482e-02,3.1002235e-01
2.9999971e-02,2.1900593e-05,3.4817399e-04,2.3967005e-05,-1.7386131e-02,-1.4827056e-02,-1.7463015e-02,8.5649814e-05,-5.7000695e-03,-1.9090085e-04,-1.0378398e-02,1.7658836e-01,-8.6479402e-02
3.9999962e-02,4.1515518e-05,3.9644886e-04,7.1049911e-05,1.9626344e-03,4.8163400e-03,1.9875948e-03,1.2002145e-04,-5.5293159e-03,-2.8583842e-04,3.4371670e-03,1.7075379e-02,-9.4937658e-03
4.9999952e-02,2.0439079e-05,4.4762407e-04,1.2135359e-04,-2.1075195e-03,5.1301507e-03,-2.0768552e-03,1.5133146e-04,-5.8826508e-03,-3.0749329e-04,3.1310035e-03,-3.5333525e-02,-2.1654893e-03
5.9999943e-02,8.8521755e-05,3.7549537e-04,5.5983196e-05,6.8090177e-03,-7.2539534e-03,6.7637434e-03,1.5366744e-04,-5.8997419e-03,-2.7206874e-04,2.3359872e-04,-1.7091135e-03,3.5424582e-03
6.9999933e-02,4.4293324e-05,-5.5005848e-05,-6.4072769e-05,-4.4199191e-03,-4.3049770e-02,-4.4295920e-03,-6.7409584e-05,-1.5605971e-04,5.9366486e-06,-2.2107724e-02,5.7436877e-01,2.7800566e-02
7.9999924e-02,-3.6007824e-05,8.8428453e-05,2.0960128e-05,-8.0300419e-03,1.4356915e-02,-8.0060938e-03,5.3500768e-05,-1.6265576e-03,-8.5540482e-05,1.2091047e-02,-1.4704993e-01,-9.1477218e-03
8.9999914e-02,-3.3118713e-04,1.6447687e-04,8.6588231e-05,-2.9542076e-02,7.6960711e-03,-2.9470150e-02,9.7525793e-04,-2.1181077e-03,-1.0693433e-03,9.2175805e-02,-4.9155055e-02,-9.8380378e-02
9.9999905e-02,-7.5016118e-05,7.5404251e-05,3.2198866e-05,2.5618605e-02,-8.9427857e-03,2.5603269e-02,6.8867020e-05,-1.3179290e-03,-8.1696356e-05,-9.0639178e-02,8.0017937e-02,9.8764791e-02
1.0999990e-01,-9.4214435e-05,7.2111043e-05,-1.1274657e-05,-1.9199116e-03,-3.2663816e-04,-1.9202139e-03,4.4028580e-05,-1.3533302e-03,-3.3074844e-05,-2.4838464e-03,-3.5401239e-03,4.8621559e-03
1.1999989e-01,1.8705600e-04,4.8515159e-04,5.2371413e-05,2.8109944e-02,4.1101280e-02,2.8439554e-02,5.5084368e-05,-7.1135649e-03,6.8954312e-04,1.1055798e-03,-5.7602401e-01,7.2261865e-02
1.2999988e-01,-4.2002855e-04,4.7751407e-04,3.6711608e-05,-6.0823439e-02,-3.0474632e-04,-6.0597416e-02,1.1538368e-03,-6.4188750e-03,-1.8809983e-03,1.0987535e-01,6.9469061e-02,-2.5705439e-01
1.3999987e-01,-5.0467719e-05,5.1777555e-04,1.1433108e-04,3.6968230e-02,3.7691520e-03,3.6971107e-02,2.0728933e-04,-6.7465444e-03,-3.0520377e-04,-9.4654841e-02,-3.2766973e-02,1.5757961e-01
1.4999986e-01,4.8424364e-06,4.1078122e-04,4.3539366e-05,5.5314240e-03,-1.0731735e-02,5.4676954e-03,1.1389621e-04,-5.7580970e-03,-2.9327423e-04,-9.3393211e-03,9.8844832e-02,1.1929554e-03
1.5999985e-01,1.2227587e-06,3.6803875e-04,5.8610416e-05,-3.6254639e-04,-4.2721112e-03,-3.8585982e-04,1.1717585e-04,-5.6092438e-03,-2.1394063e-04,3.2796441e-04,1.4885332e-02,7.9333678e-03
1.6999984e-01,2.6426908e-04,5.3530684e-04,7.9001470e-05,2.6288412e-02,1.6523674e-02,2.6448898e-02,1.4957578e-04,-7.5499729e-03,7.1241652e-04,3.2399959e-03,-1.9407309e-01,9.2635803e-02
1.7999983e-01,2.7293267e-04,1.4968653e-04,2.1278384e-05,8.6525320e-04,-3.8563763e-02,7.8851263e-04,5.8448206e-06,-2.0415477e-03,1.0170920e-03,-1.4373110e-02,5.5084304e-01,3.0467578e-02
1.8999982e-01,4.5131393e-05,1.2558527e-04,-6.0239082e-06,-2.2780584e-02,-2.3694057e-03,-2.2783987e-02,6.3484196e-05,-1.7240033e-03,-1.2339199e-05,5.7639430e-03,3.1754476e-02,-1.0294322e-01
1.9999981e-01,1.9076306e-05,1.2952911e-04,-1.0139114e-05,-2.6057165e-03,3.9934271e-04,-2.6045504e-03,8.3390787e-05,-1.8203728e-03,-9.1422830e-05,1.9906610e-03,-9.6369593e-03,-7.9083707e-03
2.0999980e-01,2.3502798e-04,1.9169577e-04,5.5298409e-06,2.1578573e-02,6.1536549e-03,2.1629818e-02,8.2356176e-05,-2.8323592e-03,7.9277559e-04,-1.0346115e-04,-1.0119874e-01,8.8419927e-02
2.1999979e-01,1.8761005e-04,1.0755955e-04,-7.7941498e-06,-4.7377282e-03,-8.4034474e-03,-4.7638689e-03,-2.3471507e-05,-2.1648385e-03,8.1615540e-04,-1.0582778e-02,6.6752133e-02,2.3379825e-03
2.3000002e-01,5.4363431e-05,3.8207550e-04,3.9059003e-05,-1.3325304e-02,2.7527771e-02,-1.3163990e-02,1.1873100e-04,-5.6806033e-03,-3.1569697e-04,1.4219925e-02,-3.5156844e-01,-1.1318265e-01
2.4000001e-01,1.0433275e-04,5.1252798e-04,5.7185781e-05,5.0001371e-03,1.3012211e-02,5.0792309e-03,1.4263673e-04,-6.4194335e-03,-2.6817520e-04,2.3905753e-03,-7.3883084e-02,4.7521811e-03
2.5000000e-01,1.0149033e-05,4.2708786e-04,8.3989086e-05,-9.4218444e-03,-8.4862879e-03,-9.4669871e-03,1.1100754e-04,-6.0041024e-03,-2.6711611e-04,-3.1629220e-03,4.1533148e-02,1.0590986e-04
2.5999999e-01,1.2521077e-04,7.1147125e-04,-1.4390454e-04,1.1493688e-02,2.8347639e-02,1.1740179e-02,-5.0718367e-04,-8.3082007e-03,-1.6759963e-04,-6.1819180e-02,-2.3041005e-01,9.9516568e-03
2.6999998e-01,-5.3914407e-04,1.5386823e-04,-1.8742278e-04,-6.6609176e-02,-5.5646460e-02,-6.6357140e-02,5.4952651e-04,-1.1666726e-03,-2.1547561e-03,1.0567112e-01,7.1415348e-01,-1.9871584e-01
2.7999997e-01,-8.6173702e-05,1.3726098e-05,3.4309076e-05,4.5298466e-02,-1.4025294e-02,4.5292268e-02,-2.9456543e-06,-2.4729129e-04,-2.9686875e-05,-5.5247269e-02,9.1938221e-02,2.1250713e-01
2.8999996e-01,-7.1099408e-05,3.3704963e-05,2.9947308e-05,1.5074907e-03,1.9966484e-03,1.5090132e-03,3.4576574e-07,-8.2181567e-04,-3.9200380e-05,3.2914231e-04,-5.7452493e-02,-9.5135140e-04
2.9999995e-01,2.1340881e-04,2.8673407e-04,1.7497752e-04,2.8398818e-02,2.5237155e-02,2.8561044e-02,-4.1150237e-04,-2.7162150e-03,1.4616692e-03,-4.1184852e-02,-1.8944011e-01,1.5008711e-01
3.0999994e-01,-3.1258514e-04,5.4480290e-04,2.9694217e-04,-5.2622183e-02,2.6174549e-02,-5.2394643e-02,4.2134000e-04,-6.5830454e-03,-6.3929336e-04,8.3284316e-02,-3.8668341e-01,-2.1009646e-01
3.1999993e-01,4.8589847e-05,4.5810844e-04,2.4324954e-04,3.6106120e-02,-8.8536414e-03,3.6084248e-02,-3.6107533e-04,-5.4621544e-03,4.0252753e-04,-7.8241608e-02,1.1208921e-01,1.0418219e-01
3.2999992e-01,1.0087911e-04,4.3643262e-04,8.0617649e-05,5.2298142e-03,-2.2010481e-03,5.2140483e-03,7.3399017e-05,-6.3359922e-03,-1.9927855e-04,4.3447476e-02,-8.7383860e-02,-6.0180666e-02
3.3999991e-01,9.0506357e-05,4.2084742e-04,6.9372391e-05,-1.0376924e-03,-1.5519396e-03,-1.0466859e-03,1.0326767e-04,-6.2144615e-03,-2.4592601e-04,2.9868685e-03,1.2153078e-02,-4.6647505e-03
3.4999990e-01,5.0092828e-06,3.8327176e-04,1.2086845e-04,-8.5523468e-03,-3.7086007e-03,-8.5684448e-03,8.4580250e-05,-5.6375174e-03,-2.7062034e-04,-1.8687441e-03,5.7694470e-02,-2.4694347e-03
3.5999990e-01,2.4127768e-04,5.5453851e-04,1.1288432e-04,2.3614200e-02,1.6941845e-02,2.3772342e-02,1.3143344e-04,-7.6660465e-03,6.3098479e-04,4.6853239e-03,-2.0285311e-01,9.0160599e-02
3.6999989e-01,-2.2912794e-05,6.4445278e-05,2.2972051e-05,-2.6419142e-02,-4.8974413e-02,-2.6483750e-02,-2.7416123e-05,-1.3489700e-03,-5.3463557e-05,-1.5884972e-02,6.3170825e-01,-6.8444900e-02
3.7999988e-01,3.4394490e-05,1.4542178e-04,5.9253847e-06,5.7307986e-03,8.0848829e-03,5.7486776e-03,-2.8274936e-05,-2.2539597e-03,-5.1261644e-05,-8.5881395e-05,-9.0499052e-02,2.2019158e-04
3.8999987e-01,6.2096232e-06,1.3905113e-04,5.6669440e-05,-2.8189035e-03,-6.3176904e-04,-2.8192672e-03,-2.2571433e-06,-1.8812623e-03,-1.4746531e-04,2.6017817e-03,3.7269772e-02,-9.6203762e-03
3.9999986e-01,2.1966908e-04,1.8628278e-04,5.6356596e-05,2.1326566e-02,4.6725965e-03,2.1376467e-02,-1.0506541e-04,-2.4714404e-03,8.8522325e-04,-1.0280837e-02,-5.9017870e-02,1.0326896e-01
4.0999985e-01,1.8333084e-04,5.3068169e-05,2.5551054e-06,-3.6280535e-03,-1.3316091e-02,-3.6592397e-03,-1.8531107e-04,-1.6600549e-03,9.0941269e-04,-8.0245728e-03,8.1138631e-02,2.4189460e-03
4.1999984e-01,-3.7457190e-05,3.9748635e-04,7.2565117e-05,-2.2082372e-02,3.4584370e-02,-2.1851319e-02,1.1296286e-04,-6.3759859e-03,-3.3700076e-04,2.9827421e-02,-4.7159355e-01,-1.2464146e-01
4.2999983e-01,-2.6858927e-04,5.5648813e-04,2.6966217e-04,-2.3120000e-02,1.6065218e-02,-2.2992028e-02,6.4099270e-04,-6.5184469e-03,-7.3432137e-04,5.2803034e-02,-1.4246112e-02,-3.9732098e-02
4.3999982e-01,-5.5827236e-04,-1.7999804e-05,1.9969326e-04,-2.9098818e-02,-5.7414417e-02,-2.8905756e-02,1.2892242e-03,1.0251112e-04,-1.9502651e-03,6.4823211e-02,6.6209643e-01,-1.2159449e-01
4.4999981e-01,1.9499953e-04,4.4963631e-04,8.9007120e-05,7.5270860e-02,4.6214721e-02,7.5721392e-02,-1.5893257e-05,-7.2814474e-03,7.3861131e-04,-1.3051187e-01,-7.3839656e-01,2.6888790e-01
4.5999980e-01,-5.3817095e-05,3.9469105e-04,1.0745218e-04,-2.4889067e-02,-5.3376889e-03,-2.4908430e-02,1.0447418e-04,-6.1965319e-03,-2.7361206e-04,1.2036755e-02,1.0849166e-01,-1.0122243e-01
4.6999979e-01,2.1043239e-04,5.3299835e-04,8.3615744e-05,2.6407266e-02,1.3631179e-02,2.6546096e-02,4.6697967e-05,-7.4856181e-03,6.9432228e-04,-5.7776267e-03,-1.2890874e-01,9.6793526e-02
4.8000002e-01,2.9726089e-04,2.4177898e-04,1.6478165e-04,8.6831857e-03,-2.9132977e-02,8.6427534e-03,-4.9390070e-04,-1.8453488e-03,1.5935492e-03,-5.4058629e-02,5.6401402e-01,8.9920632e-02
4.9000001e-01,7.7842937e-05,6.5401552e-05,3.9885331e-05,-2.1938831e-02,-1.7612942e-02,-2.1964724e-02,-6.7010274e-05,-1.1974016e-03,8.2182695e-05,4.2689083e-02,6.4794778e-02,-1.5113679e-01
5.0000000e-01,6.7753705e-05,1.7750393e-05,-1.6635041e-05,-1.0084489e-03,-4.7641290e-03,-1.0140679e-03,-8.0036795e-05,-1.0598765e-03,9.3008570e-05,-1.3026534e-03,1.3752528e-02,1.0825885e-03
5.0999999e-01,-3.5292171e-06,4.5027197e-04,1.0498940e-04,-7.1218456e-03,4.3298382e-02,-6.8488966e-03,2.0375571e-04,-6.4017928e-03,-3.3107121e-04,2.8379278e-02,-5.3419214e-01,-4.2408018e-02
5.1999998e-01,2.8031901e-04,5.8073041e-04,9.3313389e-05,2.8370833e-02,1.2819303e-02,2.8501842e-02,1.2853839e-04,-7.8346054e-03,5.5270139e-04,-7.5217391e-03,-1.4328139e-01,8.8377344e-02
5.2999997e-01,1.5700552e-05,4.0873881e-04,7.9762189e-05,-2.6472563e-02,-1.7032085e-02,-2.6559072e-02,1.4865262e-04,-6.1553474e-03,-3.0749750e-04,2.0114248e-03,1.6792596e-01,-8.6019971e-02
5.3999996e-01,2.6522253e-05,4.2652775e-04,4.1698289e-05,1.0829854e-03,1.7714791e-03,1.0934635e-03,2.3790694e-04,-6.5821954e-03,-3.6146923e-04,8.9254399e-03,-4.2684843e-02,-5.3971777e-03
5.4999995e-01,6.1750945e-05,3.5534193e-04,6.5744781e-05,3.5229574e-03,-7.1396416e-03,3.4799228e-03,1.3127084e-04,-5.8813599e-03,-2.8939263e-04,-1.0663620e-02,7.0083618e-02,7.2076668e-03
5.5999994e-01,2.7848309e-04,4.9288738e-04,7.6069728e-05,2.1660352e-02,1.3592541e-02,2.1788027e-02,9.0988983e-05,-7.3625732e-03,6.5195636e-04,-4.0281898e-03,-1.4812147e-01,9.4134988e-02
5.6999993e-01,1.2095505e-04,2.3197429e-04,-2.2443088e-04,-1.5735672e-02,-2.6067408e-02,-1.5809465e-02,-6.5022530e-04,-2.1647908e-03,1.1331902e-05,-7.4121499e-02,5.1977873e-01,-6.4062507e-02
5.7999992e-01,-6.7814850e-05,1.1578718e-05,9.2924532e-06,-1.8879120e-02,-2.2025879e-02,-1.8890880e-02,5.2581166e-05,-6.7290464e-04,-5.0503141e-05,7.0280713e-02,1.4918876e-01,-6.1835102e-03
5.8999991e-01,1.1536950e-05,2.9884188e-05,1.3366097e-05,7.9352711e-03,1.8242820e-03,7.9365471e-03,-7.0673492e-05,-8.6035616e-04,-2.6836210e-05,-1.2325478e-02,-1.8745169e-02,2.3666953e-03
5.9999990e-01,2.3845727e-04,1.4614509e-04,1.4496029e-05,2.2669414e-02,1.1576370e-02,2.2740055e-02,-3.4333407e-05,-2.2224402e-03,9.7961227e-04,3.6340119e-03,-1.3620854e-01,1.0064494e-01
6.0999990e-01,-5.8036118e-04,-2.5035374e-05,1.9832198e-04,-8.2048960e-02,-1.7044516e-02,-8.1729917e-02,1.1581896e-03,2.6060534e-04,-1.8001379e-03,1.1925241e-01,2.4830479e-01,-2.7797528e-01
6.1999989e-01,-2.7185714e-04,6.0939884e-04,2.6853924e-04,3.0915517e-02,6.3204224e-02,3.1273485e-02,7.1101734e-04,-6.9981613e-03,-6.4791574e-04,-4.4717269e-02,-7.2587735e-01,1.1522233e-01
6.2999988e-01,1.9189439e-05,4.3104899e-04,5.6888968e-05,2.9110740e-02,-1.8026575e-02,2.8980342e-02,1.6853879e-04,-6.4283886e-03,-3.1133541e-04,-5.4247906e-02,5.6977321e-02,3.3658064e-02
6.3999987e-01,1.0747604e-05,3.7302958e-04,4.5462083e-05,-8.4570743e-04,-5.7966237e-03,-8.7853047e-04,2.1996692e-04,-5.9652381e-03,-2.9261039e-04,5.1428174e-03,4.6315096e-02,1.8725043e-03
6.4999986e-01,2.0580644e-04,5.0935007e-04,7.9852401e-05,1.9496531e-02,1.3482429e-02,1.9618945e-02,2.5068797e-04,-7.3966228e-03,6.5540401e-04,3.0721087e-03,-1.4313860e-01,9.4801530e-02
6.5999985e-01,2.8205962e-04,5.2757189e-04,1.1446618e-04,7.6199012e-03,1.7650752e-03,7.6441566e-03,1.8333663e-04,-7.2941337e-03,7.5479855e-04,-6.7351409e-03,1.0248921e-02,9.9394638e-03
6.6999984e-01,1.2637498e-04,3.6722529e-04,7.4808540e-05,-1.5572116e-02,-1.5946440e-02,-1.5655227e-02,5.7701789e-05,-5.5947334e-03,-1.7423014e-04,-1.2563496e-02,1.6994019e-01,-9.2902957e-02
6.7999983e-01,7.9609787e-05,2.6246715e-05,-3.9734381e-05,-4.6760600e-03,-3.4094075e-02,-4.7047138e-03,-1.6523141e-05,-8.2971122e-04,-2.1323426e-05,-7.4225001e-03,4.7650267e-01,1.5290686e-02
6.8999982e-01,3.7815737e-05,2.9840555e-05,6.0570587e-06,-4.1798161e-03,3.6391940e-04,-4.1786092e-03,-4.6329442e-06,-1.0898959e-03,-9.7038083e-05,1.1890208e-03,-2.6018493e-02,-7.5714730e-03
6.9999981e-01,2.8007624e-04,2.2647448e-04,1.9904548e-05,2.4206411e-02,1.9580480e-02,2.4312741e-02,1.2528779e-05,-3.4031842e-03,8.2142054e-04,1.7161739e-03,-2.3132905e-01,9.1845950e-02
7.0999980e-01,2.6828592e-04,1.5270581e-04,-1.2035367e-05,-1.1787530e-03,-7.3734313e-03,-1.2006459e-03,9.6180037e-05,-2.7964779e-03,8.3858617e-04,8.3651338e-03,6.0670689e-02,1.7165642e-03
7.1999979e-01,4.5321482e-06,-1.4432160e-05,-2.8872760e-05,-2.6375894e-02,-1.6694281e-02,-2.6387279e-02,2.3325547e-05,-7.1708741e-04,-3.8624760e-06,-7.2854559e-03,2.0793925e-01,-8.4244945e-02
7.3000002e-01,1.9895368e-06,4.0286623e-04,6.8060847e-05,-2.4739631e-04,4.1729700e-02,-5.7573601e-06,1.6623628e-04,-5.9531644e-03,-3.0627191e-04,1.4290746e-02,-5.2359572e-01,-3.0240251e-02
7.4000001e-01,-3.1157738e-04,5.6126727e-04,1.5251214e-04,-3.1382077e-02,1.6103483e-02,-3.1196802e-02,1.1440407e-03,-7.2788630e-03,-1.3881481e-03,9.7780537e-02,-1.3256999e-01,-1.0818772e-01
7.5000000e-01,-6.4503851e-05,3.9539797e-04,1.0044584e-04,2.4712494e-02,-1.6734510e-02,2.4602530e-02,2.5074703e-04,-5.7350139e-03,-3.7555998e-04,-8.9329454e-02,1.5438506e-01,1.0125891e-01
7.5999999e-01,-1.8295085e-05,3.4069739e-04,5.0532541e-05,4.6211926e-03,-5.4969410e-03,4.5885609e-03,1.8367455e-04,-5.6535026e-03,-2.8493218e-04,-6.7072543e-03,8.1511435e-03,9.0627890e-03
7.6999998e-01,2.6969629e-04,4.9330657e-04,4.8147101e-05,2.8780892e-02,1.5052662e-02,2.8926760e-02,1.2696020e-04,-7.0866068e-03,7.0150663e-04,-5.6714409e-03,-1.4331056e-01,9.8643976e-02
7.7999997e-01,-4.3019501e-04,9.9530421e-05,4.3244426e-04,-7.0078634e-02,-3.9342173e-02,-6.9919620e-02,8.3746259e-04,3.3104286e-04,-8.0737528e-04,7.1050307e-02,7.4176567e-01,-1.5088834e-01
7.8999996e-01,1.2270618e-04,-1.9790264e-04,2.9112572e-04,5.5218899e-02,-2.9477585e-02,5.5503309e-02,-3.7869331e-04,4.4159166e-03,1.4915944e-03,-1.2161571e-01,4.0848777e-01,2.2989719e-01
7.9999995e-01,-1.7029056e-05,-1.1424300e-05,-4.4619259e-06,-1.3972585e-02,1.8658495e-02,-1.3960275e-02,1.9578011e-05,-7.4240321e-04,4.1961590e-05,3.9827170e-02,-5.1583248e-01,-1.4496342e-01
8.0999994e-01,6.6319230e-06,-5.6890477e-06,9.4417016e-06,2.3659455e-03,5.7153328e-04,2.3667368e-03,-6.3175132e-06,-8.4827044e-04,6.3813962e-05,-2.5895549e-03,-1.0586732e-02,2.1852393e-03
8.1999993e-01,2.4970413e-04,1.0872687e-04,2.9460752e-05,2.4284959e-02,1.1399186e-02,2.4349411e-02,6.5635678e-05,-1.6771485e-03,9.4725527e-04,7.1953260e-03,-8.2887881e-02,8.8344215e-02
8.2999992e-01,2.9984003e-04,5.1225104e-04,5.6050485e-05,5.0169823e-03,4.0314230e-02,5.3090161e-03,1.6312922e-04,-7.2452333e-03,6.3721325e-04,9.7493637e-03,-5.5680902e-01,-3.1004231e-02
8.3999991e-01,1.3332920e-04,3.8737064e-04,9.1608136e-06,-1.6656647e-02,-1.2384070e-02,-1.6723056e-02,1.6779823e-04,-6.0644064e-03,-2.0733074e-04,4.6690108e-04,1.1808281e-01,-8.4454480e-02
8.4999990e-01,1.1880868e-04,4.3772715e-04,4.2347525e-05,-1.4517219e-03,5.0448917e-03,-1.4199679e-03,1.5578501e-04,-6.2755185e-03,-3.1251281e-04,-1.2013231e-03,-2.1111232e-02,-1.0518217e-02
8.5999990e-01,6.3817338e-05,3.9677630e-04,6.7449607e-05,-5.5013747e-03,-4.0617981e-03,-5.5215488e-03,1.4751715e-04,-5.8951418e-03,-2.9662114e-04,-8.2678710e-04,3.8037704e-02,1.5891686e-03
8.6999989e-01,3.1661000e-04,5.7360666e-04,9.7970193e-05,2.5263886e-02,1.7484996e-02,2.5431995e-02,1.5388307e-04,-7.6549729e-03,7.1673174e-04,6.3659267e-04,-1.7598328e-01,1.0133538e-01
8.7999988e-01,5.1701853e-05,1.3436422e-05,1.8754538e-07,-2.6487982e-02,-5.6011454e-02,-2.6505585e-02,-1.1539204e-05,-2.2375026e-04,8.3495134e-05,-1.6542243e-02,7.4312297e-01,-6.3323721e-02
8.8999987e-01,1.5351172e-05,3.0197943e-05,-1.5250732e-05,-3.6350689e-03,1.6791741e-03,-3.6336799e-03,2.0219524e-05,-8.1086148e-04,-8.5956347e-06,3.1758758e-03,-5.8711178e-02,-9.2090856e-03
8.9999986e-01,1.9328582e-04,1.1079154e-04,-1.4412280e-05,1.7778974e-02,8.0169159e-03,1.7827130e-02,1.0077150e-04,-2.2818774e-03,8.6064170e-04,8.0552048e-03,-1.4710173e-01,8.6923817e-02
9.0999985e-01,1.1329792e-04,2.6385101e-04,-2.1915622e-04,-8.0066669e-03,1.5323102e-02,-7.9580033e-03,-4.9982833e-04,-2.6497651e-03,-2.7471763e-05,-6.0060040e-02,-3.6788807e-02,-8.8811431e-02
9.1999984e-01,-7.5057418e-05,3.8978869e-04,1.0274012e-04,-1.8838661e-02,1.2707698e-02,-1.8755761e-02,2.5956075e-04,-5.8017328e-03,-3.3872265e-04,7.5938981e-02,-3.1519707e-01,-3.1125119e-02
9.2999983e-01,-3.5860722e-06,3.8518577e-04,8.5037306e-05,7.1484211e-03,-5.0191780e-04,7.1430585e-03,1.7129209e-04,-5.6548135e-03,-1.9011547e-04,-8.8268747e-03,1.4691949e-02,1.4860732e-02
9.3999982e-01,-1.2981732e-05,4.0834987e-04,9.7367713e-05,-9.3937561e-04,2.3220924e-03,-9.2563548e-04,2.1170942e-04,-5.8776320e-03,-3.1843172e-04,4.0417371e-03,-2.2281877e-02,-1.2831637e-02
9.4999981e-01,1.9205355e-04,5.4179904e-04,8.4058027e-05,2.0493385e-02,1.3177048e-02,2.0621945e-02,1.6275848e-04,-7.9995924e-03,6.0138068e-04,-4.8950985e-03,-2.1219624e-01,9.1981327e-02
9.5999980e-01,2.8308718e-04,6.2690086e-04,1.8532018e-04,9.0898671e-03,8.4413130e-03,9.1806667e-03,-2.4490111e-04,-7.7731378e-03,1.2536921e-03,-4.0765998e-02,2.2645476e-02,6.5231208e-02
9.6999979e-01,8.3091642e-05,3.5941980e-04,7.7153233e-05,-2.0008392e-02,-2.6634429e-02,-2.0141991e-02,1.7745278e-04,-5.4887982e-03,-2.0367594e-04,4.2235429e-02,2.2843418e-01,-1.4573695e-01
9.8000002e-01,1.2535613e-04,3.9318241e-04,4.7702507e-05,4.2274881e-03,3.3510833e-03,4.2451505e-03,1.1215492e-04,-5.8144558e-03,-1.7926061e-04,-6.5296358e-03,-3.2565013e-02,2.4414773e-03
9.9000001e-01,2.7345924e-04,1.0783065e-04,7.2676157e-06,1.4796111e-02,-2.8563999e-02,1.4768966e-02,2.7754186e-05,-1.9183496e-03,9.0587896e-04,-8.4400819e-03,3.8961099e-01,1.0851406e-01
1.0000000e+00,-2.0110831e-06,2.8409246e-05,4.5920352e-05,-2.7547487e-02,-7.9160190e-03,-2.7554150e-02,5.3538074e-05,-8.9486686e-04,-1.1740716e-07,2.5783913e-03,1.0234837e-01,-9.0599723e-02
1.0100000e+00,3.8571377e-05,8.1627798e-05,6.1021624e-06,4.0589023e-03,5.3146833e-03,4.0669933e-03,7.8575672e-05,-1.6881505e-03,-5.7737974e-05,2.5037622e-03,-7.9328444e-02,-5.7620622e-03
1.0200000e+00,7.5505995e-05,2.7933744e-05,-2.4249237e-05,3.6935340e-03,-5.3728101e-03,3.6884495e-03,3.2891623e-06,-9.1777890e-04,-2.3373496e-05,-7.5286581e-03,7.7037238e-02,3.4364510e-03
1.0300000e+00,2.7314211e-05,3.4345696e-04,6.0829193e-05,-4.8141836e-03,3.1579639e-02,-4.6421981e-03,2.0629382e-04,-5.5589381e-03,-3.1334475e-04,2.0300485e-02,-4.6411636e-01,-2.8997153e-02
1.0400000e+00,1.8228789e-04,7.1723308e-04,-1.2437395e-04,1.5492006e-02,3.7246097e-02,1.5816203e-02,-2.4957441e-04,-8.6501519e-03,-2.5507547e-04,-4.5586866e-02,-3.0912168e-01,5.8269336e-03
1.0500000e+00,2.7399242e-04,5.1305248e-04,7.0699922e-05,9.1601125e-03,-2.0488807e-02,9.0218541e-03,1.8213277e-04,-7.5891025e-03,7.2273865e-04,4.3170759e-02,1.0610504e-01,9.7781505e-02
1.0599999e+00,-3.5130419e-07,3.8317821e-04,7.1270142e-05,-2.7443423e-02,-1.2818665e-02,-2.7504660e-02,2.2440914e-04,-5.9205521e-03,-2.2278184e-04,4.2276411e-03,1.6685520e-01,-9.4552139e-02
1.0699999e+00,-5.4162776e-05,3.4628895e-04,9.8556593e-05,-5.3832274e-03,-3.6584039e-03,-5.3998837e-03,2.0458969e-04,-5.4592080e-03,-2.4541270e-04,-1.9819473e-03,4.6134454e-02,-2.2630882e-03
1.0799999e+00,2.7965311e-04,6.4259841e-04,2.3776097e-04,3.3329242e-02,2.9376917e-02,3.3657364e-02,-1.9075202e-04,-7.7638894e-03,1.3987618e-03,-3.9534209e-02,-2.3046836e-01,1.6441761e-01
1.0899999e+00,2.6857769e-04,5.2879400e-04,8.4497252e-05,-1.1085019e-03,-1.1371689e-02,-1.1932722e-03,1.6047309e-04,-7.4596160e-03,7.8292696e-04,3.5122545e-02,3.0427370e-02,-6.1583545e-02
1.0999999e+00,1.8797721e-05,3.7285848e-04,7.7055198e-05,-2.4986898e-02,-1.5444413e-02,-2.5061672e-02,2.2523730e-04,-5.7371498e-03,-2.1484698e-04,6.4764267e-03,1.7224679e-01,-9.9777489e-02
1.1099999e+00,-2.4340225e-05,3.5439085e-04,9.3305114e-05,-4.3150817e-03,-1.8222299e-03,-4.3229395e-03,1.6782265e-04,-5.5143818e-03,-2.2559889e-04,-5.7414705e-03,2.2276821e-02,-1.0751927e-03
1.1199999e+00,1.8755286e-04,9.8095342e-05,2.5225263e-05,2.1167526e-02,-2.5664399e-02,2.1168963e-02,-6.9470913e-05,-1.7127663e-03,1.1123948e-03,-2.3729378e-02,3.8016191e-01,1.3379949e-01
1.1299863e+00,2.3918827e-04,5.4687308e-04,1.0319457e-04,5.1729662e-03,4.4898498e-02,5.5080421e-03,1.4516681e-04,-7.4209310e-03,7.9845902e-04,2.1493002e-02,-5.7159380e-01,-3.1436326e-02
1.1399863e+00,2.4195945e-05,3.6317993e-04,8.2492908e-05,-2.1505655e-02,-1.8243657e-02,-2.1599629e-02,1.3264381e-04,-5.7001260e-03,-1.8442515e-04,-1.2523015e-03,1.7208066e-01,-9.8288511e-02
1.1499863e+00,8.1553846e-05,3.8178844e-04,5.0317711e-05,5.7370768e-03,1.8248836e-03,5.7460619e-03,1.8328059e-04,-6.0828183e-03,-1.6393217e-04,5.0636828e-03,-3.8269270e-02,2.0493000e-03
1.1599863e+00,7.4570680e-05,3.5663297e-04,7.0172371e-05,-6.9900261e-04,-2.5115520e-03,-7.1188713e-04,2.1525232e-04,-5.4561087e-03,-2.0602164e-04,3.1971765e-03,6.2671028e-02,-4.2089512e-03
1.1699862e+00,2.8699160e-05,3.5937534e-04,9.7253535e-05,-4.5881670e-03,3.0048348e-04,-4.5845007e-03,1.9792985e-04,-5.5259713e-03,-2.3219684e-04,-1.7322491e-03,-6.9862668e-03,-2.6175222e-03
1.1799862e+00,-7.6928544e-06,-4.9092272e-05,2.3322803e-05,-3.6391637e-03,-4.0846885e-02,-3.6383007e-03,6.2193207e-06,2.9366222e-05,8.1132599e-05,-1.9171071e-02,5.5553428e-01,3.1332973e-02
1.1899862e+00,4.7453860e-05,4.4642627e-05,6.6273065e-06,5.5149200e-03,9.3681799e-03,5.5234648e-03,4.5791381e-05,-9.1797343e-04,3.3728685e-05,3.9572098e-03,-9.4734056e-02,-4.7403959e-03
1.1999862e+00,6.2077470e-05,-2.2502079e-05,-9.9147294e-06,1.4620409e-03,-6.7151874e-03,1.4594193e-03,3.4032836e-05,-4.5213792e-04,6.3551929e-05,-1.1758556e-03,4.6583596e-02,2.9823272e-03
1.2099862e+00,-4.3313572e-05,-3.9477779e-05,1.0966308e-05,-1.0539253e-02,-1.6966368e-03,-1.0539126e-02,7.0308376e-05,-1.8387901e-05,-1.8074973e-06,3.6275575e-03,4.3375043e-02,-6.5359488e-03
1.2199862e+00,-6.1831533e-04,1.8715795e-04,7.4046128e-05,-5.7617319e-02,2.2772455e-02,-5.7339789e-02,1.0299935e-03,-8.6569967e-04,-2.4458006e-03,9.5968601e-02,-8.4731258e-02,-2.4439954e-01
1.2299864e+00,1.3966795e-04,7.1444651e-04,-1.2060634e-04,7.5788423e-02,5.2098483e-02,7.6238540e-02,-3.7796079e-04,-8.6540200e-03,-1.5522678e-04,-1.4079220e-01,-7.7881420e-01,2.2905214e-01
1.2399864e+00,2.2445063e-04,5.1948433e-04,6.0324842e-05,8.4689773e-03,-1.9563794e-02,8.3306642e-03,1.5308587e-04,-7.8808407e-03,7.4444770e-04,5.3104717e-02,7.7318001e-02,8.9967533e-02
1.2499864e+00,5.6492815e-05,5.2252646e-04,2.1222685e-04,-1.6791292e-02,4.0309629e-04,-1.6798219e-02,-1.5942343e-04,-6.0455136e-03,2.7105891e-04,-3.1250959e-02,1.8353288e-01,-4.7338924e-02
1.2599864e+00,-4.2818774e-04,1.3850929e-04,4.3554962e-04,-4.8541271e-02,-3.8356487e-02,-4.8430707e-02,8.7359921e-04,-6.0105332e-05,-8.1819829e-04,1.0330236e-01,5.9854140e-01,-1.0892582e-01
1.2699864e+00,1.6233891e-04,6.9890641e-04,-1.3257054e-04,5.9039252e-02,5.5562069e-02,5.9515766e-02,-3.5105900e-04,-8.4077599e-03,-1.0511914e-04,-1.2246594e-01,-8.3476625e-01,7.1307983e-02
1.2799864e+00,2.2053184e-04,5.3356425e-04,5.1633661e-05,5.8109667e-03,-1.6583063e-02,5.6871802e-03,2.7538067e-04,-8.2062529e-03,6.4911452e-04,6.2644027e-02,2.0150724e-02,7.5423438e-02
1.2899864e+00,2.1506839e-05,4.4299094e-04,7.3629618e-05,-1.9909191e-02,-8.9261399e-03,-1.9955051e-02,2.2384060e-04,-6.3605778e-03,-2.3341302e-04,-5.1540112e-03,1.8456768e-01,-8.8252839e-02
1.2999864e+00,2.4511045e-05,4.7329736e-04,9.8423072e-05,3.0129271e-04,3.0286238e-03,3.1933352e-04,2.5882007e-04,-6.2715798e-03,-2.9123896e-04,3.4979505e-03,8.8998150e-03,-5.7825990e-03
1.3099864e+00,2.9420730e-04,1.3052025e-04,-1.1123364e-05,2.6944519e-02,-3.4324543e-02,2.6935229e-02,-1.3611040e-05,-1.7491252e-03,9.4870915e-04,-2.7243137e-02,4.5224589e-01,1.2399493e-01
1.3199863e+00,2.3462916e-04,9.1665484e-05,-2.9122424e-05,-5.9526737e-03,-3.8723612e-03,-5.9714895e-03,4.6806193e-05,-2.1516948e-03,8.9391098e-04,6.0417291e-03,-4.0256999e-02,-5.4798218e-03
1.3299863e+00,1.2919094e-05,-3.7464075e-05,-2.7509277e-05,-2.2169594e-02,-1.2905524e-02,-2.2176794e-02,-4.3198705e-05,-3.7889403e-04,3.9466370e-05,-9.0004984e-03,1.7728025e-01,-8.5444543e-02
1.3399863e+00,1.7136022e-05,1.1255546e-05,-5.2545021e-06,4.2206736e-04,4.8718829e-03,4.2228728e-04,7.2745434e-05,-1.2599561e-04,-4.6821565e-05,1.1594425e-02,2.5289865e-02,-8.6288018e-03
1.3499863e+00,3.8259501e-05,-2.1424711e-05,-1.4437619e-05,2.1120111e-03,-3.2680415e-03,2.1126690e-03,1.0114579e-04,9.5120288e-05,3.9020758e-06,2.8400388e-03,2.2111611e-02,5.0723689e-03
1.3599863e+00,4.2483631e-05,4.3123705e-04,5.1609828e-05,4.3321551e-04,4.5262431e-02,7.1561165e-04,2.3594638e-04,-6.4802114e-03,-2.8821161e-04,1.3480071e-02,-6.5753379e-01,-2.9211396e-02
1.3699863e+00,-6.4712356e-06,3.3405062e-04,6.0020427e-05,-4.8981074e-03,-9.6916549e-03,-4.9461338e-03,1.4863094e-04,-5.3390726e-03,-2.3935545e-04,-8.7315526e-03,1.1411399e-01,4.8856203e-03
1.3799863e+00,1.9011288e-04,4.8337627e-04,5.8456526e-05,1.9647188e-02,1.4788513e-02,1.9778210e-02,1.4341099e-04,-7.1608002e-03,6.8056756e-04,-5.2199545e-04,-1.8217293e-01,9.1992389e-02
1.3899863e+00,2.2267870e-04,5.1843506e-04,5.6258009e-05,3.2548674e-03,3.4818479e-03,3.2839724e-03,1.7111761e-04,-7.1762531e-03,7.1139234e-04,2.7706646e-03,-1.5452948e-03,3.0824816e-03
1.3999863e+00,1.8691127e-05,4.2868326e-04,6.2407157e-05,-2.0406078e-02,-8.8505500e-03,-2.0445878e-02,1.9870074e-04,-5.9053584e-03,-2.7056546e-04,2.7583164e-03,1.2708960e-01,-9.8195874e-02
1.4099863e+00,-4.7964390e-05,3.9230858e-04,8.3345311e-05,-6.6682260e-03,-3.5991071e-03,-6.6836902e-03,1.9355996e-04,-5.5552509e-03,-2.9470051e-04,-5.1407939e-04,3.5010778e-02,-2.4135072e-03
1.4199862e+00,1.3060464e-04,6.0927272e-04,-2.1165866e-05,1.7853494e-02,2.1541772e-02,1.8046584e-02,9.6511624e-05,-8.5180633e-03,3.0903041e-04,-9.7048425e-03,-2.9628152e-01,6.0373150e-02
1.4299862e+00,1.3384284e-04,6.9578306e-04,-1.3052464e-04,3.2134918e-04,8.6480966e-03,3.9676373e-04,-2.8946714e-04,-8.4367232e-03,-9.9982202e-05,-3.8597914e-02,8.1340185e-03,-4.0901300e-02
1.4399862e+00,5.2598091e-06,3.6207762e-04,7.0536200e-05,-1.2869901e-02,-3.3295238e-02,-1.3040732e-02,2.7625153e-04,-5.5439206e-03,-1.8411639e-04,5.6571921e-02,2.8928053e-01,-8.4134265e-03
1.4498737e+00,6.9393901e-05,4.2235669e-04,4.4472369e-05,6.4894942e-03,6.0574653e-03,6.5198263e-03,2.6997582e-04,-5.7367076e-03,-2.2191094e-04,-6.3471451e-04,-1.9498137e-02,-3.8224744e-03
1.4598737e+00,5.3010031e-05,3.6852846e-04,7.6454909e-05,-1.6395046e-03,-5.3731811e-03,-1.6686589e-03,1.4242663e-04,-5.6936607e-03,-2.1328215e-04,-1.2754931e-02,4.3046913e-03,8.6287969e-04
1.4698737e+00,2.2390075e-04,7.0347278e-04,-1.2755776e-04,1.7077783e-02,3.3354136e-02,1.7372505e-02,-4.0665410e-04,-8.5476974e-03,-1.3560231e-04,-5.4908125e-02,-2.8540394e-01,7.7679915e-03
1.4798739e+00,3.6597285e-05,3.3343129e-04,7.1025690e-05,-1.8739132e-02,-3.6895289e-02,-1.8932687e-02,1.5209148e-04,-5.5850536e-03,-1.9147270e-04,5.5873279e-02,2.9625760e-01,-5.5869116e-03
1.4898739e+00,1.3012859e-04,4.3050853e-04,3.0300498e-05,9.3577045e-03,9.6490979e-03,9.4090813e-03,2.1715226e-04,-6.0346033e-03,-2.6270974e-04,6.5060838e-03,-4.4955018e-02,-7.1237102e-03
1.4998739e+00,6.9330864e-05,5.1111232e-06,-4.5989763e-05,-6.0842253e-03,-4.2535934e-02,-6.1022077e-03,9.8491145e-05,-5.3331507e-04,-4.2237544e-05,-1.1866122e-02,5.5012935e-01,2.2047240e-02
1.5098739e+00,1.9496453e-04,5.3964786e-05,-9.0025224e-06,1.2551911e-02,4.8630212e-03,1.2583496e-02,-5.7042147e-06,-1.7824244e-03,9.1012259e-04,-1.0419546e-02,-1.2491105e-01,9.5236104e-02
1.5198739e+00,1.7451974e-04,3.0657431e-04,-1.9026869e-04,-2.0580456e-03,2.5266375e-02,-1.9625140e-03,-5.4915483e-04,-3.2567795e-03,1.5031583e-04,-5.4345114e-02,-1.4743565e-01,-7.5980749e-02
1.5298738e+00,4.2945547e-08,4.3287847e-04,1.0091407e-04,-1.7450413e-02,1.2739433e-02,-1.7365536e-02,2.2504514e-04,-6.0376522e-03,-3.1869178e-04,7.7420071e-02,-2.7808754e-01,-4.6900806e-02
1.5398738e+00,1.1474717e-05,3.7392459e-04,3.1359857e-05,1.1425088e-03,-5.9019369e-03,1.1095912e-03,1.6488618e-04,-5.6426097e-03,-2.6482696e-04,-6.0159011e-03,3.9504285e-02,5.3864876e-03
1.5498738e+00,-5.8461246e-05,3.3327587e-04,7.9421817e-05,-6.9970097e-03,-4.0249606e-03,-7.0132536e-03,2.0400463e-04,-5.4966066e-03,-3.6863464e-04,3.9118485e-03,1.4600330e-02,-1.0380778e-02
1.5598738e+00,-5.4709303e-04,4.9309729e-04,-1.3251491e-04,-4.8973927e-02,1.6368666e-02,-4.8623864e-02,8.5261275e-04,-7.0838659e-03,-2.5480341e-03,6.4860874e-02,-1.5872608e-01,-2.1794015e-01
1.5698738e+00,-4.0355577e-04,3.9212050e-04,-2.1606981e-05,1.4369794e-02,-1.0204890e-02,1.4261565e-02,9.2093672e-04,-6.5748434e-03,-1.7683155e-03,6.8324033e-03,5.0902295e-02,7.7971925e-02
1.5798738e+00,-8.9283639e-06,3.4746330e-04,5.3950043e-05,3.9472084e-02,-4.6971291e-03,3.9426590e-02,1.2020805e-04,-5.7469986e-03,-2.4944400e-04,-8.0072943e-02,8.2784563e-02,1.5188730e-01
1.5898738e+00,1.1657758e-05,3.7500269e-04,8.2044054e-05,2.0596205e-03,2.7415236e-03,2.0741240e-03,2.1622648e-04,-5.7947369e-03,-1.9967370e-04,9.6018522e-03,-4.7738344e-03,4.9770352e-03
1.5998738e+00,3.2431682e-04,6.3445545e-04,2.4015922e-04,3.1218883e-02,2.5710435e-02,3.1506046e-02,-2.3155591e-04,-7.7087029e-03,1.3118766e-03,-4.4778282e-02,-1.9139679e-01,1.5115517e-01
1.6098738e+00,3.1034677e-04,5.6932529e-04,8.4944012e-05,-1.3968115e-03,-6.5013878e-03,-1.4503721e-03,1.2354571e-04,-8.0476783e-03,7.1481812e-04,3.5510196e-02,-3.3897568e-02,-5.9705903e-02
1.6198738e+00,3.1741792e-05,2.6728256e-05,-6.5818478e-06,-2.7856578e-02,-5.4229922e-02,-2.7922488e-02,-6.8730578e-05,-1.1382645e-03,7.7917857e-06,-1.9227647e-02,6.9094204e-01,-7.0702701e-02
1.6298738e+00,5.2104371e-05,-1.5819934e-05,5.4780926e-07,2.0362715e-03,-4.2559787e-03,2.0338317e-03,-5.1121661e-05,-6.1901304e-04,1.0111293e-04,1.7608934e-03,5.1925198e-02,9.3321238e-03
1.6398737e+00,1.9117896e-05,-1.2308106e-05,5.4129784e-05,-3.2984143e-03,3.5127387e-04,-3.2988774e-03,-3.3790331e-05,-6.1295687e-05,7.5266436e-05,1.7331347e-03,5.5771788e-02,-2.5846523e-03
1.6498737e+00,3.7530826e-05,4.1908718e-04,1.1397190e-04,1.8498991e-03,4.3127536e-02,2.0968325e-03,1.8654329e-04,-5.9373155e-03,-3.0251072e-04,2.2033383e-02,-5.8760254e-01,-3.7777752e-02
1.6598737e+00,3.0163362e-05,3.3065915e-04,3.1253379e-05,-7.3802678e-04,-8.8382697e-03,-7.8816800e-04,1.2024702e-04,-5.8410194e-03,-2.9372819e-04,-6.6296333e-03,9.6296137e-03,8.7825434e-04
1.6698737e+00,2.5042787e-05,4.1094113e-04,9.5779837e-05,-5.1066198e-04,8.0313359e-03,-4.6191017e-04,1.9409920e-04,-6.2250388e-03,-3.1684222e-04,7.3852248e-03,-3.8401971e-02,-2.3114057e-03
1.6798737e+00,3.3267703e-04,6.0225410e-04,1.2457488e-04,3.0744526e-02,1.8891371e-02,3.0930206e-02,1.4249970e-04,-7.6337213e-03,7.0362486e-04,-5.1599550e-03,-1.4086839e-01,1.0204681e-01
1.6898737e+00,1.1014142e-04,4.2565488e-04,6.6206616e-05,-2.2261366e-02,-1.7526439e-02,-2.2351126e-02,1.0712613e-04,-5.8797692e-03,-2.6479336e-04,-3.5373597e-03,1.7539538e-01,-9.6841915e-02
1.6998737e+00,4.5025143e-05,3.6793542e-04,2.4606170e-05,-6.5140574e-03,-5.7330501e-03,-6.5434985e-03,1.1091415e-04,-5.8497150e-03,-2.7389483e-04,3.7880151e-04,3.0054184e-03,-9.1014778e-04
1.7098737e+00,8.3804272e-05,2.6068481e-04,-2.1825935e-04,3.8837684e-03,-1.0732537e-02,3.8513118e-03,-5.5977410e-04,-2.4941056e-03,3.8962474e-05,-6.7068889e-02,3.3556126e-01,3.1285761e-02
1.7198737e+00,-9.7491045e-05,-6.5295668e-04,5.9971039e-05,-1.8022226e-02,-9.1569922e-02,-1.7173627e-02,-1.5649484e-03,1.0061595e-02,-1.9699535e-03,-1.0051753e-01,1.2555712e+00,-2.0089178e-01
1.7298739e+00,-2.9544482e-04,8.3325311e-05,6.2835474e-05,-1.9747906e-02,7.3665068e-02,-1.9698210e-02,8.8960482e-04,-1.0626649e-03,-9.3441727e-04,2.4544970e-01,-1.1124005e+00,1.0355125e-01
1.7398739e+00,6.7805686e-05,4.0509395e-04,1.7443779e-05,3.6340057e-02,3.1957796e-02,3.6503091e-02,1.7164249e-04,-5.8463645e-03,-2.6018029e-04,-7.1796302e-02,-4.7837041e-01,6.7423762e-02
1.7498739e+00,6.3607927e-06,3.5542697e-04,8.7106837e-05,-6.1468039e-03,-4.9338036e-03,-6.1686432e-03,1.3896084e-04,-5.2056608e-03,-2.6345103e-04,-3.2681673e-03,6.4070428e-02,-3.2707361e-04
1.7598739e+00,-4.1018660e-04,5.0449232e-04,6.2957918e-05,-4.1715761e-02,1.5244738e-02,-4.1470950e-02,1.0560251e-03,-7.0851638e-03,-1.8441510e-03,9.1706515e-02,-1.8795048e-01,-1.5807014e-01
1.7698739e+00,2.3246337e-04,5.0748032e-04,1.9546170e-06,6.4242319e-02,-1.7374797e-04,6.4288248e-02,3.2062377e-05,-7.3183970e-03,3.5391071e-04,-1.0239637e-01,-2.3323344e-02,2.1980638e-01
1.7798738e+00,9.9542274e-05,3.8185931e-04,2.3941449e-05,-1.3296118e-02,-1.2482111e-02,-1.3363303e-02,1.5709911e-04,-5.8464254e-03,-1.5217737e-04,1.2503685e-02,1.4719730e-01,-5.0608856e-02
1.7898738e+00,1.4383408e-04,3.8402580e-04,3.4507396e-05,4.4302649e-03,1.9151072e-04,4.4292624e-03,1.0393260e-04,-5.5723299e-03,-2.3885909e-04,-5.3166563e-03,2.7409575e-02,-8.6681797e-03
1.7998738e+00,3.4308678e-04,5.4175240e-04,8.3392769e-05,1.9913360e-02,1.5621179e-02,2.0056132e-02,2.0665062e-04,-7.3695074e-03,7.6195867e-04,1.0271812e-02,-1.7971792e-01,1.0008187e-01
1.8098738e+00,2.1986397e-04,5.8019573e-05,3.3486141e-05,-1.2311809e-02,-4.8356660e-02,-1.2397964e-02,4.0504226e-05,-1.3075690e-03,1.0092484e-03,-1.6614655e-02,6.0619441e-01,2.4728997e-02
1.8198738e+00,-5.7599206e-06,3.8045917e-05,2.2813332e-05,-2.2562136e-02,-1.9702680e-03,-2.2565068e-02,1.0898156e-04,-1.0920334e-03,2.1827015e-05,6.8477396e-03,2.1553586e-02,-9.8742233e-02
1.8298738e+00,6.5208007e-05,9.2103500e-05,-1.6605761e-05,7.0970778e-03,5.3969572e-03,7.1032207e-03,2.7794446e-05,-1.2125416e-03,-1.8039544e-05,-8.1187188e-03,-1.2050829e-02,-3.9866597e-03
1.8398738e+00,5.5412701e-05,2.8113342e-05,1.1747643e-05,-9.7979401e-04,-6.3986159e-03,-9.8191787e-04,3.4008862e-05,-3.7994575e-04,-4.5788499e-05,6.2144224e-04,8.3259661e-02,-2.7748981e-03
1.8498738e+00,2.2457811e-04,7.6382046e-05,6.7257676e-06,1.6900611e-02,4.8035730e-03,1.6939113e-02,-3.5151464e-06,-1.3794077e-03,9.4117814e-04,-3.7524044e-03,-9.9946295e-02,9.8696758e-02
1.8598738e+00,7.5286409e-05,2.4948811e-04,-2.2617385e-04,-1.4937261e-02,1.7337077e-02,-1.4890357e-02,-4.7666606e-04,-2.2516929e-03,1.1566580e-05,-4.7315136e-02,-8.7228595e-02,-9.2961245e-02
1.8698738e+00,-4.2952931e-05,4.1615856e-04,1.1020413e-04,-1.1822824e-02,1.6741664e-02,-1.1719206e-02,2.8034326e-04,-6.0569519e-03,-3.0042508e-04,7.5701003e-02,-3.8052626e-01,-3.1199196e-02
1.8798738e+00,-1.3554746e-06,4.4259686e-04,1.1170256e-04,4.1614792e-03,2.6169596e-03,4.1749850e-03,2.5066512e-04,-6.1990598e-03,-2.5654224e-04,-2.9678165e-03,-1.4210803e-02,4.3882885e-03
1.8898737e+00,-2.5187685e-04,5.6783923e-04,2.5645069e-04,-2.5058838e-02,1.2704454e-02,-2.4954556e-02,6.6490167e-04,-6.5430774e-03,-5.9932689e-04,4.1423695e-02,-3.4401796e-02,-3.4278498e-02
1.8998737e+00,1.4723924e-04,6.8406484e-04,-1.4836459e-04,3.9915675e-02,1.1309323e-02,3.9997517e-02,-3.7650393e-04,-8.2170248e-03,-2.1066801e-04,-1.0414066e-01,-1.6739490e-01,3.8865925e-02
1.9098737e+00,2.3307007e-04,7.0562764e-04,-1.6022157e-04,8.5846671e-03,2.0859580e-03,8.5988805e-03,-2.3129234e-04,-8.4177996e-03,-2.4171362e-04,1.4521172e-02,-2.0077504e-02,-3.1045641e-03
1.9198737e+00,1.8611767e-05,3.2502949e-04,4.5664933e-05,-2.1461704e-02,-3.7937324e-02,-2.1646155e-02,2.5754099e-04,-5.4310973e-03,-2.8220008e-04,4.8883380e-02,2.9867051e-01,-4.0486499e-03
1.9298737e+00,2.3639046e-05,3.6152083e-04,6.8884903e-05,5.0377623e-04,3.6461123e-03,5.2321152e-04,2.5917420e-04,-5.6436027e-03,-2.0309730e-04,1.6332059e-04,-2.1250562e-02,7.9102856e-03
1.9398737e+00,2.9079093e-04,5.3203800e-04,1.0414280e-04,2.6698869e-02,1.6848088e-02,2.6860364e-02,2.5622749e-04,-7.3437299e-03,7.7500645e-04,-2.9467076e-04,-1.7001288e-01,9.7810468e-02
1.9498737e+00,3.5315726e-04,5.1689133e-04,6.9782229e-05,6.2319326e-03,-1.5632299e-03,6.2293561e-03,2.2219419e-04,-7.5660089e-03,7.0038221e-04,-3.4033330e-03,-2.2227929e-02,-7.4624311e-03
1.9598737e+00,6.9784960e-05,-2.7727674e-05,-2.8253663e-05,-2.8335670e-02,-5.4451335e-02,-2.8359238e-02,1.0338599e-05,-3.6417492e-04,7.5854184e-05,-2.1185580e-02,7.2018409e-01,-6.2452862e-02
1.9698737e+00,-4.1293832e-06,-7.6389155e-06,2.0366875e-07,-7.3913089e-03,2.0121782e-03,-7.3906760e-03,8.6843085e-05,-3.5970725e-04,-5.6884468e-06,7.6504559e-03,4.4676719e-04,-8.1542708e-03
1.9798739e+00,2.4285646e-04,1.3807618e-04,2.9446332e-06,2.4678330e-02,1.4518033e-02,2.4748944e-02,1.6332167e-04,-1.9854220e-03,8.9314651e-04,7.6476833e-03,-1.6256776e-01,8.9881439e-02
1.9898739e+00,2.9039286e-04,9.3657395e-05,-1.7344119e-06,4.7486583e-03,-4.4508672e-03,4.7502217e-03,1.5465601e-04,-1.7352737e-03,9.0386731e-04,-8.6656670e-04,2.5014854e-02,1.0720813e-03
1.9998739e+00,2.3498016e-05,3.7925001e-04,5.0459438e-05,-2.6687416e-02,2.8737994e-02,-2.6499101e-02,3.3896954e-04,-6.3804312e-03,-2.8438393e-04,1.8431371e-02,-4.6451619e-01,-1.1882524e-01
2.0098739e+00,-5.9928544e-06,3.4681832e-04,5.6521779e-05,-2.9506976e-03,-3.2247762e-03,-2.9675967e-03,2.9734829e-04,-5.9225121e-03,-2.1822916e-04,-4.1621294e-03,4.5791958e-02,6.6154835e-03
2.0198739e+00,-2.3261523e-04,4.5504920e-04,1.5539769e-04,-2.2676708e-02,1.0994011e-02,-2.2565330e-02,1.1530214e-03,-6.4065086e-03,-1.1895980e-03,8.5567397e-02,-4.8399693e-02,-9.7136979e-02
2.0298738e+00,2.9003231e-04,5.1588476e-04,8.4381582e-05,5.2232335e-02,5.6861728e-03,5.2341951e-02,2.8034392e-04,-7.3152056e-03,6.5362054e-04,-8.7267835e-02,-9.0869786e-02,1.8432203e-01
2.0398738e+00,-6.9665236e-05,3.0026430e-04,6.5678408e-05,-3.5988847e-02,-2.1353048e-02,-3.6075260e-02,3.4214047e-04,-5.4616633e-03,-3.2485852e-04,6.1796600e-03,1.8535440e-01,-9.7848000e-02
2.0498738e+00,1.1190638e-04,2.2545675e-04,-2.0764503e-04,1.8158119e-02,-7.5151176e-03,1.8142047e-02,-4.5018030e-04,-2.3431716e-03,1.3362922e-04,-7.9232152e-02,3.1184947e-01,4.5848818e-02
2.0598738e+00,-4.7027901e-04,1.4815597e-04,-1.8902676e-04,-5.8344464e-02,-7.6083375e-03,-5.8108525e-02,5.4802948e-04,-1.5462520e-03,-2.0915703e-03,9.9821074e-02,7.9692030e-02,-2.2252016e-01
2.0698738e+00,3.1522385e-04,2.2953552e-04,1.4612100e-04,7.8419411e-02,8.0137251e-03,7.8693845e-02,-3.5461027e-04,-1.9328935e-03,1.6289617e-03,-9.0264061e-02,-3.8664190e-02,3.7205355e-01
2.0798738e+00,8.5784614e-05,4.7699478e-04,1.7990088e-04,-2.2938842e-02,2.4877588e-02,-2.2806281e-02,-1.0794534e-04,-5.8619055e-03,3.3879714e-04,2.4666516e-02,-3.9290157e-01,-1.2901658e-01
2.0898738e+00,3.5688542e-06,3.3363381e-04,1.0196904e-04,-8.2278280e-03,-1.4288749e-02,-8.2974364e-03,3.0673688e-04,-5.4293902e-03,-2.2469668e-04,4.1468262e-02,4.3251573e-02,-5.6349436e-02
2.0998738e+00,2.3611113e-04,7.4377505e-04,-1.1441729e-04,2.3246386e-02,4.0810050e-02,2.3618366e-02,-2.8438887e-04,-8.9920251e-03,-1.6343705e-04,-5.9112631e-02,-3.5626383e-01,6.1259685e-03
2.1098738e+00,3.3232653e-04,5.1606348e-04,6.5862806e-05,9.6084130e-03,-2.2845569e-02,9.4569195e-03,2.8023591e-04,-7.5131990e-03,7.0176500e-04,5.6462532e-02,1.4788275e-01,8.6520288e-02
2.1198738e+00,8.9372145e-05,3.8182829e-04,4.6729322e-05,-2.4306099e-02,-1.3279026e-02,-2.4364137e-02,2.7656109e-04,-5.6640621e-03,-2.8510696e-04,-3.6748270e-04,1.8491387e-01,-9.8687290e-02
2.1298738e+00,9.9698586e-05,3.4732731e-04,4.1214634e-05,1.0322944e-03,-3.4559867e-03,1.0131318e-03,1.9100799e-04,-5.5616401e-03,-2.9857468e-04,-8.5553176e-03,1.0242210e-02,-1.3467737e-03
2.1398737e+00,2.6209029e-04,7.2534444e-05,4.7305398e-06,1.6222812e-02,-2.7509879e-02,1.6203762e-02,3.8413570e-05,-1.8449774e-03,9.4286272e-04,-1.5259457e-02,3.7166662e-01,1.2414386e-01
2.1498737e+00,1.7541904e-04,2.7311614e-04,-1.9673180e-04,-8.6754091e-03,2.0078944e-02,-8.6106110e-03,-4.6219876e-04,-2.8663653e-03,1.1473944e-04,-5.0061281e-02,-1.0213889e-01,-8.2812407e-02
2.1598737e+00,-2.0323575e-05,2.4008535e-05,3.3497252e-05,-1.9579229e-02,-2.4888910e-02,-1.9597143e-02,1.3483028e-04,-9.8213315e-04,-8.1239613e-05,5.9702961e-02,1.8842340e-01,-1.9597924e-02
2.1698737e+00,6.0648338e-05,1.9763345e-05,-2.4642023e-05,8.0977824e-03,-4.3337329e-04,8.0961466e-03,1.4517414e-04,-9.4837291e-04,-7.9672006e-05,1.0343879e-03,3.3760265e-03,1.5676083e-04
2.1798737e+00,2.6108392e-04,4.5526422e-05,-1.1520661e-05,2.0026762e-02,2.5424573e-03,2.0064696e-02,1.9625956e-04,-1.4912743e-03,8.6373561e-04,5.1085465e-03,-5.4290194e-02,9.4340852e-02
2.1898737e+00,1.5021863e-04,6.3890568e-04,-1.4458945e-04,-1.1097475e-02,5.9425910e-02,-1.0593682e-02,-1.3980068e-04,-8.2553412e-03,-2.3819052e-04,-3.3606056e-02,-6.7640734e-01,-1.1019272e-01
2.1998737e+00,2.8130269e-04,4.9486558e-04,5.7413475e-05,1.3094772e-02,-1.4506551e-02,1.3008615e-02,3.3971069e-04,-7.5079249e-03,6.6744883e-04,4.7951183e-02,7.4741706e-02,9.0564022e-02
2.2098737e+00,4.7043070e-05,3.6929442e-04,5.8922828e-05,-2.3437008e-02,-1.2412836e-02,-2.3491767e-02,3.5233219e-04,-5.7998004e-03,-2.8182124e-04,1.2621515e-03,1.7081262e-01,-9.4927098e-02
2.2198737e+00,-9.5244001e-05,-2.5441112e-05,3.5787053e-04,-1.4227305e-02,-3.9485925e-02,-1.4195875e-02,5.9706201e-05,9.2751502e-04,2.6506910e-04,-2.9262627e-02,6.7273218e-01,5.4689087e-02
2.2298739e+00,-5.1538317e-04,4.6221307e-04,-1.4381291e-04,-4.2066968e-02,4.9098135e-02,-4.1567744e-02,1.0812142e-03,-6.9107962e-03,-2.5444041e-03,1.0214846e-01,-7.8381318e-01,-2.8094089e-01
2.2398739e+00,2.7347778e-04,4.1993493e-04,6.1971766e-05,7.8836519e-02,-4.8209534e-03,7.8901786e-02,2.5062665e-04,-7.2652730e-03,6.1575632e-04,-8.3058832e-02,-3.5447710e-02,3.1601634e-01
2.2498739e+00,2.5110124e-05,-9.2115448e-05,-2.2791428e-05,-2.4840169e-02,-5.1204660e-02,-2.4834290e-02,7.9292642e-05,6.2103549e-05,2.7394249e-05,-1.7133417e-02,7.3273835e-01,-5.8836263e-02
2.2598739e+00,3.7040818e-05,-1.9614157e-05,1.1740663e-05,1.1941940e-03,7.2492557e-03,1.1972884e-03,1.6275893e-04,-5.7400477e-04,4.7382731e-05,8.3466370e-03,-6.3610893e-02,1.9988500e-03
2.2698739e+00,3.0419994e-04,1.0797566e-04,2.9591270e-05,2.6692352e-02,1.2703947e-02,2.6765700e-02,1.1398183e-04,-1.9437420e-03,9.3684608e-04,-4.8777150e-03,-1.3697385e-01,8.8946419e-02
2.2798738e+00,3.4930915e-04,1.0511185e-04,1.2629306e-05,4.5065065e-03,-2.9602330e-04,4.5147185e-03,1.1332446e-04,-2.0225152e-03,9.7198253e-04,-6.5736959e-05,-7.8773263e-03,3.5136491e-03
2.2898738e+00,4.6967389e-05,-9.2524187e-05,-8.1826517e-06,-3.0237779e-02,-1.9751296e-02,-3.0238687e-02,1.7594436e-04,-2.3176344e-04,-3.2054559e-06,6.2619957e-03,1.7907535e-01,-9.7518892e-02
2.2998738e+00,6.9602831e-05,3.3269185e-04,4.4328809e-05,2.2814554e-03,4.2507145e-02,2.5050223e-03,4.0293123e-04,-5.6983063e-03,-3.4288037e-04,2.2698709e-02,-5.4665481e-01,-3.3967523e-02
2.3098738e+00,1.4501408e-04,3.4119299e-04,6.7109344e-05,7.5439661e-03,8.0536309e-04,7.5432103e-03,3.5327786e-04,-5.5812406e-03,-3.3603915e-04,-4.9653420e-03,1.1706581e-02,6.8412191e-04
2.3198738e+00,4.0260797e-04,4.6900387e-04,3.9283304e-05,2.5744791e-02,1.2582077e-02,2.5871767e-02,3.1530666e-04,-7.3920615e-03,7.2377335e-04,-3.7971233e-03,-1.8108226e-01,1.0598135e-01
2.3298738e+00,2.1760010e-04,4.5578504e-04,3.9978979e-05,-1.8490418e-02,-1.1711932e-03,-1.8521330e-02,3.1031233e-04,-7.8281058e-03,5.8337716e-04,-4.9943374e-04,-4.3604472e-02,-1.4039632e-02
2.3398738e+00,1.6135841e-04,2.1022266e-04,-2.3453527e-04,-5.6125273e-03,-2.4546528e-02,-5.6780397e-03,-4.3447272e-04,-2.1541488e-03,1.7377676e-04,-7.4478576e-02,5.6739624e-01,-4.0960079e-02
2.3498738e+00,3.5137235e-04,8.4516047e-05,5.3010912e-05,1.8976854e-02,-1.2596874e-02,1.9008602e-02,-9.5021353e-05,-1.4726041e-03,1.3543855e-03,3.3945169e-02,6.8154535e-02,1.1806099e-01
2.3598738e+00,-5.3099875e-04,-2.2465483e-03,-6.4116028e-04,-9.0359028e-02,-2.3252426e-01,-8.7624375e-02,8.1187058e-03,1.6131488e-03,-2.6355280e-03,8.2137350e-01,3.0857559e-01,-3.9899174e-01
2.3698738e+00,-1.0947477e-03,-2.7423595e-03,-7.5718347e-04,-5.7003681e-02,-4.9422644e-02,-5.5879738e-02,8.8523113e-03,6.1119829e-03,-3.4123109e-03,7.3360621e-02,4.4988384e-01,-7.7678356e-02
2.3798738e+00,-5.4161369e-04,6.3229197e-04,-1.3817877e-04,5.5240104e-02,3.3697496e-01,5.8296763e-02,-2.1734866e-04,-8.8465451e-03,2.9124232e-08,-9.0696686e-01,-1.4958542e+00,3.4123432e-01
2.3898737e+00,-8.7348521e-04,8.5106803e-04,-7.9074343e-05,-3.3200510e-02,2.2256743e-02,-3.2920701e-02,-5.3932763e-05,-1.1525748e-02,-3.6603504e-04,1.6341606e-02,-2.6792051e-01,-3.6606452e-02
2.3998737e+00,-1.1734273e-03,7.4957654e-04,2.5797675e-04,-2.9957204e-02,-9.8366102e-03,-3.0135045e-02,-1.7324389e-04,-1.0562446e-02,1.1753422e-03,-1.1931124e-02,9.6330275e-02,1.5413787e-01
2.4098737e+00,-1.8946372e-03,2.3670512e-04,1.7473756e-04,-7.2159894e-02,-5.0724318e-02,-7.2479392e-02,7.3497972e-04,-7.0518904e-03,-1.6135751e-05,9.0822447e-02,3.5105588e-01,-1.1914790e-01
2.4198737e+00,-1.9842426e-03,3.4428482e-04,1.1143436e-04,-8.9473248e-03,1.0841771e-02,-8.8723383e-03,7.2629576e-04,-8.6650524e-03,6.0334607e-04,-8.6839714e-04,-1.6131635e-01,6.1948241e-02
2.4298737e+00,-2.3545836e-03,2.9339670e-04,1.1633095e-04,-3.7023080e-02,-4.7475379e-03,-3.7090468e-02,6.0130911e-04,-8.6056665e-03,3.8087924e-04,-1.2498677e-02,5.9385915e-03,-2.2246704e-02
2.4398737e+00,-2.8295603e-03,1.9706053e-04,1.4605317e-04,-4.7481595e-02,-9.2377132e-03,-4.7592404e-02,6.8572854e-04,-7.6401547e-03,4.7828599e-04,8.4419512e-03,9.6551278e-02,9.7406841e-03
2.4498737e+00,-3.0983618e-03,1.9528972e-04,1.8343691e-04,-2.6866583e-02,4.6707468e-05,-2.6894307e-02,7.0247573e-04,-7.6189536e-03,5.0997952e-04,1.6747207e-03,2.1201119e-03,3.1693564e-03
2.4598737e+00,-3.1644616e-03,1.3653251e-04,2.3128302e-04,-6.6086534e-03,-5.8231251e-03,-6.6576936e-03,6.5259438e-04,-7.2760443e-03,7.8101966e-04,-4.9881397e-03,3.4290955e-02,2.7104040e-02
2.4698737e+00,-3.8261468e-03,-1.7270685e-04,2.4102409e-04,-6.6186587e-02,-3.0604157e-02,-6.6299136e-02,7.7208983e-04,-4.0568084e-03,8.8435099e-05,1.1949556e-02,3.2192390e-01,-6.9258522e-02
2.4798739e+00,-4.0967258e-03,-9.3944826e-05,2.6271847e-04,-2.7024204e-02,8.0432552e-03,-2.7041125e-02,1.2079585e-03,-4.9722904e-03,8.6954370e-04,4.3585872e-02,-9.1546106e-02,7.8109072e-02
2.4898739e+00,-4.4256227e-03,5.9358349e-05,2.6120621e-04,-3.2853799e-02,1.5594515e-02,-3.2801313e-02,1.0979498e-03,-6.9420047e-03,5.7977447e-04,-1.1000880e-02,-1.9697162e-01,-2.8976951e-02
2.4998739e+00,-5.0480264e-03,-1.3565761e-04,3.1711191e-04,-6.2289441e-02,-1.9088732e-02,-6.2319355e-02,1.0475681e-03,-5.5836644e-03,-4.5980680e-04,-5.0381812e-03,1.3583416e-01,-1.0395823e-01
2.5098739e+00,-5.5467618e-03,-6.9337376e-04,5.4583263e-04,-4.9950623e-02,-5.5763694e-02,-4.9805345e-02,1.2992274e-03,1.1411198e-03,-9.2760648e-05,2.5165960e-02,6.7247906e-01,3.6704650e-02
2.5198739e+00,-5.6231090e-03,-6.2361396e-04,4.9381112e-04,-7.6161491e-03,6.9915338e-03,-7.6390624e-03,1.3815785e-03,-6.5514832e-04,1.1695466e-03,8.2351144e-03,-1.7962698e-01,1.2623084e-01
2.5298738e+00,-5.9784734e-03,-4.7847517e-04,3.2274484e-04,-3.5501032e-02,1.4570529e-02,-3.5548722e-02,8.3794427e-04,-7.5557070e-04,6.5457061e-04,-5.4363473e-02,-1.0042247e-02,-5.1497645e-02
2.5398738e+00,-7.1694086e-03,-8.1010413e-04,6.2117495e-04,-1.1923749e-01,-3.3305981e-02,-1.1890963e-01,1.9729656e-03,3.1782010e-03,-6.6065803e-04,1.1350224e-01,3.9337754e-01,-1.3152299e-01
2.5498738e+00,-7.2827533e-03,-7.2141871e-04,6.0193949e-04,-1.1309507e-02,8.8739853e-03,-1.1355158e-02,1.2385790e-03,7.5723857e-04,1.2328812e-03,-7.3438737e-02,-2.4209647e-01,1.8935411e-01
2.5598738e+00,-8.0093356e-03,-5.5230308e-04,4.2691128e-04,-7.2653073e-02,1.7371680e-02,-7.2554907e-02,1.8008971e-03,-4.5358759e-03,-3.4890273e-04,5.6231862e-02,-5.2931195e-01,-1.5817855e-01
2.5698738e+00,-8.5361575e-03,-6.9109596e-04,4.5737400e-04,-5.2715727e-02,-1.3572924e-02,-5.2728531e-02,1.8088445e-03,-4.0048637e-03,-1.6090205e-04,7.9474749e-04,5.3101269e-02,1.8800086e-02
2.5798738e+00,-9.5789368e-03,-1.0063894e-03,4.5719288e-04,-1.0446202e-01,-3.1115575e-02,-1.0421816e-01,2.8679200e-03,-1.0998493e-03,-9.0177313e-04,1.0590765e-01,2.9050171e-01,-7.4087179e-02
2.5898738e+00,-1.0092783e-02,-7.7563347e-04,5.7550647e-04,-5.1359962e-02,2.3340860e-02,-5.1289536e-02,2.5663269e-03,-2.6004453e-03,-6.7462665e-04,-3.0159338e-02,-1.5005974e-01,2.2714670e-02
2.5998738e+00,-1.0042698e-02,-8.6347822e-04,3.5567924e-04,4.9880179e-03,-8.8108465e-03,4.9826083e-03,2.1034787e-03,-3.1716629e-03,4.0218653e-04,-4.6284864e-02,-5.7121808e-02,1.0768142e-01
2.6098738e+00,-1.0805929e-02,-9.7365253e-04,4.2460024e-04,-7.6366040e-02,-1.0694389e-02,-7.6326282e-02,2.1251313e-03,-2.1074738e-03,-2.5692113e-04,2.1652658e-03,1.0641901e-01,-6.5910828e-02
2.6198738e+00,-1.1462057e-02,-5.4670106e-04,7.1677390e-04,-6.5490121e-02,4.3281102e-02,-6.5350996e-02,2.2821309e-03,-6.6614274e-03,3.8229931e-04,1.5699979e-02,-4.5539580e-01,6.3922104e-02
2.6298738e+00,-1.2627724e-02,-1.2517794e-03,8.4628556e-04,-1.1697543e-01,-7.0150895e-02,-1.1637274e-01,3.9977130e-03,9.4116765e-04,-1.0958228e-03,1.7155837e-01,7.6026023e-01,-1.4781235e-01
2.6398737e+00,-1.2499155e-02,-7.0130782e-04,5.8159466e-04,1.3045543e-02,5.4884819e-02,1.3351536e-02,3.6073895e-03,-8.8222375e-03,7.6278174e-04,-3.9032391e-02,-9.7634145e-01,1.8586063e-01
2.6498737e+00,-1.3520339e-02,-9.6767011e-04,5.8615095e-04,-1.0224744e-01,-2.5616401e-02,-1.0225018e-01,3.5116625e-03,-6.4706476e-03,-3.5355164e-04,-9.5727056e-03,2.3515921e-01,-1.1163345e-01
2.6598737e+00,-1.4687111e-02,-1.5919126e-03,8.8229441e-04,-1.1696589e-01,-6.2109563e-02,-1.1655632e-01,3.8699758e-03,1.1772700e-03,-4.1020751e-04,3.5831369e-02,7.6479249e-01,-5.6655925e-03
2.6698737e+00,-1.6842531e-02,-3.4183966e-03,5.2662271e-05,-2.1894417e-01,-1.7942185e-01,-2.1482225e-01,1.2748799e-02,-2.1621300e-03,-5.0748762e-03,8.8788312e-01,-3.3394032e-01,-4.6646732e-01
2.6798737e+00,-1.6511048e-02,-2.7675101e-03,1.0685250e-03,3.3809911e-02,6.4412349e-02,3.3794884e-02,1.0914365e-02,-9.2758315e-03,1.4097839e-03,-1.8344356e-01,-7.1137083e-01,6.4846664e-01
2.6898737e+00,-1.7271573e-02,-1.3378644e-03,7.5219698e-04,-7.5430358e-02,1.4387374e-01,-7.4950009e-02,4.2892250e-03,-7.7363950e-03,1.0928447e-04,-6.6251460e-01,1.5394380e-01,-1.3005007e-01
2.6998737e+00,-1.8908473e-02,-1.8731370e-03,1.0238516e-03,-1.6435259e-01,-5.2605333e-02,-1.6332476e-01,5.4926374e-03,-1.3524612e-04,-2.2687822e-03,1.2034135e-01,7.6011561e-01,-2.3780689e-01
2.7098737e+00,-2.0555331e-02,-4.0196765e-03,3.2398764e-04,-1.6844981e-01,-2.1271442e-01,-1.6339095e-01,1.3074208e-02,1.4167204e-03,-5.9171155e-03,7.5815782e-01,1.5519680e-01,-3.6483368e-01
2.7198737e+00,-2.0092281e-02,-1.9988457e-03,1.1836890e-03,4.7038190e-02,2.0194422e-01,4.6172667e-02,3.8783261e-03,9.0871430e-04,1.0853192e-03,-9.1958910e-01,-5.0800654e-02,7.0024414e-01
2.7298739e+00,-2.0985385e-02,-2.0101037e-03,8.9705030e-04,-8.9260579e-02,-3.7978711e-04,-8.9362355e-02,4.7564235e-03,-3.5943118e-03,5.8323811e-04,8.7807722e-02,-4.5029230e-01,-5.0206961e-02
2.7398739e+00,-2.2171881e-02,-2.2213706e-03,9.7496590e-04,-1.1880986e-01,-2.0146621e-02,-1.1865996e-01,5.2859337e-03,-2.9724592e-03,-4.2245395e-04,5.2951074e-02,6.2185317e-02,-1.0056930e-01
2.7498739e+00,-2.3009333e-02,-2.1524986e-03,1.0524522e-03,-8.3662487e-02,7.7758028e-03,-8.3750249e-02,5.3126753e-03,-5.2976677e-03,5.3751670e-04,2.6741627e-03,-2.3252108e-01,9.5997157e-02
2.7598739e+00,-2.4372773e-02,-2.2564611e-03,1.0774525e-03,-1.3638804e-01,-8.8423437e-03,-1.3640981e-01,5.8135706e-03,-5.5805068e-03,1.0424149e-04,5.0089583e-02,-2.8283938e-02,-4.3327562e-02
2.7698739e+00,-2.5905610e-02,-2.5045091e-03,1.2963483e-03,-1.5353141e-01,-2.3474739e-02,-1.5324561e-01,5.5570897e-03,-3.1192341e-03,-7.3131913e-04,-2.5648118e-02,2.4612751e-01,-8.3556142e-02
2.7798738e+00,-2.7154233e-02,-3.0790310e-03,1.1000198e-03,-1.2541514e-01,-5.6864775e-02,-1.2457699e-01,6.2282838e-03,1.5352192e-03,-1.5818830e-03,6.7119473e-02,4.6544577e-01,-8.5056469e-02
2.7898738e+00,-2.8158469e-02,-3.1381465e-03,1.1635178e-03,-1.0057955e-01,-5.2942764e-03,-1.0030215e-01,6.5856203e-03,4.4058207e-04,-1.1863435e-03,3.5733687e-02,-1.0946381e-01,3.9553987e-02
2.7998738e+00,-2.9060970e-02,-3.4918759e-03,1.3826055e-03,-9.0410033e-02,-3.5262557e-02,-9.0133377e-02,6.6667977e-03,5.4533103e-03,8.1953225e-04,8.1177445e-03,5.0127330e-01,2.0058777e-01
2.8098738e+00,-3.0483826e-02,-3.5594746e-03,1.5181947e-03,-1.4232278e-01,-6.1847617e-03,-1.4227478e-01,7.5446061e-03,3.5039470e-03,6.9362803e-05,8.7780920e-02,-1.9493652e-01,-7.5017016e-02
2.8198738e+00,-3.1846801e-02,-3.3486907e-03,1.3210461e-03,-1.3626448e-01,2.2712251e-02,-1.3606812e-01,8.7552111e-03,-3.2427223e-03,-1.1497363e-03,1.2106062e-01,-6.7466757e-01,-1.2191003e-01
2.8298738e+00,-3.3211427e-02,-3.0381589e-03,1.5787681e-03,-1.3616121e-01,3.3084625e-02,-1.3628652e-01,8.1170139e-03,-6.7800342e-03,3.2984942e-04,-6.3819781e-02,-3.5373153e-01,1.4795872e-01
2.8398738e+00,-3.4444339e-02,-3.7327596e-03,3.1204462e-03,-1.2322893e-01,-6.8520315e-02,-1.2387814e-01,8.8138948e-03,1.2067410e-03,5.4177877e-03,6.9688162e-02,7.9867828e-01,5.0879431e-01
2.8498738e+00,-3.6672753e-02,-4.0512263e-03,1.9302364e-03,-2.2359622e-01,-3.0237111e-02,-2.2230928e-01,9.8608018e-03,2.6504087e-03,-2.0278271e-03,1.0469079e-01,1.4436690e-01,-7.4456219e-01
2.8598738e+00,-3.7352644e-02,-3.9067095e-03,1.6984637e-03,-6.7844185e-02,1.5189052e-02,-6.7973178e-02,8.7332212e-03,-2.1201650e-03,2.3734159e-04,-1.1275817e-01,-4.7705782e-01,2.2651708e-01
2.8698738e+00,-3.8746437e-02,-4.3312693e-03,1.6675576e-03,-1.3965078e-01,-4.1356965e-02,-1.3943826e-01,8.6939881e-03,8.1959214e-04,6.6337435e-04,-3.9233102e-03,2.9397599e-01,4.2603317e-02
2.8798738e+00,-4.0621217e-02,-4.4776565e-03,1.8895208e-03,-1.8758644e-01,-1.2973077e-02,-1.8749252e-01,1.0050166e-02,1.1692638e-03,1.5667654e-04,1.3561789e-01,3.4967201e-02,-5.0669829e-02
2.8898737e+00,-4.2085070e-02,-4.2128139e-03,2.2714023e-03,-1.4590674e-01,2.8334298e-02,-1.4651704e-01,9.8801291e-03,-2.7635964e-03,1.4332803e-03,-1.7003682e-02,-3.9328639e-01,1.2766050e-01
2.8998737e+00,-4.3354975e-02,-3.8790455e-03,2.0999402e-03,-1.2653740e-01,3.5879093e-02,-1.2676041e-01,1.0508559e-02,-9.2150018e-03,7.5109881e-04,6.2843052e-02,-6.4514116e-01,-6.8218218e-02
2.9098737e+00,-4.5277805e-02,-4.4195548e-03,2.1474895e-03,-1.9300261e-01,-5.0656043e-02,-1.9248670e-01,1.1391661e-02,-6.2448263e-03,-6.0428765e-04,8.8310307e-02,2.9701783e-01,-1.3553878e-01
2.9198737e+00,-4.7693249e-02,-9.8056281e-03,3.2410783e-03,-2.5619461e-01,-5.3394693e-01,-2.3675092e-01,2.8273205e-02,9.9525175e-03,1.9834410e-03,1.6881560e+00,1.6197359e+00,2.5877311e-01
2.9298737e+00,-4.9424422e-02,-1.1802415e-02,2.2183352e-03,-1.7948754e-01,-1.9897431e-01,-1.6734527e-01,3.0834234e-02,2.7793760e-02,-1.7135417e-03,2.5610308e-01,1.7841259e+00,-3.6969863e-01
2.9398737e+00,-4.9872870e-02,-5.4121517e-03,2.0462395e-03,-3.6659152e-02,6.3962475e-01,-4.3748095e-02,1.2853954e-02,-1.6740873e-03,-7.0982900e-04,-1.7980297e+00,-2.9467875e+00,1.0037137e-01
2.9498737e+00,-5.1418870e-02,-5.4716433e-03,2.1398527e-03,-1.5469705e-01,-3.6195321e-03,-1.5457538e-01,1.2690877e-02,-2.3756092e-03,-2.1876161e-04,-1.6307716e-02,-7.0152258e-02,4.9106786e-02
2.9598737e+00,-5.3169866e-02,-5.5902851e-03,2.3560084e-03,-1.7528818e-01,-9.0762489e-03,-1.7507801e-01,1.3298944e-02,-2.6179726e-03,-2.6328766e-04,6.0806729e-02,-2.4236361e-02,-4.4526089e-03
2.9698737e+00,-5.6116657e-02,-1.2252827e-02,2.2827736e-03,-3.1641723e-01,-6.6439076e-01,-2.7573969e-01,3.1588239e-02,2.7302953e-02,-2.8635828e-03,1.8289312e+00,2.9920954e+00,-2.6002976e-01
2.9798739e+00,-5.6535712e-02,-1.1813589e-02,3.2354929e-03,-4.0337526e-02,4.4425003e-02,-4.2900930e-02,3.1861214e-02,1.9078123e-02,3.4913688e-03,2.7296956e-02,-8.2246418e-01,6.3548062e-01
2.9898739e+00,-5.8068905e-02,-1.1175382e-02,3.8814218e-03,-1.5047345e-01,6.7021034e-02,-1.5476652e-01,3.0948941e-02,9.8003975e-03,5.1891383e-03,-9.1227468e-02,-9.2777341e-01,1.6977711e-01
2.9998739e+00,-5.9205094e-02,-6.8007073e-03,2.3850346e-03,-1.0676223e-01,4.3888797e-01,-1.1478634e-01,1.5635411e-02,2.6516994e-03,2.8627369e-05,-1.5313544e+00,-7.1487049e-01,-5.1605158e-01
3.0098739e+00,-6.1159118e-02,-6.8333129e-03,2.8769648e-03,-1.9557164e-01,-7.1256922e-04,-1.9525924e-01,1.6283653e-02,3.2478029e-03,-7.2648344e-04,6.4824239e-02,5.9610408e-02,-7.5511153e-02
3.0198739e+00,-6.3529578e-02,-1.1556233e-02,3.4986332e-03,-2.5177613e-01,-4.6708843e-01,-2.3211887e-01,3.2528651e-02,1.1731758e-02,2.1280357e-03,1.6245014e+00,8.4839629e-01,2.8545218e-01
3.0298738e+00,-6.5080024e-02,-1.0998653e-02,3.6643758e-03,-1.5263978e-01,5.9415533e-02,-1.5606919e-01,3.0615132e-02,6.8159421e-03,4.0264625e-03,-1.9135207e-01,-4.9158202e-01,1.8984286e-01
3.0398738e+00,-6.7076932e-02,-1.1387744e-02,3.5613452e-03,-2.0019857e-01,-3.4326155e-02,-2.0002292e-01,3.1395968e-02,8.5159823e-03,3.0770740e-03,7.8083658e-02,1.7000418e-01,-9.4938945e-02
3.0498738e+00,-6.8336214e-02,-7.0922636e-03,2.5667242e-03,-1.1834096e-01,4.3208346e-01,-1.2460785e-01,1.7724883e-02,-2.9581040e-03,-3.6270491e-04,-1.3671098e+00,-1.1474097e+00,-3.4397822e-01
3.0598738e+00,-7.0209166e-02,-7.1985749e-03,2.5382384e-03,-1.8755880e-01,-6.1847104e-03,-1.8723135e-01,1.8418891e-02,-5.3150348e-03,-5.3083418e-04,6.9400835e-02,-2.3569330e-01,-1.6812943e-02
3.0698738e+00,-7.2658301e-02,-1.2275538e-02,3.4292665e-03,-2.6104036e-01,-5.0196335e-01,-2.4002534e-01,3.3342580e-02,1.1174014e-02,2.6991247e-03,1.4923703e+00,1.6489065e+00,3.2299620e-01
3.0798738e+00,-7.4096672e-02,-1.2095183e-02,3.8369752e-03,-1.4233862e-01,2.1696017e-02,-1.4481921e-01,3.3775358e-02,8.1973331e-03,5.5990036e-03,4.3277904e-02,-2.9766840e-01,2.8998816e-01
3.0898738e+00,-7.6651303e-02,-1.3068693e-02,3.5751654e-03,-2.5790171e-01,-9.1796847e-02,-2.5506917e-01,3.5070331e-02,1.3544171e-02,3.1966610e-03,1.2949742e-01,5.3468427e-01,-2.4023448e-01
3.0998738e+00,-7.8765342e-02,-1.4211234e-02,3.4784497e-03,-2.1490027e-01,-1.1027452e-01,-2.0998761e-01,3.7474412e-02,1.9054074e-02,3.0037967e-03,2.4040828e-01,5.5099089e-01,-1.9286452e-02
3.1098738e+00,-8.1610476e-02,-1.5454883e-02,2.8669176e-03,-2.8959863e-01,-1.2080464e-01,-2.8089428e-01,4.0188238e-02,2.8209958e-02,-1.1183972e-03,2.7138289e-01,9.1558927e-01,-4.1221978e-01
3.1198738e+00,-8.3204906e-02,-8.7642707e-03,2.7185093e-03,-1.4555157e-01,6.7202266e-01,-1.6027586e-01,2.1118944e-02,1.6091421e-03,-1.7119222e-03,-1.9069312e+00,-2.6600842e+00,-5.9352563e-02
3.1298738e+00,-8.5926005e-02,-8.3232698e-03,2.7737781e-03,-2.7210994e-01,5.2643609e-02,-2.7058739e-01,2.3496052e-02,-7.9865592e-03,-4.0911307e-03,2.3771102e-01,-9.5957104e-01,-2.3792108e-01
3.1398737e+00,-8.8655903e-02,-1.3473709e-02,3.7680201e-03,-2.9285142e-01,-5.0703308e-01,-2.6734497e-01,3.8281184e-02,1.0422384e-02,-1.2819003e-03,1.4785146e+00,1.8408961e+00,2.8092331e-01
3.1498737e+00,-9.0782090e-02,-1.3993518e-02,3.7162378e-03,-2.1470245e-01,-4.6382560e-02,-2.1181851e-01,3.8515824e-02,1.2386871e-02,-1.1280388e-03,2.3464031e-02,1.9644886e-01,1.5386161e-02
3.1598737e+00,-9.2471853e-02,-1.4079351e-02,3.8618507e-03,-1.6894941e-01,-4.0009907e-03,-1.6917404e-01,3.8215111e-02,1.1110782e-02,1.3697746e-03,-3.0071339e-02,-1.2760902e-01,2.4978157e-01
3.1698737e+00,-9.4788299e-02,-1.4160385e-02,4.0050248e-03,-2.3132349e-01,-1.1816332e-03,-2.3210425e-01,3.8028346e-02,8.1475020e-03,1.9922929e-03,-1.8676564e-02,-2.9632830e-01,6.2251894e-02
3.1798737e+00,-9.8077480e-02,-1.6709099e-02,2.6789200e-03,-3.4094561e-01,-2.5015863e-01,-3.2017343e-01,4.1988459e-02,2.8784292e-02,-4.9333422e-03,3.9601173e-01,2.0636810e+00,-6.9256417e-01
