time, x, y, z, vx, vy, vz, yaw, pitch, roll, yaw_rate, pitch_rate, roll_rate
0.0000000e+00,0.0000000e+00,0.0000000e+00,0.0000000e+00,0.0000000e+00,0.0000000e+00,0.0000000e+00,0.0000000e+00,0.0000000e+00,0.0000000e+00,0.0000000e+00,0.0000000e+00,0.0000000e+00
9.9999905e-03,1.5411760e-04,-1.3533190e-04,4.4292635e-05,1.5405574e-02,-1.3528878e-02,1.5421768e-02,1.1114553e-05,2.9157623e-04,3.9249888e-04,1.1114564e-03,2.9157651e-02,3.9249926e-02
1.9999981e-02,8.4646768e-04,8.5031029e-04,1.1307939e-03,6.8705620e-02,9.8300359e-02,7.0131960e-02,-1.6007029e-03,-5.3622795e-03,5.3528523e-03,-1.6118190e-01,-5.6538611e-01,4.9603581e-01
2.9999971e-02,2.5929994e-04,1.8915545e-04,4.6638787e-04,-5.8556277e-02,-6.6184608e-02,-5.8799302e-02,-7.6870197e-04,4.0713417e-04,1.8667647e-03,8.3200175e-02,5.7694192e-01,-3.4860909e-01
3.9999962e-02,1.7136422e-04,-4.3595117e-05,2.6580196e-04,-8.7823404e-03,-2.3280929e-02,-8.7893240e-03,-1.1196883e-04,5.5320317e-04,9.8126789e-04,6.5673377e-02,1.4606914e-02,-8.8549769e-02
4.9999952e-02,1.5064807e-03,1.2139572e-03,1.0824298e-03,1.3242353e-01,1.2408707e-01,1.3613083e-01,-1.5690043e-03,-1.3880917e-02,6.6498188e-03,-1.4570368e-01,-1.4434134e+00,5.6685563e-01
5.9999943e-02,8.6207391e-04,9.2437831e-04,1.0647802e-03,-6.4068844e-02,-2.8566063e-02,-6.4984162e-02,-1.3189847e-03,-7.3494558e-03,5.1641977e-03,2.5001986e-02,6.5314671e-01,-1.4856225e-01
6.9999933e-02,8.0739680e-04,9.7269395e-04,9.9987615e-04,-5.4471361e-03,4.8662435e-03,-5.4574975e-03,-1.2291411e-03,-7.5603882e-03,4.8376481e-03,8.9843601e-03,-2.1093258e-02,-3.2654990e-02
7.9999924e-02,1.3008303e-04,1.5882572e-05,-8.3331707e-05,-6.7748426e-02,-9.5635166e-02,-6.7779493e-02,1.0991568e-04,-5.6997326e-04,-9.5498088e-05,1.3390581e-01,6.9904216e-01,-4.9331509e-01
8.9999914e-02,1.2137568e-04,-3.3764821e-05,-1.2060906e-04,-8.7165710e-04,-4.9643828e-03,-8.7187245e-04,1.4061262e-04,-2.7400310e-04,-2.5648401e-04,3.0696969e-03,2.9597045e-02,-1.6098607e-02
9.9999905e-02,1.2875466e-03,1.4382405e-03,1.0745958e-03,1.1589075e-01,1.4568387e-01,1.1921715e-01,1.7312431e-04,-1.2651858e-02,6.4273231e-03,3.2511715e-03,-1.2377867e+00,6.6838135e-01
1.0999990e-01,7.5456515e-04,6.8508844e-04,9.1482746e-04,-5.3016610e-02,-7.5171663e-02,-5.3779620e-02,-6.7186820e-04,-3.3438592e-03,4.3242871e-03,-8.4499331e-02,9.3080077e-01,-2.1030381e-01
1.1999989e-01,1.1166224e-03,7.5190670e-04,8.3349641e-04,3.6039422e-02,6.4247584e-03,3.6417629e-02,5.9505875e-04,-6.4711605e-03,4.6929107e-03,1.2669282e-01,-3.1273043e-01,3.6862392e-02
1.2999988e-01,1.4069201e-03,1.1960463e-03,1.2701291e-03,2.8819075e-02,4.4134085e-02,2.9659837e-02,-1.1247511e-04,-9.6167046e-03,7.0619921e-03,-7.0753453e-02,-3.1455471e-01,2.3690837e-01
1.3999987e-01,8.9573838e-04,5.6953936e-04,1.1270768e-03,-5.0771692e-02,-6.2642481e-02,-5.1472498e-02,-1.1031810e-03,-1.2565787e-03,5.4117910e-03,-9.9070688e-02,8.3601339e-01,-1.6502026e-01
1.4999986e-01,1.3678980e-03,1.2187405e-03,1.1983868e-03,4.6894075e-02,6.4425502e-02,4.8204072e-02,1.0604884e-04,-1.0228299e-02,6.9400718e-03,1.2092310e-01,-8.9717285e-01,1.5282823e-01
1.5999985e-01,3.0438324e-04,-8.2588493e-06,2.6669713e-04,-1.0622421e-01,-1.2269009e-01,-1.0649028e-01,-1.2388712e-04,-2.1729697e-04,1.0541561e-03,-2.2993618e-02,1.0011011e+00,-5.8859213e-01
1.6999006e-01,3.2319826e-05,-4.9604063e-05,2.6099937e-06,-2.7233491e-02,-4.1495185e-03,-2.7230818e-02,1.0348840e-04,5.0551117e-04,-2.7606682e-06,2.2759822e-02,7.2351608e-02,-1.0579520e-01
1.7999005e-01,7.9108926e-04,1.1067486e-03,9.6749897e-04,7.5347701e-02,1.1507646e-01,7.7241935e-02,-1.4260046e-03,-8.6916418e-03,4.7902993e-03,-1.5294944e-01,-9.1971618e-01,4.7930645e-01
1.8999004e-01,7.5744310e-04,1.0623840e-03,7.7929781e-04,-3.3452469e-03,-4.4104402e-03,-3.4177368e-03,-1.2354902e-03,-8.8822401e-03,4.1193294e-03,1.9051449e-02,-1.9059850e-02,-6.7097054e-02
1.9999027e-01,8.3733643e-05,4.4560502e-05,-1.7712206e-04,-6.7398650e-02,-1.0171746e-01,-6.7434594e-02,5.1869223e-06,-9.2306514e-04,-4.2637153e-04,1.2406488e-01,7.9589928e-01,-4.5455969e-01
2.0999026e-01,1.4239313e-03,1.4158827e-03,9.8037666e-04,1.3292796e-01,1.3518502e-01,1.3705150e-01,-1.7332318e-03,-1.6029552e-02,6.3524785e-03,-1.7384204e-01,-1.5106501e+00,6.7788565e-01
2.1999025e-01,2.3334177e-04,-4.5728138e-06,1.8965751e-04,-1.1894291e-01,-1.4206898e-01,-1.1914735e-01,-7.7504144e-05,1.1797911e-04,8.8273567e-04,1.6557293e-01,1.6147547e+00,-5.4697481e-01
2.2999024e-01,1.3585656e-03,1.2487864e-03,1.1992674e-03,1.1174569e-01,1.2415347e-01,1.1458865e-01,1.1701813e-04,-1.0262468e-02,7.0092745e-03,1.9452246e-02,-1.0380457e+00,6.1265447e-01
2.3999023e-01,1.3623417e-03,1.2257884e-03,1.2473599e-03,3.7500174e-04,-2.3034299e-03,3.5754334e-04,-3.0082154e-05,-9.8811941e-03,7.0880345e-03,-1.4710042e-02,3.8127450e-02,7.8760064e-03
2.4999022e-01,3.7776604e-04,7.8054394e-05,5.4539855e-04,-9.8204065e-02,-1.1484599e-01,-9.8626279e-02,-3.6346138e-04,3.7200517e-04,2.1496498e-03,-3.3337954e-02,1.0253209e+00,-4.9383895e-01
2.5999022e-01,4.1265764e-04,1.2731260e-04,4.2327249e-04,3.4816497e-03,4.9230224e-03,3.5006066e-03,-2.7172203e-04,-1.0723520e-03,1.7682596e-03,9.1739431e-03,-1.4443586e-01,-3.8139053e-02
2.6999021e-01,1.3810211e-03,1.3463037e-03,1.1186476e-03,9.6225407e-02,1.2069187e-01,9.8935112e-02,2.8805415e-04,-1.2009783e-02,6.6504230e-03,5.5977672e-02,-1.0937441e+00,4.8821681e-01
2.7999020e-01,7.0871023e-04,6.6888826e-04,6.8731926e-04,-6.6983210e-02,-6.7451742e-02,-6.7767936e-02,-2.6963837e-04,-4.5551737e-03,3.4103605e-03,-5.5769305e-02,7.4546163e-01,-3.2400656e-01
2.8999019e-01,7.8315415e-04,1.0882951e-03,9.0996634e-04,7.3631049e-03,4.1877274e-02,7.8702477e-03,-1.1660288e-03,-9.3958860e-03,4.3409163e-03,-8.9639125e-02,-4.8407169e-01,9.3055672e-02
2.9999018e-01,7.8512228e-05,1.6852992e-05,-4.7530405e-05,-7.0497054e-02,-1.0708364e-01,-7.0523652e-02,2.1653258e-04,-6.4414977e-04,-1.3618882e-04,1.3825627e-01,8.7517446e-01,-4.4771094e-01
3.0999017e-01,9.4052531e-04,7.6184225e-04,6.3204571e-04,8.5923293e-02,7.3852321e-02,8.7031501e-02,5.5703715e-04,-6.8987516e-03,3.7005487e-03,3.4050490e-02,-6.2546078e-01,3.8367412e-01
3.1999016e-01,8.6935816e-04,8.4170885e-04,1.1038066e-03,-7.0890801e-03,8.0173626e-03,-7.1097945e-03,-1.3149753e-03,-5.6166467e-03,5.3446677e-03,-1.8720143e-01,1.2821061e-01,1.6441206e-01
3.2999015e-01,4.5131783e-04,2.1696387e-04,6.1584265e-04,-4.1665608e-02,-6.2456975e-02,-4.1968258e-02,-5.0431379e-04,-9.2174626e-04,2.5551598e-03,8.1066230e-02,4.6949049e-01,-2.7895106e-01
3.3999014e-01,3.1594088e-04,1.0688608e-04,5.4442723e-04,-1.3507508e-02,-1.1011698e-02,-1.3564670e-02,-3.1645022e-04,-2.7672133e-05,1.9715394e-03,1.8786375e-02,8.9407498e-02,-5.8362094e-02
3.4999013e-01,3.4250777e-04,1.2279045e-04,5.3813954e-04,2.6501269e-03,1.5922561e-03,2.6621549e-03,-5.0450644e-04,1.7912924e-04,2.1666362e-03,-1.8805640e-02,2.0680157e-02,1.9509698e-02
3.5999012e-01,9.1584900e-04,8.9166813e-04,1.1469783e-03,5.6899869e-02,7.6600181e-02,5.8146134e-02,-1.4872002e-03,-6.4395122e-03,5.5640959e-03,-9.8269473e-02,-6.6186477e-01,3.3974629e-01
3.6999011e-01,2.5080240e-04,1.2495329e-04,1.7792332e-04,-6.6443237e-02,-7.6618375e-02,-6.6627359e-02,-9.1311520e-05,-8.8979729e-04,8.1892783e-04,1.3958900e-01,5.5497202e-01,-4.7451726e-01
3.7999010e-01,6.7371331e-05,7.7230132e-05,-1.0386884e-04,-1.8346586e-02,-4.7456413e-03,-1.8346584e-02,1.5808562e-04,-1.2963476e-03,-1.4761692e-04,2.4939738e-02,-4.0655074e-02,-9.6654567e-02
3.8999009e-01,-3.8801550e-05,5.9648147e-05,-2.3935030e-04,-1.0627088e-02,-1.7486139e-03,-1.0609084e-02,1.9232365e-04,-7.1115329e-04,-8.9064676e-04,3.4238058e-03,5.8519491e-02,-7.4303055e-02
3.9999008e-01,-2.5866061e-05,-3.3645114e-05,-2.3133931e-04,1.2929147e-03,-9.3296751e-03,1.2917310e-03,1.6826711e-04,-9.4891383e-05,-7.2257970e-04,-2.4056566e-03,6.1626249e-02,1.6806722e-02
4.0999007e-01,1.7092615e-04,-1.5178977e-04,-2.9203636e-05,1.9674481e-02,-1.1811119e-02,1.9686013e-02,1.2350695e-04,2.9407244e-04,1.6763546e-04,-4.4760200e-03,3.8896420e-02,8.9021601e-02
4.1999006e-01,1.3955259e-03,1.2637444e-03,1.1744146e-03,1.2166615e-01,1.4012211e-01,1.2487393e-01,2.2353156e-04,-1.1315965e-02,6.7190685e-03,1.0002471e-02,-1.1610048e+00,6.5514393e-01
4.2999005e-01,1.3978440e-03,1.2086055e-03,1.2312263e-03,2.2964094e-04,-5.5160296e-03,1.7668075e-04,9.3319950e-05,-1.0292928e-02,7.1064699e-03,-1.3021173e-02,1.0230381e-01,3.8740172e-02
4.3999004e-01,1.3984389e-03,1.1255281e-03,1.2564599e-03,5.8555706e-05,-8.3079505e-03,-1.7539665e-05,6.0512491e-05,-9.3223895e-03,7.1874863e-03,-3.2807491e-03,9.7053916e-02,8.1016491e-03
4.4999027e-01,1.4269208e-03,1.1884315e-03,1.2808884e-03,2.8289595e-03,6.2605881e-03,2.9312579e-03,1.8649368e-04,-1.0025873e-02,7.1185805e-03,1.2597831e-02,-7.0346782e-02,-6.8904237e-03
4.5999026e-01,9.6426220e-04,7.8995225e-04,1.1774976e-03,-4.5945776e-02,-3.9678498e-02,-4.6728267e-02,-1.5029637e-03,-5.1248310e-03,5.6081290e-03,-1.6894590e-01,4.9010472e-01,-1.5104529e-01
4.6999025e-01,8.9080771e-04,9.2914324e-04,1.1632011e-03,-7.3266956e-03,1.3952675e-02,-7.3003781e-03,-1.5798715e-03,-6.1532508e-03,5.5311607e-03,-7.6907888e-03,-1.0284208e-01,-7.6968348e-03
4.7999024e-01,1.2639625e-04,-2.0107820e-05,-4.0269332e-05,-7.6453687e-02,-9.4887673e-02,-7.6475330e-02,1.9535936e-04,-2.9542569e-04,7.9467363e-05,1.7752326e-01,5.8578307e-01,-5.4516986e-01
4.8999023e-01,3.7254161e-05,-3.6380686e-05,-1.1786193e-04,-8.9176213e-03,-1.6277724e-03,-8.9107244e-03,2.6169629e-04,3.1614275e-04,-3.3413184e-04,6.6336996e-03,6.1156903e-02,-4.1359960e-02
4.9999022e-01,-8.7981307e-06,5.2914238e-05,-1.3771134e-04,-4.6068275e-03,8.9311107e-03,-4.6005153e-03,5.9049790e-06,-3.4389433e-04,-3.5762162e-04,-2.5579156e-02,-6.6003770e-02,-2.3489801e-03
5.0999022e-01,-1.2237768e-06,4.4971197e-05,-1.0805270e-05,7.5740928e-04,-7.9444537e-04,7.5731557e-04,6.1185897e-05,-1.2432815e-04,-2.8749381e-05,5.5280971e-03,2.1956638e-02,3.2887256e-02
5.1999021e-01,1.1854849e-04,-4.7398063e-05,1.2838733e-04,1.1970222e-02,-9.2331670e-03,1.1987152e-02,8.7813693e-05,4.0212805e-04,5.1788445e-04,2.6627821e-03,5.2645671e-02,5.4663435e-02
5.2999020e-01,3.9287152e-04,-9.4781728e-06,3.4611246e-04,2.7390225e-02,3.7874886e-03,2.7474992e-02,-1.0008833e-04,-2.6386939e-04,1.5198865e-03,-1.8790220e-02,-6.6599807e-02,1.0020030e-01
5.3999019e-01,1.3456727e-03,1.1963519e-03,1.2198703e-03,9.4610498e-02,1.1962009e-01,9.7143255e-02,4.2125600e-05,-9.9331316e-03,7.0572738e-03,1.4221406e-02,-9.6692715e-01,5.5373926e-01
5.4999018e-01,2.5634238e-04,5.4959229e-05,4.1000701e-04,-1.0870141e-01,-1.1427699e-01,-1.0902030e-01,-4.6623690e-04,7.9619843e-04,1.6372597e-03,-5.0836299e-02,1.0729340e+00,-5.4200193e-01
5.5999017e-01,3.6370997e-04,5.9449339e-05,3.6148291e-04,1.0721122e-02,4.4196643e-04,1.0752687e-02,-1.1222964e-04,-7.6725935e-04,1.4516672e-03,3.5400760e-02,-1.5634593e-01,-1.8559273e-02
5.6999016e-01,1.0036565e-03,9.8140239e-04,1.0403107e-03,6.3550061e-02,9.1729558e-02,6.5097727e-02,-1.1934462e-03,-8.3776953e-03,5.2145814e-03,-1.0812176e-01,-7.6104432e-01,3.7629178e-01
5.7999015e-01,1.3564640e-03,1.4326020e-03,1.0481122e-03,3.5063927e-02,4.4645047e-02,3.6091879e-02,2.9354160e-04,-1.2977284e-02,6.5009432e-03,1.4869893e-01,-4.5995931e-01,1.2863630e-01
5.8999014e-01,1.2479668e-04,-9.9100713e-05,-1.0881029e-04,-1.2321034e-01,-1.5318838e-01,-1.2310100e-01,1.5951546e-04,3.0544628e-04,-1.5477093e-04,-1.3402627e-02,1.3282743e+00,-6.6557205e-01
5.9999013e-01,1.2291535e-04,-6.8055436e-05,1.3015956e-05,-1.8755412e-04,3.1045528e-03,-1.8834523e-04,1.8116746e-04,6.3176664e-05,8.6592236e-05,2.1652028e-03,-2.4226985e-02,2.4136339e-02
6.0999012e-01,1.3129433e-03,1.3482353e-03,1.1385418e-03,1.1825138e-01,1.4016193e-01,1.2146384e-01,2.5074520e-04,-1.1916463e-02,6.5919660e-03,6.9577798e-03,-1.1979651e+00,6.5053800e-01
6.1999011e-01,8.4998272e-04,6.4054619e-04,9.2581667e-04,-4.6068262e-02,-7.0608980e-02,-4.6765305e-02,-3.2270456e-04,-3.7512754e-03,4.4183373e-03,-5.7345030e-02,8.1651954e-01,-2.1736308e-01
6.2999010e-01,1.4302179e-03,1.2586327e-03,1.2194993e-03,5.7628636e-02,6.1156097e-02,5.9098716e-02,2.2591238e-04,-1.0882478e-02,7.0224393e-03,5.4861747e-02,-7.1312093e-01,2.6041045e-01
6.3999009e-01,4.1804707e-04,5.0118871e-05,5.1576837e-04,-1.0098111e-01,-1.2083709e-01,-1.0146986e-01,-1.8833200e-04,-3.2995998e-04,2.1051893e-03,-4.1424477e-02,1.0552528e+00,-4.9172547e-01
6.4999008e-01,3.1750336e-04,1.3622987e-04,5.1504192e-04,-1.0037955e-02,8.6128505e-03,-1.0069289e-02,-4.4358099e-04,-6.1587448e-04,2.0114706e-03,-2.5524924e-02,-2.8591477e-02,-9.3718843e-03
6.5999007e-01,8.1895357e-04,7.5086113e-04,1.2345900e-03,4.9748264e-02,6.1407410e-02,5.0606511e-02,-1.7966929e-03,-2.8855139e-03,5.6931595e-03,-1.3531132e-01,-2.2696416e-01,3.6816925e-01
6.6999006e-01,9.1757098e-04,9.4723261e-04,1.0633122e-03,9.7844478e-03,1.9574616e-02,1.0061091e-02,-1.2845834e-03,-7.5298716e-03,5.2660612e-03,5.1211000e-02,-4.6443621e-01,-4.2709873e-02
6.7999005e-01,8.9457622e-04,1.1124668e-03,9.8085360e-04,-2.3090384e-03,1.6542255e-02,-2.1497225e-03,-1.2611695e-03,-9.7437229e-03,4.8918749e-03,2.3413950e-03,-2.2138534e-01,-3.7418671e-02
6.8999004e-01,2.9907769e-06,7.3909862e-05,-1.5626386e-04,-8.9219093e-02,-1.0375540e-01,-8.9215011e-02,8.2240352e-05,-1.0437095e-03,-5.8252927e-04,1.3434111e-01,8.7000217e-01,-5.4744094e-01
6.9999027e-01,1.0792388e-05,4.6759909e-05,-1.4930384e-04,7.7994984e-04,-2.7156748e-03,7.7775154e-04,1.9190335e-04,-7.6016201e-04,-4.2006069e-04,1.0966049e-02,2.8354102e-02,1.6246486e-02
7.0999026e-01,8.1163125e-04,1.0110841e-03,9.2169543e-04,7.9608301e-02,9.5810583e-02,8.1295526e-02,-1.1356931e-03,-8.8141537e-03,4.5609858e-03,-1.3275977e-01,-8.0539993e-01,4.9810513e-01
7.1999025e-01,8.5433758e-04,9.5501869e-04,1.0355681e-03,4.2556453e-03,-5.6342086e-03,4.2491479e-03,-1.1419058e-03,-7.6193827e-03,4.9963836e-03,-6.2127212e-04,1.1947721e-01,4.3539817e-02
7.2999024e-01,1.3655208e-03,1.3322166e-03,1.2088602e-03,5.0768300e-02,3.7122584e-02,5.1898505e-02,1.7548599e-04,-1.1381600e-02,6.9536252e-03,1.3173931e-01,-3.7622207e-01,1.9572434e-01
7.3999023e-01,1.0753104e-03,9.0640902e-04,1.1707303e-03,-2.8797575e-02,-4.2397988e-02,-2.9507288e-02,-1.3071831e-03,-7.5205143e-03,5.7658903e-03,-1.4826705e-01,3.8610892e-01,-1.1877360e-01
7.4999022e-01,1.0074343e-03,7.7170086e-04,1.2026265e-03,-6.7275270e-03,-1.3447486e-02,-6.8929007e-03,-1.5624260e-03,-4.9465613e-03,5.7337416e-03,-2.5524311e-02,2.5739555e-01,-3.2148779e-03
7.5999022e-01,8.9869310e-04,6.9942596e-04,1.2482685e-03,-1.0797316e-02,-7.2157519e-03,-1.0958150e-02,-1.7454374e-03,-2.8054886e-03,5.8850829e-03,-1.8301157e-02,2.1410748e-01,1.5134147e-02
7.6999021e-01,1.3831606e-03,1.3295202e-03,1.2213529e-03,4.8107570e-02,6.2455163e-02,4.9491351e-02,6.0717558e-05,-1.1220687e-02,7.0561340e-03,1.8061567e-01,-8.4152061e-01,1.1710522e-01
7.7999020e-01,1.4428698e-03,1.3775496e-03,1.1785200e-03,5.9303991e-03,4.7282324e-03,6.0701291e-03,1.6992485e-04,-1.2199392e-02,6.9008703e-03,1.0920740e-02,-9.7870587e-02,-1.5526385e-02
7.8999019e-01,1.3227994e-03,1.4163059e-03,1.1489256e-03,-1.1926264e-02,4.0319603e-03,-1.2036062e-02,2.8591406e-04,-1.2676427e-02,6.6144339e-03,1.1598932e-02,-4.7703544e-02,-2.8643667e-02
7.9999018e-01,3.9162754e-05,-3.6814957e-05,-2.6361396e-05,-1.2837010e-01,-1.4534778e-01,-1.2831722e-01,1.5368315e-04,4.3067492e-04,1.2480343e-04,-1.3223104e-02,1.3107114e+00,-6.4896366e-01
8.0999017e-01,2.8727950e-05,-1.4862682e-05,-6.0478383e-05,-1.0435510e-03,2.1954072e-03,-1.0430380e-03,5.6343262e-05,-1.1395024e-04,-1.8523005e-04,-9.7339981e-03,-5.4462568e-02,-3.1003378e-02
8.1999016e-01,8.3329422e-05,-8.1581674e-05,-2.7492468e-05,5.4580192e-03,-6.6712390e-03,5.4630987e-03,2.6464923e-04,3.8654794e-04,6.7257465e-05,2.0830617e-02,5.0049865e-02,2.5248776e-02
8.2999015e-01,8.1628500e-04,9.5896622e-04,1.0937217e-03,7.2783387e-02,1.0363283e-01,7.4395788e-02,-1.2622301e-03,-6.9493216e-03,5.1825642e-03,-1.5268808e-01,-7.3358765e-01,5.1153116e-01
8.3999014e-01,3.2556601e-04,1.1741152e-04,3.5407146e-04,-4.8978617e-02,-8.4132309e-02,-4.9204857e-02,-2.3360126e-04,-7.0567994e-04,1.5001137e-03,1.0286298e-01,6.2436476e-01,-3.6824540e-01
8.4999013e-01,1.5365398e-03,1.1539507e-03,1.0778357e-03,1.2012780e-01,1.0215266e-01,1.2331872e-01,-1.4786794e-03,-1.3703945e-02,6.7182489e-03,-1.2450793e-01,-1.2998277e+00,5.2181402e-01
8.5999012e-01,3.8714661e-04,1.5253701e-04,4.6494115e-04,-1.1468350e-01,-1.0007358e-01,-1.1525376e-01,-3.9451786e-04,-9.8278309e-04,1.8810788e-03,1.0841626e-01,1.2721174e+00,-4.8371746e-01
8.6999011e-01,8.3179658e-04,7.8852645e-04,1.1968726e-03,4.4111571e-02,6.3489387e-02,4.4970878e-02,-1.6133382e-03,-4.0424340e-03,5.6247181e-03,-1.2188215e-01,-3.0596538e-01,3.7436428e-01
8.7999010e-01,9.1483167e-04,9.4812302e-04,1.0962283e-03,8.2376070e-03,1.5909619e-02,8.4636740e-03,-1.3201382e-03,-7.2569307e-03,5.3849564e-03,2.9320021e-02,-3.2144998e-01,-2.3976192e-02
8.8999009e-01,3.2963687e-04,-1.1770025e-04,8.5820801e-05,-5.8504731e-02,-1.0655577e-01,-5.8582858e-02,1.8992852e-04,-2.6542897e-04,5.9870478e-04,1.5100682e-01,6.9915084e-01,-4.7862562e-01
8.9999008e-01,1.5361132e-04,-1.2484747e-04,-2.1735517e-05,-1.7599348e-02,-7.1685234e-04,-1.7605710e-02,2.2212722e-04,3.4305228e-04,1.9216250e-04,3.2198736e-03,6.0848183e-02,-4.0654267e-02
9.0999007e-01,1.2947105e-03,1.3958856e-03,1.0844654e-03,1.1340791e-01,1.5061627e-01,1.1671297e-01,2.3514381e-04,-1.2353994e-02,6.4456073e-03,1.3016604e-03,-1.2697059e+00,6.2534508e-01
9.1999006e-01,1.3579924e-03,1.4027993e-03,1.0900316e-03,6.2870939e-03,6.0932430e-04,6.3774025e-03,3.3916067e-04,-1.2536891e-02,6.5106799e-03,1.0401696e-02,-1.8289712e-02,6.5072684e-03
9.2999005e-01,9.0655384e-04,9.9763807e-04,1.0390116e-03,-4.4873059e-02,-4.0179241e-02,-4.5711491e-02,-1.0971690e-03,-8.4853335e-03,5.0017925e-03,-1.4363310e-01,4.0515614e-01,-1.5088888e-01
9.3999004e-01,3.1342151e-04,8.0497428e-05,3.5172193e-04,-5.9219230e-02,-9.1705817e-02,-5.9420063e-02,-9.3207321e-05,-2.3333352e-04,1.4406331e-03,1.0039626e-01,8.2520079e-01,-3.5611629e-01
9.4999027e-01,4.7967443e-04,1.3605019e-04,4.8994072e-04,1.6587457e-02,5.5433348e-03,1.6666215e-02,-2.9779935e-04,-1.0060602e-03,2.1510036e-03,-2.0458735e-02,-7.7270895e-02,7.1035425e-02
9.5999026e-01,4.8475213e-04,1.8565509e-04,5.3739172e-04,5.0408698e-04,4.9604237e-03,5.1212355e-04,-4.9714967e-04,-6.3395005e-04,2.3943435e-03,-1.9935051e-02,3.7211046e-02,2.4334011e-02
9.6999025e-01,8.2014182e-04,7.7919010e-04,1.2499517e-03,3.3247398e-02,5.9309029e-02,3.3906098e-02,-1.7106427e-03,-3.0107656e-03,5.6497945e-03,-1.2134942e-01,-2.3768178e-01,3.2554542e-01
9.7999024e-01,3.0017172e-04,1.0224974e-04,3.8548530e-04,-5.1901330e-02,-6.7716256e-02,-5.2063809e-02,-2.0041235e-04,2.2538650e-04,1.5788757e-03,1.5102318e-01,3.2361552e-01,-4.0709228e-01
9.8999023e-01,1.7759182e-04,-5.3640585e-05,9.6520570e-05,-1.2250834e-02,-1.5588109e-02,-1.2266357e-02,2.2282375e-05,-5.4256665e-05,6.1286325e-04,2.2269494e-02,-2.7964343e-02,-9.6601332e-02
9.9999022e-01,1.1067792e-04,-1.6540322e-05,2.6488689e-05,-6.6886949e-03,3.7154677e-03,-6.6910801e-03,7.2033749e-05,-7.4051343e-04,3.6372203e-04,4.9751421e-03,-6.8625742e-02,-2.4914146e-02
1.0099902e+00,1.5085794e-05,2.1912189e-05,-2.0747646e-05,-9.5600399e-03,3.8467504e-03,-9.5578022e-03,8.4269331e-05,-7.2209906e-05,-1.1947003e-04,1.2235593e-03,6.6830416e-02,-4.8319252e-02
1.0199902e+00,2.5594366e-05,-7.5867886e-05,-9.3873546e-05,1.0485525e-03,-9.7774512e-03,1.0583962e-03,2.6305863e-04,7.9812373e-04,-2.5364917e-04,1.7878947e-02,8.7033446e-02,-1.3417927e-02
1.0299902e+00,1.2693393e-03,1.4010838e-03,1.0666672e-03,1.2362126e-01,1.4608967e-01,1.2699442e-01,2.8635260e-04,-1.2452398e-02,6.3767807e-03,2.3293991e-03,-1.3250535e+00,6.6304362e-01
1.0399902e+00,1.4693948e-04,-6.9051860e-05,-3.4411676e-06,-1.1225622e-01,-1.4699532e-01,-1.1224803e-01,2.4756129e-04,8.3798661e-05,1.8045834e-04,-3.8791349e-03,1.2536209e+00,-6.1963283e-01
1.0499902e+00,3.0281438e-04,-6.1992523e-05,2.1515061e-04,1.5573128e-02,7.0092100e-04,1.5602094e-02,1.6696538e-05,-3.0464711e-04,9.2263818e-04,-2.3086497e-02,-3.8844614e-02,7.4218055e-02
1.0599902e+00,1.2027412e-03,7.8594200e-04,8.5152000e-04,8.9596041e-02,8.4069787e-02,9.1061308e-02,5.4661842e-04,-7.4331232e-03,4.9113296e-03,5.2992239e-02,-7.1284829e-01,3.9886952e-01
1.0699902e+00,9.5373189e-04,5.7444639e-04,1.0386591e-03,-2.4758014e-02,-2.1097034e-02,-2.5087371e-02,-7.0169258e-04,-2.7940749e-03,5.1311947e-03,-1.2483122e-01,4.6390528e-01,2.1986532e-02
1.0799901e+00,1.3302015e-03,1.2338583e-03,1.2247680e-03,3.7386851e-02,6.5559134e-02,3.8562482e-02,5.5045471e-05,-9.9395370e-03,6.9822079e-03,7.5673877e-02,-7.1454690e-01,1.8510150e-01
1.0899901e+00,2.5421207e-04,-7.3059672e-05,2.6881793e-04,-1.0750280e-01,-1.3074252e-01,-1.0763377e-01,4.9849191e-05,5.1976158e-04,9.5458382e-04,-5.1962847e-04,1.0459309e+00,-6.0276298e-01
1.0999901e+00,3.0317030e-04,-1.4403465e-04,1.4896048e-04,4.8905623e-03,-7.0967906e-03,4.9021207e-03,1.8129543e-04,3.2685114e-04,8.1219264e-04,1.3144636e-02,-1.9291063e-02,-1.4239131e-02
1.1099901e+00,8.7290175e-04,9.7164846e-04,9.8281360e-04,5.6566094e-02,1.1116579e-01,5.8153657e-02,-1.1416076e-03,-8.1036269e-03,4.8973962e-03,-1.3229043e-01,-8.4304861e-01,4.0852075e-01
1.1199901e+00,8.1215344e-04,1.1161882e-03,1.0380608e-03,-6.0612525e-03,1.4503287e-02,-5.9700087e-03,-1.1396386e-03,-9.3133267e-03,4.9348052e-03,1.9689705e-04,-1.2097009e-01,3.7409074e-03
1.1299901e+00,5.3569745e-05,-2.1641452e-06,4.7514147e-05,-7.5864170e-02,-1.1178226e-01,-7.5930928e-02,1.4177389e-04,-5.5774444e-04,1.3348799e-04,1.2814137e-01,8.7555906e-01,-4.8013218e-01
1.1399901e+00,1.2290889e-04,-7.2578854e-05,2.5329999e-05,6.9311331e-03,-7.0444627e-03,6.9336756e-03,3.8980327e-05,-3.9145719e-04,3.6236051e-04,-1.0279366e-02,1.6628741e-02,2.2887274e-02
1.1499901e+00,8.4722048e-04,9.2463147e-04,1.0610209e-03,7.1918380e-02,9.9307903e-02,7.3502082e-02,-1.3499518e-03,-6.9840021e-03,5.2074933e-03,-1.3889335e-01,-6.5925512e-01,4.8451374e-01
1.1599901e+00,8.9601523e-04,9.5269362e-04,1.1239673e-03,4.8498681e-03,2.7778745e-03,4.9250062e-03,-1.3018098e-03,-7.0582233e-03,5.3049861e-03,4.8142029e-03,-7.4221205e-03,9.7492863e-03
1.1699901e+00,3.4789433e-04,6.1557340e-05,3.3128947e-04,-5.4746249e-02,-8.9063090e-02,-5.4960075e-02,2.2502046e-05,-8.9929925e-04,1.2379797e-03,1.3243131e-01,6.1589299e-01,-4.0670102e-01
1.1799901e+00,2.7726740e-04,-1.8748827e-05,2.6951760e-04,-7.0537133e-03,-8.0276995e-03,-7.0749954e-03,-5.4253444e-05,-4.6768440e-04,1.2099997e-03,-7.6755563e-03,4.3161526e-02,-2.7980059e-03
1.1899900e+00,1.3854649e-04,-1.3186415e-04,1.0604135e-04,-1.3863519e-02,-1.1327052e-02,-1.3868031e-02,1.9139057e-05,1.1368904e-03,6.3423717e-04,7.3392571e-03,1.6045763e-01,-5.7576309e-02
1.1999903e+00,2.4002691e-04,-9.8285643e-05,1.2951844e-04,1.0140643e-02,3.3571046e-03,1.0155192e-02,1.5223310e-04,8.6190293e-05,7.5628900e-04,1.3309100e-02,-1.0506761e-01,1.2204903e-02
1.2099903e+00,2.5595079e-04,-1.7326524e-04,1.5410998e-05,1.5897044e-03,-7.4983254e-03,1.5933808e-03,2.9211805e-04,6.6459617e-05,3.1032401e-04,1.3988508e-02,-1.9730694e-03,-4.4596541e-02
1.2199903e+00,1.3414716e-03,1.4712025e-03,1.1316266e-03,1.0789317e-01,1.6295641e-01,1.1141911e-01,3.7148483e-04,-1.3142253e-02,6.6117747e-03,7.9366855e-03,-1.3208725e+00,6.3014567e-01
1.2299902e+00,1.2607124e-03,1.3713687e-03,1.1139871e-03,-8.0246107e-03,-9.8852076e-03,-8.2460653e-03,1.7532982e-04,-1.1818512e-02,6.5498622e-03,-1.9615519e-02,1.3237425e-01,-6.1912546e-03
1.2399902e+00,1.3102468e-04,-1.9476851e-04,1.8682486e-06,-1.1297818e-01,-1.5671246e-01,-1.1282276e-01,2.1086382e-04,1.0842038e-03,2.0995611e-04,3.5534037e-03,1.2902728e+00,-6.3399122e-01
1.2499659e+00,3.5917499e-04,-8.0734573e-05,2.4425271e-04,2.2846462e-02,1.1424027e-02,2.2898438e-02,1.1758045e-04,-1.9599548e-04,1.1167035e-03,-9.3510862e-03,-1.2833214e-01,9.0895873e-02
1.2599659e+00,1.3845766e-03,1.2242759e-03,1.2112094e-03,1.0185776e-01,1.2937204e-01,1.0463002e-01,2.2124879e-04,-1.0645137e-02,6.9136866e-03,1.0366843e-02,-1.0449152e+00,5.7969886e-01
1.2699659e+00,8.8063238e-04,6.2525067e-04,1.0882553e-03,-5.0108971e-02,-5.9755594e-02,-5.0851603e-02,-4.4695414e-04,-3.3399392e-03,5.1208966e-03,-6.6820356e-02,7.3052053e-01,-1.7927917e-01
1.2799659e+00,3.5159389e-04,-3.7185091e-05,4.0767111e-04,-5.2838859e-02,-6.6222451e-02,-5.2995347e-02,3.4065303e-04,-5.9675911e-05,1.6545328e-03,7.8760792e-02,3.2802664e-01,-3.4663671e-01
1.2899659e+00,9.1042595e-05,-1.5204211e-04,1.9296363e-04,-2.6042064e-02,-1.1478608e-02,-2.6071368e-02,4.6595276e-04,1.9316252e-04,7.0745754e-04,1.2529985e-02,2.5283867e-02,-9.4707616e-02
1.2999659e+00,2.8106097e-05,-1.5359843e-04,1.1531484e-04,-6.2902259e-03,-1.5619995e-04,-6.2970697e-03,4.5331525e-04,5.4320920e-04,5.5592029e-04,-1.2637520e-03,3.5004702e-02,-1.5153739e-02
1.3099658e+00,7.5490157e-04,9.1555416e-04,9.7985403e-04,7.2249408e-02,1.0638871e-01,7.3871592e-02,-8.1154426e-04,-7.9730456e-03,4.7140128e-03,-1.2648607e-01,-8.5162629e-01,4.1580965e-01
1.3199658e+00,8.1657889e-04,9.9069995e-04,9.0352895e-04,6.1342901e-03,7.4602637e-03,6.2662537e-03,-8.1315491e-04,-9.5231319e-03,4.4222205e-03,-1.6106488e-04,-1.5500878e-01,-2.9179256e-02
1.3299658e+00,3.1494815e-05,-8.2947729e-05,-8.4776138e-05,-7.8552430e-02,-1.0731230e-01,-7.8536398e-02,2.2713488e-04,-4.4247092e-04,-2.4922066e-04,1.0402908e-01,9.0806696e-01,-4.6714456e-01
1.3399658e+00,4.7560481e-06,-1.5293895e-05,-2.0762489e-06,-2.6729115e-03,6.7673357e-03,-2.6699198e-03,7.9252948e-05,-6.4890572e-04,1.6138041e-04,-1.4788208e-02,-2.0643500e-02,4.1060146e-02
1.3499658e+00,1.4524539e-04,-1.1367102e-04,1.0886462e-04,1.4038508e-02,-9.8415367e-03,1.4056710e-02,2.5813983e-04,-1.3392573e-05,5.6217083e-04,1.7888706e-02,6.3551375e-02,4.0079080e-02
1.3599658e+00,9.9241144e-04,8.5309379e-04,1.1183610e-03,8.4158500e-02,9.6112457e-02,8.5906553e-02,-9.4897452e-04,-7.5337771e-03,5.4904180e-03,-1.2071155e-01,-7.5203917e-01,4.9282519e-01
1.3699658e+00,1.3868337e-03,1.2038124e-03,1.1893370e-03,3.9181332e-02,3.4628555e-02,4.0088768e-02,3.8077434e-04,-1.0734224e-02,6.9302055e-03,1.3297501e-01,-3.2004496e-01,1.4397889e-01
1.3799658e+00,3.9790041e-04,6.5911929e-05,4.8466450e-04,-9.8701712e-02,-1.1373299e-01,-9.9150388e-02,6.9986797e-05,-5.0693327e-04,2.0170991e-03,-3.1078784e-02,1.0227300e+00,-4.9131111e-01
1.3899658e+00,3.0926168e-04,-3.4681667e-05,3.8796994e-04,-8.8533055e-03,-1.0054489e-02,-8.8799745e-03,3.3078497e-04,-2.1938593e-04,1.5673014e-03,2.6079842e-02,2.8754762e-02,-4.4979814e-02
1.3999658e+00,8.9047906e-04,8.2921680e-04,1.0971129e-03,5.7729488e-02,8.6055052e-02,5.9002880e-02,-9.7062381e-04,-6.6634655e-03,5.2925970e-03,-1.3014100e-01,-6.4440857e-01,3.7252991e-01
1.4099658e+00,7.3827769e-04,5.2703190e-04,8.0535388e-04,-1.5156996e-02,-3.0164455e-02,-1.5389478e-02,-1.1586586e-04,-3.6406034e-03,3.9118044e-03,8.5475876e-02,3.0228650e-01,-1.3807939e-01
1.4199657e+00,8.4060121e-04,9.5460084e-04,9.6227743e-04,1.0144507e-02,4.2676561e-02,1.0646974e-02,-9.2749081e-04,-8.5864923e-03,4.6989597e-03,-8.1162573e-02,-4.9458937e-01,7.8715607e-02
1.4299657e+00,1.2372590e-04,-1.3963902e-04,-1.1887410e-06,-7.1705460e-02,-1.0936785e-01,-7.1755530e-02,2.7912656e-04,-5.0506216e-04,1.7686033e-04,1.2066185e-01,8.0814379e-01,-4.5221037e-01
1.4399657e+00,2.9806275e-05,-1.4949349e-04,5.2027512e-05,-9.3904432e-03,-9.8464256e-04,-9.3935840e-03,3.6734111e-04,2.8160918e-04,2.0118136e-04,8.8214632e-03,7.8667209e-02,2.4321061e-03
1.4499660e+00,7.9618618e-04,9.1099916e-04,1.1118621e-03,7.6113146e-02,1.0555305e-01,7.7829946e-02,-1.0963462e-03,-7.4610111e-03,5.2939665e-03,-1.4636538e-01,-7.7424431e-01,5.0926686e-01
1.4599659e+00,8.3522007e-04,7.5980160e-04,1.1074981e-03,3.8973564e-03,-1.5137874e-02,3.8387216e-03,-9.5980219e-04,-5.6313363e-03,5.2498284e-03,1.3654418e-02,1.8296765e-01,-4.4138173e-03
1.4699659e+00,3.2645063e-04,-1.3684146e-04,3.2771913e-04,-5.0845043e-02,-8.9676342e-02,-5.0887867e-02,3.9744302e-04,6.3198531e-04,1.3274422e-03,1.3572465e-01,6.2633276e-01,-3.9223899e-01
1.4799659e+00,2.7312156e-04,-3.6900658e-05,3.2821132e-04,-5.3242772e-03,9.9956375e-03,-5.3386355e-03,1.0170825e-04,-1.8828930e-04,1.4274803e-03,-2.9573504e-02,-8.2027539e-02,1.0003824e-02
1.4899659e+00,2.5358502e-04,3.6679251e-06,3.1967608e-04,-1.9501524e-03,4.0588159e-03,-1.9530987e-03,2.0120605e-04,-7.9842802e-04,1.3746508e-03,9.9497891e-03,-6.1013930e-02,-5.2829570e-03
1.4999659e+00,2.1968165e-04,-1.4043044e-06,2.1235189e-04,-3.3871036e-03,-5.0547187e-04,-3.3938356e-03,1.3429473e-04,-3.8195394e-04,9.7434379e-04,-6.6911387e-03,4.1647448e-02,-4.0030742e-02
1.5099659e+00,8.4735383e-04,1.0293956e-03,9.9920651e-04,6.2356292e-02,1.0256412e-01,6.4009864e-02,-9.8525040e-04,-9.0925804e-03,4.9172051e-03,-1.1195462e-01,-8.7106348e-01,3.9428650e-01
1.5199659e+00,1.1416072e-04,-8.2482956e-05,-1.4135604e-04,-7.3370449e-02,-1.1114065e-01,-7.3340033e-02,3.4573606e-04,-2.9951001e-04,-1.7228364e-04,1.3309877e-01,8.7930788e-01,-5.0894936e-01
1.5299659e+00,9.9167783e-05,-1.4568887e-04,-1.5839203e-04,-1.5031111e-03,-6.3200063e-03,-1.4979637e-03,4.9674577e-04,1.0332366e-04,-4.5137015e-04,1.5100985e-02,4.0283405e-02,-2.7908677e-02
1.5399659e+00,1.6094832e-04,-2.0315247e-04,-4.4779130e-05,6.1750190e-03,-5.7455754e-03,6.1818337e-03,4.3451984e-04,5.6219481e-04,8.7919598e-05,-6.2225980e-03,4.5887159e-02,5.3929026e-02
1.5499659e+00,1.2944029e-03,1.2680869e-03,1.1869618e-03,1.1265218e-01,1.4575852e-01,1.1577507e-01,4.7164698e-04,-1.1415263e-02,6.7070450e-03,3.7127173e-03,-1.1977469e+00,6.6191317e-01
1.5599658e+00,1.3031701e-03,1.1641938e-03,1.2138941e-03,8.6632489e-04,-1.0398156e-02,7.7658523e-04,4.1954665e-04,-1.0207090e-02,6.8574986e-03,-5.2100382e-03,1.2081740e-01,1.5045367e-02
1.5699658e+00,1.4224508e-03,1.1190464e-03,1.2519188e-03,1.1841084e-02,-4.6384959e-03,1.1967224e-02,4.0728798e-04,-9.9166411e-03,7.1144719e-03,-1.2258683e-03,2.9044886e-02,2.5697362e-02
1.5799363e+00,5.2707918e-04,-3.1235085e-05,5.5085821e-04,-8.9600408e-02,-1.1535339e-01,-9.0025060e-02,1.1102940e-04,-6.6416012e-05,2.3928475e-03,-2.9713731e-02,9.8794420e-01,-4.7356293e-01
1.5899017e+00,3.3732564e-04,-5.2988779e-05,4.4763043e-04,-1.9008261e-02,-2.1839944e-03,-1.9073955e-02,1.8069514e-04,2.3681946e-04,1.7489495e-03,6.9907480e-03,3.0428770e-02,-6.4613237e-02
1.5999017e+00,2.0550552e-04,-9.8158253e-05,2.1096828e-04,-1.3171569e-02,-4.5180804e-03,-1.3192087e-02,2.5115630e-04,3.3651418e-04,8.7887742e-04,7.0461228e-03,9.9694812e-03,-8.7007287e-02
1.6099017e+00,2.2192147e-04,-5.6609755e-05,6.8821457e-05,1.6418985e-03,4.1536088e-03,1.6444429e-03,2.6681762e-04,-4.9092299e-04,4.9132118e-04,1.5661327e-03,-8.2743795e-02,-3.8755661e-02
1.6199017e+00,8.8343308e-04,1.0908506e-03,9.5632667e-04,6.5703036e-02,1.1415566e-01,6.7603570e-02,-1.0896361e-03,-9.8823342e-03,4.8726995e-03,-1.3564550e-01,-9.3914202e-01,4.3813825e-01
1.6299016e+00,-7.8734387e-07,1.6848480e-05,-1.5928688e-04,-8.8483015e-02,-1.0731890e-01,-8.8460067e-02,2.2470832e-04,-6.9605734e-04,-4.1577877e-04,1.3143457e-01,9.1862856e-01,-5.2884833e-01
1.6399016e+00,1.4231998e-03,1.4434328e-03,9.6886751e-04,1.4128256e-01,1.4042739e-01,1.4569049e-01,-1.4119097e-03,-1.6830836e-02,6.4032756e-03,-1.6366196e-01,-1.6134794e+00,6.8190609e-01
1.6499016e+00,1.0998411e-04,-1.4129284e-04,4.2741188e-05,-1.3135758e-01,-1.5843134e-01,-1.3133572e-01,4.4374042e-04,1.2877062e-04,2.6204332e-04,1.8556519e-01,1.6959622e+00,-6.1412382e-01
1.6599016e+00,8.6008919e-04,8.8491823e-04,1.0831957e-03,7.4528027e-02,1.0214619e-01,7.6131569e-02,-8.9497308e-04,-7.1551069e-03,5.1948764e-03,-1.3387148e-01,-7.2838845e-01,4.9328378e-01
1.6699016e+00,8.5328904e-04,7.0760357e-04,1.1129835e-03,-6.5889959e-04,-1.7728745e-02,-7.6667885e-04,-9.8648571e-04,-4.6896811e-03,5.3160984e-03,-9.1512718e-03,2.4654282e-01,1.2122213e-02
1.6799016e+00,3.8045610e-04,-9.4884358e-05,4.2916912e-04,-4.7215849e-02,-8.0243054e-02,-4.7360587e-02,1.8759747e-04,6.4527193e-05,1.7441993e-03,1.1740843e-01,4.7542128e-01,-3.5719025e-01
1.6899016e+00,1.5569210e-03,1.1313906e-03,1.1342629e-03,1.1669871e-01,1.2109398e-01,1.2015254e-01,-1.1869716e-03,-1.4025104e-02,6.7960912e-03,-1.3745704e-01,-1.4089645e+00,5.0518967e-01
1.6999018e+00,3.4911834e-04,-7.4453248e-05,3.2096001e-04,-1.2064494e-01,-1.2053842e-01,-1.2095298e-01,2.9982585e-04,-5.7791998e-05,1.3958414e-03,1.4867634e-01,1.3966992e+00,-5.4001262e-01
1.7099018e+00,8.4629473e-04,5.9971536e-04,8.6382466e-04,4.9481488e-02,6.7230838e-02,5.0202940e-02,-2.7508108e-04,-3.9897324e-03,4.3682221e-03,-5.7490748e-02,-3.9319441e-01,2.9723835e-01
1.7199018e+00,1.3343562e-03,1.3345402e-03,1.0954649e-03,4.8526356e-02,7.2840860e-02,5.0031765e-02,5.0789771e-04,-1.2443207e-02,6.4772679e-03,7.8297954e-02,-8.4534829e-01,2.1090478e-01
1.7299018e+00,1.0411482e-04,-5.5390292e-05,1.6205544e-05,-1.2306867e-01,-1.3886580e-01,-1.2312365e-01,3.9723843e-04,-6.3780991e-04,8.7734448e-05,-1.1065939e-02,1.1805409e+00,-6.3895395e-01
1.7399018e+00,7.1281086e-05,-1.4125578e-04,1.2618454e-05,-3.2866360e-03,-8.5866792e-03,-3.2797943e-03,4.3288927e-04,4.7042287e-04,1.3911645e-04,3.5650876e-03,1.1082338e-01,5.1382050e-03
1.7499018e+00,1.3192837e-03,1.2578400e-03,1.1251494e-03,1.2404670e-01,1.3835631e-01,1.2725936e-01,5.6887402e-04,-1.1723538e-02,6.6545526e-03,1.3598488e-02,-1.2193972e+00,6.5154424e-01
1.7599018e+00,1.3336003e-03,1.2598573e-03,1.1650365e-03,1.4219219e-03,1.8470479e-04,1.4436188e-03,5.3817672e-04,-1.1269542e-02,6.8561895e-03,-3.0697335e-03,4.5399642e-02,2.0163709e-02
1.7699018e+00,2.7379991e-04,4.5828947e-05,3.9887066e-04,-1.0584176e-01,-1.2138497e-01,-1.0613892e-01,1.2046844e-04,-4.9186589e-05,1.4427308e-03,-4.1770867e-02,1.1220366e+00,-5.4134639e-01
1.7799017e+00,1.9512174e-04,-1.4035001e-04,2.7851485e-04,-7.8644436e-03,-1.8619085e-02,-7.8684314e-03,2.5052313e-04,3.9931010e-04,1.0219584e-03,1.3005481e-02,4.4849712e-02,-4.2077276e-02
1.7899017e+00,2.8995426e-04,-1.1088187e-04,2.6400451e-04,9.4711183e-03,2.9474646e-03,9.4951880e-03,5.3263289e-05,1.2143490e-04,1.2961930e-03,-1.9726003e-02,-2.7787547e-02,2.7423483e-02
1.7999017e+00,9.0624623e-04,8.8494116e-04,1.1036412e-03,6.1185551e-02,9.9204789e-02,6.2671545e-02,-1.1207834e-03,-7.1670756e-03,5.3735691e-03,-1.1740478e-01,-7.2885174e-01,4.0773800e-01
1.8099017e+00,1.4705779e-04,-2.8175049e-05,8.5089086e-05,-7.5919102e-02,-9.1229335e-02,-7.6017696e-02,3.6624240e-04,-7.1806636e-04,4.3789222e-04,1.4870272e-01,6.4490153e-01,-4.9356816e-01
1.8199017e+00,7.5888402e-05,-7.7014214e-05,-4.2831956e-05,-7.1185254e-03,-4.8778653e-03,-7.1195189e-03,3.4423905e-04,-5.0653385e-04,1.4225351e-05,-2.2003363e-03,2.1153271e-02,-4.2366727e-02
1.8299017e+00,7.6381043e-05,-1.2374415e-04,-7.2255853e-05,4.7412150e-05,-4.6730270e-03,4.8352761e-05,3.9714814e-04,-1.9422723e-04,-7.8996284e-05,5.2909134e-03,3.1230692e-02,-9.3221724e-03
1.8399017e+00,1.2232658e-04,-1.9517183e-04,-1.7463118e-05,4.5906340e-03,-7.1415050e-03,4.6004503e-03,3.2315112e-04,5.9896426e-04,3.5154199e-04,-7.3997085e-03,7.9319225e-02,4.3053869e-02
1.8499017e+00,2.0879394e-04,-1.3439188e-04,1.3966419e-04,8.6431379e-03,6.0768602e-03,8.6511509e-03,3.8576433e-04,2.5374233e-04,6.8795039e-04,6.2613265e-03,-3.4522226e-02,3.3640872e-02
1.8599017e+00,9.4398820e-04,9.6389257e-04,1.1665161e-03,7.3015662e-02,1.0928775e-01,7.4816068e-02,-9.9755616e-04,-8.2578478e-03,5.3480979e-03,-1.3833218e-01,-8.5115982e-01,4.6601519e-01
1.8699017e+00,1.3636480e-03,1.1847366e-03,1.1976837e-03,4.1685218e-02,2.1608402e-02,4.2490404e-02,4.6334588e-04,-1.0774986e-02,6.9110181e-03,1.4609034e-01,-2.5171405e-01,1.5629217e-01
1.8799016e+00,1.3972978e-03,1.1159877e-03,1.1669337e-03,3.3388699e-03,-6.9101983e-03,3.3183540e-03,3.8115291e-04,-1.0147220e-02,6.9583414e-03,-8.2193050e-03,6.2776642e-02,4.7323387e-03
1.8899016e+00,9.6565789e-04,8.3124453e-04,1.1792398e-03,-4.2886871e-02,-2.8256272e-02,-4.3581594e-02,-1.2380058e-03,-6.2421439e-03,5.5881084e-03,-1.6191602e-01,3.9050798e-01,-1.3702343e-01
1.8999016e+00,2.6825795e-04,-5.4804144e-06,3.2582284e-04,-6.9666160e-02,-8.3658074e-02,-6.9831257e-02,8.4738767e-05,-1.2301997e-04,1.1606388e-03,1.3227458e-01,6.1191298e-01,-4.4274738e-01
1.9099016e+00,2.5451442e-04,-2.1979536e-05,2.1150307e-04,-1.3732857e-03,-1.6491627e-03,-1.3763227e-03,1.6480282e-04,-3.8123810e-04,9.7495619e-04,8.0064134e-03,-2.5821838e-02,-1.8568275e-02
1.9199016e+00,1.2890947e-03,1.2651029e-03,1.0918053e-03,1.0285071e-01,1.2742740e-01,1.0562670e-01,5.0780087e-04,-1.1712760e-02,6.4817856e-03,3.4299838e-02,-1.1331533e+00,5.5068347e-01
1.9299016e+00,8.2068630e-04,9.4479671e-04,9.8081366e-04,-4.6586682e-02,-3.1667561e-02,-4.7338632e-02,-8.9327119e-04,-8.5782623e-03,4.8042239e-03,-1.4010734e-01,3.1345007e-01,-1.6775633e-01
1.9399016e+00,-6.3056916e-04,-7.7039665e-04,-3.8667118e-04,-1.4612191e-01,-1.7231640e-01,-1.4316883e-01,-6.2804458e+00,8.3061985e-03,-3.6371984e-03,-6.2795585e+02,1.6884477e+00,-8.4414304e-01
1.9499018e+00,3.4946410e-05,-1.2556843e-04,6.1412838e-05,6.6569740e-02,6.4468468e-02,6.6542801e-02,4.9659269e-04,3.0319457e-04,1.8490377e-04,6.2807986e+02,-8.0028208e-01,3.8220147e-01
1.9599018e+00,8.0764112e-04,8.7412970e-04,1.0437313e-03,7.6785322e-02,9.9469285e-02,7.8390200e-02,-9.4443772e-04,-7.3510287e-03,5.0316997e-03,-1.4410318e-01,-7.6542306e-01,4.8468005e-01
1.9699018e+00,9.0557296e-04,8.2034368e-04,1.0871474e-03,9.7458526e-03,-5.4349607e-03,9.8092934e-03,-1.0097913e-03,-6.7407285e-03,5.3736725e-03,-6.5353604e-03,6.1030080e-02,3.4197319e-02
1.9799018e+00,2.9923730e-04,-2.2447464e-05,2.9706683e-04,-6.0576877e-02,-8.4207596e-02,-6.0789621e-02,1.9720474e-04,-9.8174793e-04,1.2092498e-03,1.2069971e-01,5.7589860e-01,-4.1644267e-01
1.9899018e+00,1.5070504e-03,1.1460733e-03,1.0684237e-03,1.1983263e-01,1.1526466e-01,1.2322719e-01,-1.2222207e-03,-1.4174682e-02,6.6502457e-03,-1.4194268e-01,-1.3192947e+00,5.4410011e-01
1.9999018e+00,9.0789273e-04,8.4347212e-04,1.0987168e-03,-5.9561086e-02,-2.9925409e-02,-6.0435383e-02,-1.1191779e-03,-6.6590658e-03,5.3405288e-03,1.0304292e-02,7.5156236e-01,-1.3097181e-01
2.0099018e+00,8.3708267e-04,6.3411277e-04,9.6317855e-04,-7.0347728e-03,-2.0915585e-02,-7.1865153e-03,-6.0057969e-04,-3.4431131e-03,4.7429913e-03,5.1859873e-02,3.2159558e-01,-5.9753810e-02
2.0199018e+00,1.3683903e-04,-1.7081947e-04,4.8209218e-05,-7.0022119e-02,-8.0490812e-02,-7.0029603e-02,3.5973514e-04,3.2418843e-04,4.4636424e-04,9.6031574e-02,3.7673051e-01,-4.2966311e-01
2.0299017e+00,1.3822697e-04,-1.5046117e-04,3.4599178e-05,1.3940799e-04,2.0357773e-03,1.3898581e-04,3.1892718e-04,-7.6878170e-05,2.5370301e-04,-4.0807993e-03,-4.0106698e-02,-1.9266142e-02
2.0399017e+00,1.3807147e-03,1.3306491e-03,1.1527448e-03,1.2350697e-01,1.4644595e-01,1.2693346e-01,6.1326477e-04,-1.2610386e-02,6.6798009e-03,2.9433787e-02,-1.2533520e+00,6.4261040e-01
2.0499017e+00,8.1025684e-04,5.4173103e-04,8.1779089e-04,-5.6824233e-02,-7.8671596e-02,-5.7568844e-02,3.2615302e-05,-3.8040754e-03,3.9221742e-03,-5.8065002e-02,8.8063191e-01,-2.7576293e-01
2.0599017e+00,1.3441530e-03,1.2339508e-03,1.1921945e-03,5.3063492e-02,6.8566998e-02,5.4547574e-02,5.3942958e-04,-1.1564935e-02,6.7856183e-03,5.0681476e-02,-7.7608670e-01,2.8634469e-01
2.0699017e+00,2.0021705e-04,-2.0564790e-04,2.3831791e-04,-1.1436374e-01,-1.4395545e-01,-1.1442940e-01,5.2834844e-04,4.8832002e-04,9.2625542e-04,-1.1081151e-03,1.2053266e+00,-5.8593685e-01
2.0799017e+00,2.9040604e-04,-1.5205575e-04,3.6353166e-04,9.0080928e-03,5.3590051e-03,9.0298365e-03,5.0635216e-04,4.8195522e-04,1.4987364e-03,-2.1996307e-03,-6.3648097e-04,5.7248148e-02
2.0899017e+00,8.4374884e-04,6.4653973e-04,1.1728129e-03,5.4965099e-02,7.9650821e-02,5.5999296e-02,-8.7596652e-04,-4.6088317e-03,5.3936853e-03,-1.3823200e-01,-5.0907918e-01,3.8949527e-01
2.0999017e+00,8.0701631e-04,7.1246376e-04,1.1519794e-03,-3.6590951e-03,6.6104713e-03,-3.6548838e-03,-7.9974030e-04,-5.7167712e-03,5.2763320e-03,7.6226289e-03,-1.1079406e-01,-1.1735336e-02
2.1099017e+00,5.6679077e-05,-2.6173064e-04,7.7276476e-05,-7.5064195e-02,-9.7415092e-02,-7.5009151e-02,6.4508245e-04,5.8613525e-04,4.3209285e-04,1.4448241e-01,6.3029125e-01,-4.8442438e-01
2.1199017e+00,3.1580992e-05,-1.8833591e-04,4.1294230e-05,-2.5049830e-03,7.3412357e-03,-2.5094981e-03,5.8207161e-04,-1.1808442e-04,2.2121003e-04,-6.3010901e-03,-7.0422034e-02,-2.1088302e-02
2.1299016e+00,7.6206287e-04,9.0957534e-04,1.0320164e-03,7.2600486e-02,1.0925176e-01,7.4292877e-02,-8.6159577e-04,-8.1569676e-03,4.8228585e-03,-1.4436688e-01,-8.0388908e-01,4.6016528e-01
2.1399016e+00,8.3483669e-04,8.8103355e-04,9.9268369e-04,7.2433373e-03,-2.9159438e-03,7.2868690e-03,-6.8213517e-04,-9.1405755e-03,4.9342050e-03,1.7946077e-02,-9.8360886e-02,1.1134665e-02
2.1499016e+00,8.7253036e-05,-2.7575337e-04,5.2702419e-05,-7.4803491e-02,-1.1568055e-01,-7.4710646e-02,6.6247910e-04,6.8630346e-04,4.2212881e-04,1.3446155e-01,9.8268883e-01,-4.5120805e-01
2.1599016e+00,7.8744967e-05,-2.3398406e-04,1.3901668e-04,-8.4710336e-04,4.1773729e-03,-8.5235481e-04,7.7375607e-04,2.5780912e-04,5.5480233e-04,1.1127708e-02,-4.2849474e-02,1.3267365e-02
2.1699016e+00,8.7936457e-04,8.4142848e-04,1.1425064e-03,7.9561349e-02,1.0696970e-01,8.1317139e-02,-6.5225145e-04,-7.7110024e-03,5.3630728e-03,-1.4260089e-01,-7.9688191e-01,4.8082750e-01
2.1799016e+00,1.3639403e-03,1.1179813e-03,1.1685746e-03,4.8150217e-02,2.7058312e-02,4.9096869e-02,8.9404688e-04,-1.1312458e-02,6.8303208e-03,1.5462998e-01,-3.6014590e-01,1.4672494e-01
2.1899016e+00,1.3198337e-03,1.1054061e-03,1.1940466e-03,-4.3819560e-03,-1.2042794e-03,-4.4539369e-03,8.9235843e-04,-1.1086829e-02,6.7414995e-03,-1.6884522e-04,2.2562961e-02,-8.8821395e-03
2.1999018e+00,2.1837029e-04,-1.4983329e-04,3.6256316e-04,-1.1008788e-01,-1.2544618e-01,-1.1028497e-01,7.3889131e-04,5.9181085e-05,1.3486757e-03,-1.5346362e-02,1.1145755e+00,-5.3927004e-01
2.2099018e+00,8.3006956e-04,7.2728771e-04,1.1098523e-03,6.0799068e-02,8.7300238e-02,6.2121682e-02,-6.6892061e-04,-7.3274175e-03,5.0914152e-03,-1.4078133e-01,-7.3866057e-01,3.7427431e-01
2.2199018e+00,1.3045864e-03,1.0862866e-03,1.1277761e-03,4.7160753e-02,3.5337868e-02,4.8158458e-02,6.8461314e-04,-1.1041187e-02,6.6279315e-03,1.3535350e-01,-3.7137734e-01,1.5365178e-01
2.2299018e+00,7.9524323e-04,7.8294165e-04,1.0880269e-03,-5.0647600e-02,-3.0000635e-02,-5.1415815e-02,-7.0618335e-04,-7.2085702e-03,5.1958933e-03,-1.3907978e-01,3.8326209e-01,-1.4320396e-01
2.2399018e+00,4.5651251e-05,-2.3239479e-04,1.6814868e-04,-7.5006095e-02,-1.0145017e-01,-7.5025550e-02,9.0709219e-04,-2.0706733e-04,6.0339346e-04,1.6132771e-01,7.0015095e-01,-4.5925042e-01
2.2499018e+00,6.9943049e-05,-2.4630389e-04,1.2600752e-04,2.4269960e-03,-1.3918731e-03,2.4308158e-03,7.3694659e-04,3.4053878e-04,4.7762544e-04,-1.7014576e-02,5.4760663e-02,-1.2576814e-02
2.2599018e+00,1.2123401e-03,1.1101525e-03,1.1319302e-03,1.1362090e-01,1.3420986e-01,1.1653005e-01,9.8436278e-04,-1.1432188e-02,6.5645041e-03,2.4741643e-02,-1.1772738e+00,6.0868845e-01
2.2699018e+00,7.3148971e-04,7.3231593e-04,1.0788718e-03,-4.7809132e-02,-3.7535772e-02,-4.8552156e-02,-7.2461695e-04,-5.8369937e-03,5.1560106e-03,-1.7089814e-01,5.5951991e-01,-1.4084948e-01
2.2799017e+00,1.8728316e-04,-2.9180502e-05,3.2926245e-04,-5.4404233e-02,-7.6055033e-02,-5.4569379e-02,5.8333038e-04,-1.1540246e-03,1.1181595e-03,1.3079486e-01,4.6829736e-01,-4.0378550e-01
2.2899017e+00,1.4016227e-03,1.0451851e-03,1.0840193e-03,1.2053386e-01,1.0579093e-01,1.2375367e-01,-8.5694573e-04,-1.4226021e-02,6.6326788e-03,-1.4402775e-01,-1.3072009e+00,5.5145245e-01
2.2999017e+00,1.5853791e-04,-3.6526922e-04,1.4853781e-04,-1.2431735e-01,-1.4106811e-01,-1.2427426e-01,8.4852922e-04,1.0299438e-03,8.9158860e-04,1.7054766e-01,1.5255979e+00,-5.7410956e-01
2.3099017e+00,1.2485385e-03,1.0965784e-03,1.1412020e-03,1.0839578e-01,1.4484346e-01,1.1136796e-01,8.8726992e-04,-1.1258868e-02,6.7118456e-03,3.8740738e-03,-1.2288823e+00,5.8202625e-01
2.3199017e+00,8.3958494e-04,8.6932407e-04,1.1342654e-03,-4.0667620e-02,-2.2410213e-02,-4.1294557e-02,-6.4102692e-04,-8.2874919e-03,5.1998348e-03,-1.5282983e-01,2.9713788e-01,-1.5120122e-01
2.3299017e+00,1.0909279e-04,-3.0172137e-04,1.2342193e-04,-7.3105113e-02,-1.1704970e-01,-7.3081503e-02,8.1016269e-04,5.8370026e-05,5.3403036e-04,1.4511910e-01,8.3458699e-01,-4.6658089e-01
2.3399017e+00,1.2238233e-03,1.1334336e-03,1.1621715e-03,1.1087802e-01,1.4208787e-01,1.1386996e-01,9.8163330e-04,-1.1662053e-02,6.5805213e-03,1.7147077e-02,-1.1720434e+00,6.0464967e-01
2.3499017e+00,6.3700886e-04,2.6918100e-04,7.3436575e-04,-5.8537919e-02,-8.6225876e-02,-5.9116721e-02,6.2862511e-04,-2.7553447e-03,3.3667426e-03,-3.5300852e-02,8.9067166e-01,-3.2137818e-01
2.3599017e+00,1.2809216e-03,1.1426966e-03,1.1427006e-03,6.4046675e-02,8.6566609e-02,6.5780264e-02,6.5998333e-04,-1.1373260e-02,6.2282719e-03,3.1358250e-03,-8.6179235e-01,2.8615321e-01
2.3699017e+00,2.2272012e-04,-2.7675723e-04,1.3227148e-04,-1.0588150e-01,-1.4190914e-01,-1.0580776e-01,8.6556007e-04,5.2214230e-04,5.8161949e-04,2.0557694e-02,1.1895414e+00,-5.6466578e-01
2.3799016e+00,8.1683774e-04,4.0656278e-04,8.7895838e-04,5.9133601e-02,6.8155758e-02,5.9889978e-02,-4.6655380e-04,-3.4131904e-03,4.1376125e-03,-1.3321151e-01,-3.9353365e-01,3.5559964e-01
2.3899016e+00,1.6951470e-03,1.0853685e-03,1.2042180e-03,8.7208828e-02,6.6843500e-02,8.9235197e-02,7.7421695e-04,-1.0905006e-02,7.6526818e-03,1.2407719e-01,-7.4918226e-01,3.5150726e-01
2.3999016e+00,1.1491938e-03,5.5644282e-04,1.1506279e-03,-5.4222290e-02,-5.2654209e-02,-5.5194345e-02,-6.4543610e-04,-4.9694911e-03,6.1889440e-03,-1.4196544e-01,5.9355204e-01,-1.4637392e-01
2.4099016e+00,1.3041291e-04,-3.2695278e-04,2.3107476e-04,-1.0183595e-01,-8.8417720e-02,-1.0185268e-01,8.9759152e-04,1.6635130e-03,1.1917598e-03,1.5430291e-01,6.6330105e-01,-4.9971890e-01
2.4199016e+00,1.6132267e-04,9.1729072e-05,5.7697215e-04,3.1155476e-03,4.1856998e-02,3.2158538e-03,7.7736355e-04,-2.7910031e-03,2.5773021e-03,-1.2022808e-02,-4.4545204e-01,1.3855436e-01
2.4299016e+00,2.8153705e-04,6.0117970e-04,1.0290503e-03,1.1963603e-02,5.0852036e-02,1.2465053e-02,-2.5768530e-05,-7.6099745e-03,4.6917497e-03,-8.0313285e-02,-4.8189760e-01,2.1144497e-01
2.4399016e+00,-1.9034354e-05,4.1862406e-04,9.1513772e-04,-2.9947338e-02,-1.8061838e-02,-3.0282999e-02,3.5146803e-04,-6.0598377e-03,3.8600458e-03,3.7723692e-02,1.5501383e-01,-8.3170473e-02
2.4499018e+00,-7.1439590e-04,-6.8602952e-05,3.6129033e-04,-6.9500219e-02,-4.8502012e-02,-6.9722151e-02,9.5199880e-04,-2.2012056e-03,1.1598435e-03,6.0051702e-02,3.8585438e-01,-2.7001405e-01
2.4599018e+00,-1.5548596e-03,-8.2275984e-04,-1.7050197e-04,-8.4541771e-02,-7.5701475e-02,-8.3289399e-02,-6.2796189e+00,7.0126379e-03,-2.7033081e-03,-6.2805769e+02,9.2138523e-01,-3.8631552e-01
2.4699018e+00,8.1057548e-05,7.9327108e-04,1.1149589e-03,1.6259036e-01,1.6002031e-01,1.6612671e-01,1.6724752e-04,-9.4065137e-03,6.2675849e-03,6.2797922e+02,-1.6419167e+00,8.9709015e-01
2.4799018e+00,3.1843575e-04,1.0247008e-03,1.1808365e-03,2.3572951e-02,2.2822974e-02,2.4207365e-02,1.7072856e-03,-1.1608285e-02,8.5727083e-03,1.5400396e-01,-2.2017734e-01,2.3051256e-01
2.4899018e+00,-1.0132264e-03,2.1355762e-04,8.4146809e-04,-1.3260269e-01,-8.0522991e-02,-1.3408457e-01,6.7664216e-04,-3.7427698e-03,4.6339100e-03,-1.0306445e-01,7.8655227e-01,-3.9388020e-01
2.4999018e+00,-2.9353095e-03,1.6325723e-03,1.6542035e-03,-1.9191380e-01,1.3993213e-01,-1.9393908e-01,-4.2760378e-03,5.9232179e-03,4.6699964e-03,-4.9526847e-01,9.6659968e-01,3.6086427e-03
2.5099018e+00,-1.8553803e-03,5.5921682e-04,9.5504149e-04,1.0729732e-01,-1.0846130e-01,1.0756098e-01,1.7919080e-03,-8.6302822e-03,4.6488459e-03,6.0679515e-01,-1.4553514e+00,-2.1150508e-03
2.5199018e+00,-2.7506368e-03,2.5439607e-04,8.3195659e-04,-8.9244861e-02,-3.0003558e-02,-8.9966743e-02,8.7470778e-04,-4.4519180e-03,3.4289344e-03,-9.1720107e-02,4.1783682e-01,-1.2199127e-01
2.5299017e+00,-3.2511264e-03,2.4755169e-04,9.5089163e-04,-4.9874835e-02,-4.8355707e-04,-5.0224914e-02,6.9294612e-04,-3.3091865e-03,3.4832384e-03,-1.8176183e-02,1.1427325e-01,5.4304057e-03
2.5399017e+00,-2.4993601e-03,9.1297246e-04,1.3707572e-03,7.4631033e-02,6.5355820e-02,7.6744742e-02,2.7237791e-04,-1.5291312e-02,7.4717034e-03,-4.2056861e-02,-1.1982137e+00,3.9884688e-01
2.5499017e+00,-2.9725011e-03,5.9541522e-04,1.3142953e-03,-4.7063296e-02,-3.1149199e-02,-4.7963086e-02,-6.2802312e+00,-9.7603584e-03,7.2537625e-03,-6.2805096e+02,5.5309587e-01,-2.1794109e-02
2.5599017e+00,-3.5450193e-03,5.0889408e-04,1.5822211e-03,-5.6764724e-02,-8.2350888e-03,-5.7795888e-02,1.7609096e-03,-5.4732304e-03,8.7355431e-03,6.2819981e+02,4.2871320e-01,1.4817820e-01
2.5699017e+00,-4.3153790e-03,3.9526923e-04,1.5514795e-03,-7.6449840e-02,-1.1047309e-02,-7.7663301e-02,8.9516471e-04,-3.1710919e-03,7.7114093e-03,-8.6574572e-02,2.3021408e-01,-1.0241348e-01
2.5799017e+00,-6.6241370e-03,-8.1286277e-04,-8.4993504e-05,-2.3201401e-01,-1.2109677e-01,-2.2958310e-01,-6.2791426e+00,5.2970352e-03,-2.8257231e-03,-6.2800438e+02,8.4681352e-01,-1.0537142e+00
2.5899017e+00,-6.9663664e-03,-9.2976040e-04,2.0719492e-03,-3.4051866e-02,-1.2199436e-02,-3.4215771e-02,1.7504561e-03,1.6598506e-02,5.5806504e-03,6.2808991e+02,1.1301481e+00,8.4063815e-01
2.5999017e+00,-7.5416859e-03,-1.2734270e-03,8.5436874e-05,-5.7813773e-02,-3.4448234e-02,-5.7199805e-02,-6.2781344e+00,6.5007517e-03,-1.8951486e-03,-6.2798909e+02,-1.0097763e+00,-7.4758061e-01
2.6099017e+00,-6.5626051e-03,-4.6249554e-04,1.8940170e-03,9.7134023e-02,8.1711482e-02,9.8164893e-02,1.0021695e-04,6.3812321e-03,7.9583017e-03,6.2782406e+02,-1.1951976e-02,9.8534597e-01
2.6199017e+00,-6.9290416e-03,-2.0598371e-05,1.4537144e-03,-3.6338581e-02,4.4425409e-02,-3.6662587e-02,1.6497474e-03,-4.7665362e-03,6.3156566e-03,1.5495319e-01,-1.1147779e+00,-1.6426467e-01
2.6299016e+00,-7.8181297e-03,-1.0286077e-03,2.1683256e-03,-8.8211123e-02,-1.0212981e-01,-8.8083661e-02,3.9819932e-04,1.5351377e-02,8.2654605e-03,-1.2515493e-01,2.0117932e+00,1.9498058e-01
2.6399016e+00,-8.5225415e-03,-7.9836071e-04,2.4237296e-03,-6.9782026e-02,2.2150876e-02,-7.1371439e-02,3.5796657e-05,1.2302778e-02,9.3035273e-03,-3.6240301e-02,-3.0486019e-01,1.0380678e-01
2.6499016e+00,-8.8211415e-03,5.0655721e-04,1.7264488e-03,-2.9308010e-02,1.3090521e-01,-2.8570075e-02,-6.2808029e+00,-1.1676892e-02,8.0406589e-03,-6.2808446e+02,-2.3979693e+00,-1.2628696e-01
2.6599016e+00,-9.9893480e-03,1.9069893e-04,1.4240716e-03,-1.1620060e-01,-3.0070332e-02,-1.1783481e-01,-6.2803891e+00,-1.0101404e-02,6.0425750e-03,4.1379661e-02,1.5754894e-01,-1.9980858e-01
2.6699016e+00,-1.1379213e-02,-8.6188310e-04,2.4998949e-03,-1.3791393e-01,-1.0679422e-01,-1.3888357e-01,7.9258627e-04,1.1799170e-02,8.2840263e-03,6.2811876e+02,2.1900596e+00,2.2414534e-01
2.6799016e+00,-1.1745849e-02,5.9599392e-04,2.0473184e-03,-3.5876675e-02,1.4635661e-01,-3.5144618e-02,-6.2798405e+00,-1.2397892e-02,8.1260930e-03,-6.2806391e+02,-2.4197085e+00,-1.5793337e-02
2.6899016e+00,-1.2885580e-02,1.5906768e-04,1.4651695e-03,-1.1356680e-01,-4.1881875e-02,-1.1505352e-01,-6.2792697e+00,-1.1882917e-02,5.0462797e-03,5.7084342e-02,5.1497550e-02,-3.0798163e-01
2.6999018e+00,-1.3365995e-02,3.5772813e-04,1.6570523e-03,-4.7648411e-02,2.0704815e-02,-4.8076345e-02,-6.2802950e+00,-1.4524749e-02,6.9355510e-03,-1.0252732e-01,-2.6417716e-01,1.8892280e-01
2.7099018e+00,-1.5019706e-02,-5.0677237e-04,1.5018862e-03,-1.6491985e-01,-8.4696256e-02,-1.6672408e-01,-6.2793961e+00,-6.7691508e-03,4.6923248e-03,8.9888138e-02,7.7556055e-01,-2.2432283e-01
2.7199018e+00,-1.5529825e-02,-8.2068334e-05,2.2030520e-03,-5.0440181e-02,4.3170788e-02,-5.0992620e-02,-6.2795557e+00,-1.0065997e-02,8.1470259e-03,-1.5958326e-02,-3.2968492e-01,3.4547043e-01
2.7299018e+00,-1.6313125e-02,4.0831923e-05,2.1898160e-03,-7.7557473e-02,1.3820944e-02,-7.8842019e-02,-6.2776524e+00,-1.3906320e-02,8.9400917e-03,1.9033011e-01,-3.8403268e-01,7.9306662e-02
2.7399018e+00,-1.7629680e-02,-5.2838295e-05,2.0363415e-03,-1.3068704e-01,-6.6834485e-03,-1.3277948e-01,-6.2771799e+00,-1.4260651e-02,7.7365025e-03,4.7244586e-02,-3.5433132e-02,-1.2035904e-01
2.7499018e+00,-1.8829498e-02,1.6955265e-03,2.9160598e-03,-1.1756586e-01,1.7904191e-01,-1.1610969e-01,-6.2762984e+00,-2.8514218e-02,1.0028385e-02,8.8158499e-02,-1.4253580e+00,2.2918848e-01
2.7599018e+00,-2.0998530e-02,-6.0976735e-04,1.8220962e-03,-2.1709821e-01,-2.2746195e-01,-2.1992604e-01,-6.2788533e+00,-9.7152245e-03,3.6896096e-03,-2.5549445e-01,1.8799011e+00,-6.3387816e-01
2.7699018e+00,-2.1803798e-02,-9.9634348e-04,1.9188806e-03,-8.0346302e-02,-3.7695521e-02,-8.1160795e-02,-6.2782877e+00,-7.0010132e-03,4.5705370e-03,5.6559356e-02,2.7142139e-01,8.8092820e-02
2.7799017e+00,-2.2733040e-02,-9.4421191e-04,2.3826457e-03,-9.2243282e-02,6.3112737e-03,-9.3532730e-02,-6.2790580e+00,-7.6385085e-03,7.0637544e-03,-7.7027130e-02,-6.3749589e-02,2.4932198e-01
2.7899017e+00,-2.3083639e-02,2.5621679e-04,2.8646237e-03,-3.4035903e-02,1.2083337e-01,-3.3310194e-02,-6.2782281e+00,-1.7970012e-02,1.2150071e-02,8.2992822e-02,-1.0331513e+00,5.0863212e-01
2.7999017e+00,-2.6799660e-02,-2.7964603e-03,9.7952455e-04,-3.7497543e-01,-3.0362491e-01,-3.6955479e-01,-6.2741066e+00,4.7076687e-03,-1.6613363e-03,4.1214392e-01,2.2677702e+00,-1.3811420e+00
2.8099017e+00,-2.6218147e-02,-6.7631525e-04,2.4829148e-03,5.8981814e-02,2.1070542e-01,6.1949828e-02,-6.2769454e+00,-1.5626773e-02,8.4141610e-03,-2.8388013e-01,-2.0334461e+00,1.0075507e+00
2.8199017e+00,-2.8199248e-02,-1.5577183e-03,2.3139256e-03,-1.9733407e-01,-8.5549180e-02,-2.0001176e-01,-6.2770966e+00,-6.9266409e-03,6.5867777e-03,-1.5115555e-02,8.7001406e-01,-1.8273851e-01
2.8299017e+00,-2.9947821e-02,-1.7624745e-03,2.4680182e-03,-1.7391693e-01,-1.8584546e-02,-1.7600309e-01,-6.2770673e+00,-4.6654974e-03,6.0586697e-03,2.9275619e-03,2.2611456e-01,-5.2810848e-02
2.8399017e+00,-3.1086380e-02,-1.4389539e-03,2.3443060e-03,-1.1286761e-01,3.4301793e-02,-1.1426867e-01,-6.2771328e+00,-1.1018983e-02,6.9191830e-03,-6.5481225e-03,-6.3534920e-01,8.6051418e-02
2.8499017e+00,-3.3847750e-02,-2.5899057e-03,2.3979784e-03,-2.7549752e-01,-1.1471725e-01,-2.7693229e-01,-6.2771459e+00,4.6600241e-03,4.8039495e-03,-1.3132413e-03,1.5679022e+00,-2.1152356e-01
2.8599017e+00,-3.4651015e-02,-1.4393209e-03,2.5187090e-03,-7.8925494e-02,1.1644770e-01,-7.9711376e-02,-6.2762316e+00,-1.0375886e-02,7.4308479e-03,9.1432264e-02,-1.5035924e+00,2.6269009e-01
2.8699017e+00,-3.6793095e-02,-2.1775317e-03,2.7534281e-03,-2.1315552e-01,-7.2836520e-02,-2.1559098e-01,-6.2775775e+00,1.0099225e-03,6.8081615e-03,-1.3459025e-01,1.1385819e+00,-6.2268692e-02
2.8799016e+00,-3.9489520e-02,-2.5191963e-03,1.2628713e-03,-2.7015763e-01,-3.0715112e-02,-2.6954248e-01,-6.2748353e+00,-4.4482891e-03,-8.8693282e-04,2.7421752e-01,-5.4582168e-01,-7.6951017e-01
2.8899016e+00,-4.1626975e-02,-3.6002944e-03,1.0149227e-03,-2.1574700e-01,-1.0635119e-01,-2.1261432e-01,-6.2717699e+00,3.2344881e-03,-3.6613240e-03,3.0654054e-01,7.6827845e-01,-2.7743938e-01
2.8999016e+00,-4.1602060e-02,-2.1410633e-03,2.4838355e-03,3.6704664e-03,1.4585603e-01,4.3073630e-03,-6.2750066e+00,-1.2302425e-02,5.7615345e-03,-3.2366540e-01,-1.5536928e+00,9.4228674e-01
2.9099016e+00,-4.3319834e-02,-3.1023224e-03,2.7558951e-03,-1.7122974e-01,-9.4846630e-02,-1.7303112e-01,-6.2759500e+00,-1.9656409e-04,7.1859510e-03,-9.4347597e-02,1.2105872e+00,1.4244179e-01
2.9199016e+00,-4.5483523e-02,-2.3999866e-03,3.5285779e-03,-2.1399320e-01,7.2796672e-02,-2.1787958e-01,-6.2752866e+00,-3.9271524e-03,8.3511034e-03,6.6339152e-02,-3.7305918e-01,1.1651535e-01
2.9299016e+00,-4.8979846e-02,-4.8140439e-03,1.2339111e-03,-3.5367393e-01,-2.3937874e-01,-3.4695154e-01,-6.2706813e+00,6.7959082e-03,-3.0081462e-03,4.6053966e-01,1.0723071e+00,-1.1359260e+00
2.9399016e+00,-4.9599714e-02,-3.5439163e-03,2.3728451e-03,-6.0223050e-02,1.2837315e-01,-6.0914185e-02,-6.2709494e+00,-9.9321157e-03,3.3036211e-03,-2.6811152e-02,-1.6728040e+00,6.3117732e-01
2.9499018e+00,-5.2073719e-02,-4.5486830e-03,3.0549609e-03,-2.4686763e-01,-1.0011508e-01,-2.4806623e-01,-6.2750324e+00,6.6868282e-03,5.3943204e-03,-4.0829626e-01,1.6618564e+00,2.0906515e-01
2.9599018e+00,-5.4307201e-02,-4.6576153e-03,3.1716355e-03,-2.2227967e-01,-1.0202318e-02,-2.2444463e-01,-6.2742585e+00,5.8059288e-03,5.1675061e-03,7.7393005e-02,-8.8090027e-02,-2.2681450e-02
2.9699018e+00,-5.6206583e-02,-5.3029542e-03,3.6861939e-03,-1.8931741e-01,-6.5393056e-02,-1.9026419e-01,-6.2740301e+00,1.3637358e-02,6.3178937e-03,2.2834706e-02,7.8314370e-01,1.1503886e-01
2.9799018e+00,-5.8292672e-02,-5.0455359e-03,2.1377730e-03,-2.0799311e-01,2.9466028e-02,-2.0873120e-01,-6.2705542e+00,-5.2264696e-03,1.3132373e-03,3.4759784e-01,-1.8863846e+00,-5.0046611e-01
2.9899018e+00,-6.1079991e-02,-7.7927071e-03,1.8037858e-03,-2.8410478e-01,-2.7130942e-01,-2.7663804e-01,-6.2638339e+00,7.3370882e-03,-3.9083565e-04,6.7202908e-01,1.2563570e+00,-1.7040746e-01
2.9999018e+00,-6.3155974e-02,-6.7510180e-03,2.0550855e-03,-2.0575196e-01,1.0731239e-01,-2.0783563e-01,-6.2660317e+00,1.9360489e-03,1.4075520e-04,-2.1978346e-01,-5.4010445e-01,5.3159135e-02
3.0099018e+00,-6.5652548e-02,-6.9213359e-03,2.0316951e-03,-2.5015024e-01,-1.3165829e-02,-2.4939819e-01,-6.2657871e+00,1.9244402e-03,-9.3810248e-04,2.4464089e-02,-1.1608624e-03,-1.0788587e-01
3.0199018e+00,-6.8046624e-02,-7.2848428e-03,2.1458341e-03,-2.4024892e-01,-3.2708157e-02,-2.3909044e-01,-6.2654433e+00,2.5530583e-03,-9.7727785e-04,3.4379713e-02,6.2861867e-02,-3.9175407e-03
3.0299017e+00,-7.0546446e-02,-7.6972954e-03,2.0405908e-03,-2.5116220e-01,-3.7735280e-02,-2.4935347e-01,-6.2646962e+00,4.4849857e-03,-1.8418239e-03,7.4712365e-02,1.9319292e-01,-8.6454691e-02
3.0399017e+00,-7.2711029e-02,-7.8953782e-03,2.1223761e-03,-2.1703639e-01,-1.6394823e-02,-2.1616517e-01,-6.2644005e+00,3.0339983e-03,-1.1277314e-03,2.9568937e-02,-1.4509887e-01,7.1409324e-02
3.0499017e+00,-7.4435005e-02,-7.0085511e-03,2.7935620e-03,-1.7031726e-01,9.2724431e-02,-1.7233926e-01,-6.2648249e+00,-5.1655702e-03,2.4522541e-03,-4.2438507e-02,-8.1995763e-01,3.5799889e-01
3.0599017e+00,-7.7424589e-02,-7.2652668e-03,2.8214550e-03,-2.9910444e-01,-1.8782467e-02,-2.9932496e-01,-6.2635898e+00,-3.4291830e-03,1.0026895e-03,1.2350287e-01,1.7363889e-01,-1.4495660e-01
3.0699017e+00,-8.0326347e-02,-8.6071097e-03,2.1428510e-03,-2.9310370e-01,-1.3000443e-01,-2.8913456e-01,-6.2633100e+00,5.5734051e-03,-1.0971628e-03,2.7985439e-02,9.0025967e-01,-2.0998543e-01
3.0799017e+00,-8.2925095e-02,-9.6045761e-03,2.0267566e-03,-2.6255805e-01,-9.4666117e-02,-2.5907738e-01,-6.2599760e+00,3.7693635e-03,-1.6874324e-03,3.3339843e-01,-1.8040433e-01,-5.9027014e-02
3.0899017e+00,-8.5268817e-02,-9.3985618e-03,2.1151679e-03,-2.3406225e-01,2.6278432e-02,-2.3411449e-01,-6.2600494e+00,-1.1128777e-03,-9.7813186e-04,-7.3422210e-03,-4.8822458e-01,7.0930122e-02
3.0999017e+00,-8.8615296e-02,-1.0475465e-02,1.6301673e-03,-3.3891274e-01,-1.0309874e-01,-3.3179050e-01,-6.2589814e+00,1.0648657e-02,-5.2619504e-03,1.0680294e-01,1.1761546e+00,-4.2838226e-01
3.1098113e+00,-9.1090693e-02,-1.0877059e-02,1.5706811e-03,-2.5179448e-01,-3.7683584e-02,-2.4823172e-01,-6.2594198e+00,1.2498562e-02,-4.4330935e-03,-4.4236710e-02,1.8667750e-01,8.3641559e-02
3.1198113e+00,-9.2803391e-02,-1.0152564e-02,2.1006432e-03,-1.6951439e-01,7.5910463e-02,-1.7151730e-01,-6.2610006e+00,1.8696078e-03,6.2015556e-04,-1.5807965e-01,-1.0628964e+00,5.0532539e-01
3.1298113e+00,-9.5234757e-02,-9.3749929e-03,2.7685037e-03,-2.4043073e-01,8.4623056e-02,-2.4353489e-01,-6.2615295e+00,-6.6411701e-03,3.9626188e-03,-5.2894025e-02,-8.5107860e-01,3.3424664e-01
3.1398113e+00,-9.9558679e-02,-1.1710264e-02,1.7666488e-03,-4.3972735e-01,-2.2722361e-01,-4.2833514e-01,-6.2582632e+00,1.0578664e-02,-3.8225841e-03,3.2662638e-01,1.7219851e+00,-7.7852103e-01
3.1498113e+00,-1.0182763e-01,-1.1631770e-02,1.9819124e-03,-2.2696828e-01,1.2813599e-02,-2.2659554e-01,-6.2577265e+00,3.5708379e-03,-1.5286625e-03,5.3674910e-02,-7.0078330e-01,2.2939238e-01
3.1598113e+00,-1.0489832e-01,-1.2189937e-02,2.1119112e-03,-3.0871028e-01,-4.9439056e-02,-3.0651728e-01,-6.2575262e+00,4.9535699e-03,-1.0088094e-03,2.0025120e-02,1.3827334e-01,5.1985355e-02
3.1698112e+00,-1.0802336e-01,-1.2821543e-02,1.9492480e-03,-3.1471421e-01,-5.6253488e-02,-3.1160440e-01,-6.2553705e+00,5.8006232e-03,-1.8400511e-03,2.1557439e-01,8.4705411e-02,-8.3124249e-02
3.1798112e+00,-1.1170293e-01,-1.3385748e-02,1.8253875e-03,-3.7107911e-01,-4.9370865e-02,-3.6582963e-01,-6.2538886e+00,1.0251516e-02,-4.4314650e-03,1.4818684e-01,4.4508967e-01,-2.5914164e-01
