time, x, y, z, vx, vy, vz, yaw, pitch, roll, yaw_rate, pitch_rate, roll_rate
0.0000000e+00,0.0000000e+00,0.0000000e+00,0.0000000e+00,0.0000000e+00,0.0000000e+00,0.0000000e+00,0.0000000e+00,0.0000000e+00,0.0000000e+00,0.0000000e+00,0.0000000e+00,0.0000000e+00
9.9999905e-03,1.5959786e-04,2.6897881e-05,1.4124056e-04,1.5948898e-02,2.6864643e-03,1.5971257e-02,2.1835531e-04,9.9280400e-06,7.1970450e-04,2.1835551e-02,9.9280494e-04,7.1970519e-02
1.9999981e-02,1.9369500e-04,-5.9440146e-05,1.8417145e-04,3.4045156e-03,-8.6339235e-03,3.4146278e-03,2.9626190e-04,2.6287630e-04,7.7518925e-04,7.7906674e-03,2.5294850e-02,5.5484804e-03
2.9999971e-02,2.0266348e-05,-8.8145185e-05,5.3525458e-05,-1.7339709e-02,-2.8645939e-03,-1.7347032e-02,3.2606289e-04,-1.4854604e-05,2.3685697e-04,2.9801012e-03,-2.7773116e-02,-5.3833280e-02
3.9999962e-02,5.6761333e-06,-9.0127562e-05,4.3370960e-06,-1.4589526e-03,-1.9764133e-04,-1.4591740e-03,3.2308839e-04,-8.5802451e-05,9.1974775e-05,-2.9745032e-04,-7.0947915e-03,-1.4488233e-02
4.9999952e-02,1.1042671e-04,-1.7325083e-05,-8.3810379e-05,1.0478012e-02,7.2792101e-03,1.0472849e-02,9.8438297e-05,-1.3025471e-06,-2.1272959e-04,-2.2465031e-02,8.4499984e-03,-3.0470465e-02
5.9999943e-02,2.5481572e-04,3.3258222e-05,2.4074613e-05,1.4434442e-02,5.0582080e-03,1.4443431e-02,-1.6297145e-04,-1.7173361e-04,2.5265835e-04,-2.6141000e-02,-1.7043122e-02,4.6538838e-02
6.9999933e-02,1.5697400e-04,5.5292279e-05,6.7712170e-06,-9.7825325e-03,2.2065254e-03,-9.7851273e-03,-1.9438101e-04,-5.1294364e-04,2.1225117e-04,-3.1409593e-03,-3.4121036e-02,-4.0407219e-03
7.9999924e-02,5.6801159e-05,3.0813310e-06,6.6734251e-05,-1.0013992e-02,-5.2241529e-03,-1.0019004e-02,-7.7255855e-05,2.2747750e-04,2.8936557e-04,1.1712527e-02,7.4042184e-02,7.7114482e-03
8.9999914e-02,1.3698205e-04,4.3650238e-05,1.1155534e-04,8.0140187e-03,4.0567367e-03,8.0222525e-03,-5.8310278e-05,-7.7951710e-05,4.7898320e-04,1.8945595e-03,-3.0542950e-02,1.8961781e-02
1.0000014e-01,2.3795231e-04,-6.4428918e-06,1.5961944e-04,1.0089574e-02,-5.0073533e-03,1.0104925e-02,-3.4484396e-05,1.4813303e-04,7.3199254e-04,2.3825337e-03,2.2607957e-02,2.5300355e-02
1.1000013e-01,2.3547850e-04,-9.7192539e-05,1.4399200e-04,-2.4920721e-04,-9.0750442e-03,-2.4291226e-04,2.2548318e-04,5.1695416e-04,8.9096230e-04,2.5996783e-02,3.6882147e-02,1.5896992e-02
1.2000012e-01,1.0400258e-04,-8.3977407e-05,2.1058429e-04,-1.3135153e-02,1.3177426e-03,-1.3160423e-02,3.9739951e-04,6.8363451e-04,9.0664901e-04,1.7191650e-02,1.6668052e-02,1.5686716e-03
1.3000011e-01,-1.1345496e-04,-7.8822036e-05,7.9715067e-05,-2.1742369e-02,5.2483079e-04,-2.1748958e-02,4.4400081e-04,1.6639583e-05,1.4598451e-04,4.6601343e-03,-6.6699557e-02,-7.6066522e-02
1.4000010e-01,-1.0342008e-04,-6.5172046e-05,1.3762694e-06,1.0036767e-03,1.3649372e-03,1.0033883e-03,1.0848054e-04,4.5583824e-05,-3.8934328e-05,-3.3552059e-02,2.8944269e-03,-1.8491901e-02
1.5000010e-01,-4.5929933e-05,-4.8577311e-05,-1.1379528e-04,5.7508553e-03,1.6596401e-03,5.7471359e-03,5.8623994e-05,8.7360206e-05,-3.0240882e-04,-4.9856596e-03,4.1776422e-03,-2.6347474e-02
1.6000009e-01,-3.5913614e-05,-1.5248572e-05,-1.7731059e-04,1.0021946e-03,3.3333907e-03,9.9935942e-04,-1.3457180e-05,5.0000548e-04,-6.0576747e-04,-7.2081243e-03,4.1264567e-02,-3.0335894e-02
1.7000008e-01,-5.4364372e-05,6.6931833e-05,-1.5801352e-04,-1.8478809e-03,8.2178928e-03,-1.8429640e-03,-1.5294572e-04,-6.8752369e-05,-8.3842648e-04,-1.3948867e-02,-5.6875839e-02,-2.3265924e-02
1.8000007e-01,-8.5151624e-05,3.6837186e-05,-1.3545504e-04,-3.0794344e-03,-3.0096744e-03,-3.0778194e-03,-2.4033388e-04,-1.7321127e-04,-4.6448555e-04,-8.7388239e-03,-1.0445900e-02,3.7394129e-02
1.9000006e-01,-4.1108725e-06,-1.2776041e-05,6.1835823e-05,8.1016967e-03,-4.9607661e-03,8.1068120e-03,-8.1457366e-05,-1.2187456e-05,3.4425435e-04,1.5887666e-02,1.6102397e-02,8.0874067e-02
2.0000005e-01,1.8320518e-04,3.3433738e-06,1.5160250e-04,1.8721028e-02,1.6132884e-03,1.8742097e-02,1.2075647e-05,8.3850908e-05,5.6650323e-04,9.3533103e-03,9.6038455e-03,2.2224909e-02
2.1000004e-01,3.0633457e-04,1.9789223e-05,1.5836621e-04,1.2304359e-02,1.6385095e-03,1.2322346e-02,1.8882611e-04,-3.0448811e-04,7.2271748e-04,1.7675063e-02,-3.8833939e-02,1.5621440e-02
2.2000003e-01,2.8280099e-04,-1.0673992e-04,1.8044027e-04,-2.3549076e-03,-1.2652870e-02,-2.3521151e-03,2.9893386e-04,2.7513466e-04,9.4915388e-04,1.1010785e-02,5.7962333e-02,2.2643662e-02
2.3000002e-01,1.6304859e-04,-1.2270269e-04,1.9740540e-04,-1.1964475e-02,-1.5897275e-03,-1.1986889e-02,4.9155105e-04,-5.5483947e-05,9.6485657e-04,1.9261738e-02,-3.3061892e-02,1.5702711e-03
2.4000001e-01,6.4071132e-06,-9.0109071e-05,5.9801628e-05,-1.5660383e-02,3.2635347e-03,-1.5667073e-02,3.9367419e-04,1.2746875e-04,1.5928140e-04,-9.7876953e-03,1.8295288e-02,-8.0557594e-02
2.5000000e-01,9.8577056e-05,-2.3214693e-05,-1.6745817e-05,9.2202581e-03,6.6865352e-03,9.2158582e-03,2.8138416e-04,-3.4209678e-05,-1.4899012e-04,-1.1229014e-02,-1.6167859e-02,-3.0827181e-02
2.5999999e-01,1.8312514e-04,8.5727764e-06,3.4896373e-05,8.4524845e-03,3.1793151e-03,8.4569355e-03,-3.1820867e-05,3.5013344e-05,2.6382587e-04,-3.1320533e-02,6.9223088e-03,4.1281638e-02
2.6999998e-01,1.4158246e-04,7.1216844e-05,-1.3996152e-06,-4.1543901e-03,6.2643057e-03,-4.1543145e-03,-1.5015330e-04,-1.2440329e-04,1.9787078e-04,-1.1833254e-02,-1.5941679e-02,-6.5955145e-03
2.7999997e-01,3.6853460e-06,5.5235254e-05,-1.2841708e-04,-1.3797222e-02,-1.5983151e-03,-1.3782206e-02,-1.7215674e-04,-1.6103270e-04,-5.6377431e-04,-2.2003457e-03,-3.6629438e-03,-7.6164582e-02
2.8999996e-01,-6.3800769e-05,1.3147712e-05,-4.1063110e-05,-6.7508011e-03,-4.2079925e-03,-6.7469118e-03,3.6497145e-05,-7.6989752e-05,-3.0077622e-04,2.0865408e-02,8.4043024e-03,2.6299834e-02
2.9999995e-01,2.7629808e-05,2.6400436e-05,1.2721632e-04,9.1389259e-03,1.3238113e-03,9.1474170e-03,7.6088865e-05,-8.3814103e-05,4.6378743e-04,3.9591758e-03,-6.8243577e-04,7.6456438e-02
3.0999994e-01,1.8617501e-05,-3.0506793e-05,-2.3380456e-05,-9.0269808e-04,-5.6904020e-03,-9.0182365e-04,2.6081946e-04,-1.0093733e-04,1.9630723e-05,1.8473077e-02,-1.7123244e-03,-4.4415713e-02
3.1999993e-01,7.3357824e-05,-8.2138237e-05,8.7607622e-06,5.4723953e-03,-5.1638574e-03,5.4750116e-03,2.7537248e-04,1.4598947e-04,4.0225479e-05,1.4553039e-03,2.4692704e-02,2.0594776e-03
3.2999992e-01,-6.7741733e-05,-1.1457376e-04,3.4486586e-05,-1.4108333e-02,-3.2470038e-03,-1.4110812e-02,2.2702729e-04,4.7135693e-04,1.6810067e-04,-4.8345244e-03,3.2536777e-02,1.2787532e-02
3.3999991e-01,-5.5688822e-05,-8.2470566e-05,-2.0380407e-06,1.2060736e-03,3.2098703e-03,1.2057157e-03,2.9983089e-04,-7.5442388e-05,1.5029082e-04,7.2803669e-03,-5.4679984e-02,-1.7809872e-03
3.5000014e-01,8.1515239e-05,-2.1345276e-05,-7.1097717e-05,1.3723203e-02,6.1118698e-03,1.3717212e-02,1.1430673e-04,7.6478613e-05,-1.7582045e-04,-1.8551991e-02,1.5191752e-02,-3.2610381e-02
3.6000013e-01,2.0297714e-04,3.5607198e-05,4.1180479e-05,1.2143018e-02,5.6915944e-03,1.2151098e-02,-8.1508589e-05,-3.8258616e-04,2.2382495e-04,-1.9581550e-02,-4.5906521e-02,3.9964579e-02
3.7000012e-01,1.1815921e-04,-1.7571000e-05,2.0765272e-05,-8.4788013e-03,-5.3213713e-03,-8.4825756e-03,-1.3705763e-04,2.8102952e-04,2.6767362e-04,-5.5549092e-03,6.6361631e-02,4.3848713e-03
3.8000011e-01,3.2816671e-05,2.6426922e-05,-1.0316848e-04,-8.5368793e-03,4.4018388e-03,-8.5305901e-03,-9.1446546e-05,-3.3087755e-04,-2.5959062e-04,4.5611125e-03,-6.1190766e-02,-5.2726474e-02
3.9000010e-01,1.7711097e-04,4.2491571e-05,6.8746490e-05,1.4422953e-02,1.6054232e-03,1.4436048e-02,-7.6975478e-05,-1.4920994e-04,4.4115961e-04,1.4471082e-03,1.8166779e-02,7.0075089e-02
4.0000010e-01,2.1018925e-04,4.3767252e-06,9.8422384e-05,3.3056609e-03,-3.8116979e-03,3.3097589e-03,8.5381804e-05,2.1992424e-05,5.5761074e-04,1.6235744e-02,1.7120253e-02,1.1645124e-02
4.1000009e-01,2.1178531e-04,-5.3054520e-05,1.1928448e-04,1.5841758e-04,-5.7431088e-03,1.6154428e-04,1.8649560e-04,3.1703582e-04,7.3818515e-04,1.0111389e-02,2.9504368e-02,1.8057459e-02
4.2000008e-01,2.1461023e-04,-1.1194320e-04,1.5784636e-04,2.8030067e-04,-5.8889118e-03,2.8386864e-04,3.3348548e-04,1.9537408e-04,8.0557388e-04,1.4699002e-02,-1.2166185e-02,6.7388787e-03
4.3000007e-01,1.1280122e-05,-7.5867168e-05,3.9211872e-05,-2.0328461e-02,3.6135729e-03,-2.0336539e-02,2.9418604e-04,7.4051045e-07,1.7246224e-04,-3.9299473e-03,-1.9463376e-02,-6.3311224e-02
4.4000006e-01,-3.4717289e-05,-7.8150894e-05,-6.0905596e-06,-4.5998873e-03,-2.2778134e-04,-4.5996329e-03,3.7329504e-04,2.4470645e-04,-1.2370330e-05,7.9109074e-03,2.4396618e-02,-1.8483275e-02
4.5000005e-01,1.0245318e-04,-3.8276360e-05,1.0401998e-04,1.3709739e-02,3.9893310e-03,1.3723832e-02,2.2673846e-04,3.6314522e-04,5.9940152e-04,-1.4655672e-02,1.1843888e-02,6.1177243e-02
4.6000004e-01,1.9832217e-05,7.8084135e-06,-7.8400060e-05,-8.2642708e-03,4.6075381e-03,-8.2604636e-03,-6.8262046e-05,4.5950734e-05,-2.2417635e-04,-2.9500079e-02,-3.1719479e-02,-8.2357865e-02
4.7000003e-01,-3.7116050e-05,3.8637997e-05,-1.0768419e-04,-5.6973050e-03,3.0846322e-03,-5.6914530e-03,3.6924628e-05,-2.5662100e-04,-4.5431103e-04,1.0518677e-02,-3.0257203e-02,-2.3013490e-02
4.8000002e-01,-6.2576194e-05,5.4138445e-05,-1.1320858e-04,-2.5474407e-03,1.5502573e-03,-2.5444635e-03,-4.8681429e-05,-1.3163441e-04,-5.2977423e-04,-8.5606139e-03,1.2498671e-02,-7.5463268e-03
4.9000001e-01,-3.5583348e-05,3.5578851e-05,-1.4414575e-04,2.7009163e-03,-1.8560605e-03,2.6975887e-03,-1.4743885e-04,-1.8433572e-04,-5.0231950e-04,-9.8757519e-03,-5.2701362e-03,2.7454752e-03
5.0000000e-01,1.7119338e-04,1.9041144e-05,2.9376057e-05,2.0670140e-02,-1.6536996e-03,2.0685249e-02,-2.9594552e-05,-2.6071113e-05,3.6757065e-04,1.1784442e-02,1.5826476e-02,8.6989098e-02
5.0999999e-01,1.9314192e-04,3.8758528e-05,9.2664306e-05,2.1939355e-03,1.9711540e-03,2.1963010e-03,8.7604843e-05,-1.7940115e-04,4.9763680e-04,1.1719951e-02,-1.5333019e-02,1.3006628e-02
5.1999998e-01,2.2445901e-04,-7.0311420e-05,1.4174694e-04,3.1263326e-03,-1.0906749e-02,3.1379725e-03,2.7508935e-04,3.5616661e-04,7.5946113e-04,1.8748469e-02,5.3556827e-02,2.6182457e-02
5.2999997e-01,2.7558337e-04,-6.1542771e-05,1.5144048e-04,5.1087318e-03,8.7499033e-04,5.1164679e-03,3.0059178e-04,-6.6182793e-05,7.7666916e-04,2.5502448e-03,-4.2234980e-02,1.7208050e-03
5.3999996e-01,2.6162420e-04,-7.9732043e-05,1.4515442e-04,-1.3953083e-03,-1.8192128e-03,-1.3961579e-03,2.1647422e-04,4.1969564e-04,7.1869693e-04,-8.4117637e-03,4.8587890e-02,-5.7972287e-03
5.4999995e-01,2.1830228e-04,-4.5225271e-05,9.7425508e-05,-4.3283828e-03,3.4513302e-03,-4.3354883e-03,2.1339774e-04,6.3362308e-05,7.0990182e-04,-3.0764859e-04,-3.5633368e-02,-8.7951204e-04
5.5999994e-01,2.2784115e-04,-2.4165289e-05,8.4251804e-05,9.5364995e-04,2.1059625e-03,9.5420908e-04,1.2329443e-04,8.3703274e-05,5.2150927e-04,-9.0103394e-03,2.0340986e-03,-1.8839273e-02
5.6999993e-01,2.1175052e-04,3.6555033e-05,3.9507709e-05,-1.6095214e-03,6.0721721e-03,-1.6081019e-03,-1.6413344e-04,-2.4761038e-04,3.3568058e-04,-2.8742814e-02,-3.3131397e-02,-1.8582886e-02
5.7999992e-01,2.9085818e-05,2.7907691e-05,-8.9807309e-05,-1.8271699e-02,-8.6257117e-04,-1.8261377e-02,-9.0314856e-05,-2.0883497e-04,-2.8962974e-04,7.3818655e-03,3.8775445e-03,-6.2531092e-02
5.8999991e-01,1.2215647e-04,5.3605294e-06,7.2692670e-05,9.3043874e-03,-2.2502208e-03,9.3108489e-03,-6.2255107e-05,4.2082856e-04,3.0374830e-04,2.8059776e-03,6.2966414e-02,5.9337860e-02
6.0000014e-01,1.3717053e-04,4.7668517e-05,3.4972968e-05,1.5007360e-03,4.2304455e-03,1.5027277e-03,-1.6564500e-05,-1.8727630e-04,3.7610929e-04,4.5689561e-03,-6.0809094e-02,7.2359339e-03
6.1000013e-01,1.1749266e-04,-5.2672660e-05,8.8458528e-05,-1.9671232e-03,-1.0034548e-02,-1.9663064e-03,5.6362522e-05,2.7027062e-04,6.2516505e-04,7.2927092e-03,4.5754736e-02,2.4905600e-02
6.2000012e-01,-2.2752802e-05,-6.7076354e-05,2.5637118e-05,-1.4023324e-02,-1.4432199e-03,-1.4025502e-02,1.4115094e-04,3.4427781e-04,1.0258274e-04,8.4788503e-03,7.4007257e-03,-5.2258281e-02
6.3000011e-01,8.0298893e-05,-3.6262599e-05,1.9800411e-04,1.0298153e-02,3.0805430e-03,1.0312450e-02,3.0138120e-04,2.2015949e-04,7.7157182e-04,1.6023041e-02,-1.2411844e-02,6.6898972e-02
6.4000010e-01,1.0339386e-04,-4.2623973e-05,1.5147020e-04,2.3077091e-03,-6.3639542e-04,2.3112175e-03,2.3280743e-04,1.2128206e-04,7.1078381e-04,-6.8573834e-03,-9.8877518e-03,-6.0788068e-03
6.5000010e-01,1.5473585e-04,-1.7566555e-05,9.1949357e-05,5.1311557e-03,2.5028852e-03,5.1386437e-03,1.0629612e-04,-4.5021629e-04,6.4536209e-04,-1.2651143e-02,-5.7149890e-02,-6.5421787e-03
6.6000009e-01,1.2260023e-04,3.2550212e-05,4.3371482e-05,-3.2126224e-03,5.0122447e-03,-3.2136307e-03,-8.1405097e-06,-1.8337176e-04,3.0622313e-04,-1.1443674e-02,2.6684479e-02,-3.3913928e-02
6.7000008e-01,-5.6069008e-05,3.1674209e-05,-1.3426626e-04,-1.7876701e-02,-8.3435797e-05,-1.7857194e-02,9.5393399e-06,-2.2367295e-04,-5.4641677e-04,1.7679866e-03,-4.0301229e-03,-8.5264071e-02
6.8000007e-01,7.4125482e-06,7.5843053e-06,-1.4069900e-04,6.3511085e-03,-2.4080657e-03,6.3455653e-03,-1.2158640e-04,2.4435271e-05,-4.1815661e-04,-1.3112586e-02,2.4810846e-02,1.2826028e-02
6.9000006e-01,1.4961568e-04,2.9317986e-05,6.7185767e-06,1.4216765e-02,2.1696477e-03,1.4224455e-02,-1.7547405e-06,-2.6345015e-04,2.5012164e-04,1.1983177e-02,-2.8788569e-02,6.6827889e-02
7.0000005e-01,2.0384945e-04,1.2141435e-05,3.8388031e-05,5.4209044e-03,-1.7179972e-03,5.4257522e-03,-2.0129876e-05,-8.2884204e-05,4.6324988e-04,-1.8375153e-03,1.8056611e-02,2.1312845e-02
7.1000004e-01,2.4853093e-04,-2.3514065e-06,9.9815754e-05,4.4650697e-03,-1.4501491e-03,4.4709531e-03,1.1353836e-04,-7.9682195e-05,6.5288939e-04,1.3366836e-02,3.2020124e-04,1.8963969e-02
7.2000003e-01,2.5130902e-04,-9.4524948e-05,1.6818582e-04,2.7458766e-04,-9.2173545e-03,2.8126999e-04,3.2413016e-04,3.5035689e-04,8.4199236e-04,2.1059200e-02,4.3003949e-02,1.8910315e-02
7.3000002e-01,1.9410244e-04,-1.3870411e-04,1.9736414e-04,-5.7162323e-03,-4.4185679e-03,-5.7245917e-03,2.8214090e-04,3.9497330e-04,9.9195105e-04,-4.1989294e-03,4.4616451e-03,1.4995883e-02
7.4000001e-01,2.4004272e-04,-9.5705181e-05,1.7975472e-04,4.5912414e-03,4.2995260e-03,4.5971691e-03,3.3241489e-04,2.5143494e-04,9.1819035e-04,5.0274033e-03,-1.4353849e-02,-7.3760775e-03
7.5000000e-01,2.2803874e-04,-3.0593227e-06,1.3516704e-04,-1.1963451e-03,9.2648058e-03,-1.2028159e-03,3.4656486e-04,1.6998149e-04,7.0281462e-04,1.4149985e-03,-8.1453532e-03,-2.1537593e-02
7.5999999e-01,1.0397374e-04,-4.2040275e-05,7.5188837e-05,-1.2400766e-02,-3.8997340e-03,-1.2411742e-02,1.1510734e-04,2.4678074e-04,4.9918808e-04,-2.3145775e-02,7.6799326e-03,-2.0362674e-02
7.6999998e-01,-1.0664421e-04,1.8759051e-05,-1.2329499e-04,-2.1069088e-02,6.0889849e-03,-2.1051925e-02,7.2484538e-06,-4.2244106e-04,-3.4746470e-04,-1.0785899e-02,-6.6922244e-02,-8.4665359e-02
7.7999997e-01,-4.5453951e-05,-2.3665155e-05,-1.3560819e-04,6.1224405e-03,-4.2424944e-03,6.1155724e-03,2.1193902e-05,9.8001964e-06,-5.7195640e-04,1.3945462e-03,4.3224167e-02,-2.2449191e-02
7.8999996e-01,3.5475199e-05,5.4867314e-05,-2.2252440e-04,8.0991143e-03,7.8478898e-03,8.0919325e-03,-9.6977376e-06,-6.7287978e-04,-7.7478480e-04,-3.0891669e-03,-6.8268063e-02,-2.0282859e-02
7.9999995e-01,-1.5921635e-05,-4.1901788e-05,-1.5336240e-04,-5.1429499e-03,-9.6782806e-03,-5.1338594e-03,1.0960389e-04,3.7473377e-04,-4.2833586e-04,1.1930175e-02,1.0476146e-01,3.4644926e-02
8.0999994e-01,-8.0004152e-05,-3.1853642e-05,1.5997746e-05,-6.4079525e-03,1.0073158e-03,-6.4081708e-03,2.3760393e-04,-1.5255288e-04,1.0372821e-05,1.2800016e-02,-5.2728715e-02,4.3870910e-02
8.1999993e-01,-2.3906811e-05,-5.3830565e-05,6.7005076e-05,5.6082431e-03,-2.1991171e-03,5.6106779e-03,1.6035228e-04,-9.3259398e-05,2.0388007e-04,-7.7251726e-03,5.9293541e-03,1.9350743e-02
8.2999992e-01,2.6495273e-04,-1.3817779e-04,1.7296077e-04,2.8854871e-02,-8.4378460e-03,2.8916151e-02,3.8963182e-04,2.8148708e-04,9.6272548e-04,2.2927976e-02,3.7474683e-02,7.5884614e-02
8.3999991e-01,2.7740906e-04,-1.4910125e-04,1.3856170e-04,1.2440018e-03,-1.0923120e-03,1.2472934e-03,4.4129825e-04,4.6886850e-04,9.2224659e-04,5.1666472e-03,1.8738161e-02,-4.0478932e-03
8.5000014e-01,2.1350897e-04,-1.1634420e-04,1.4187931e-04,-6.3838921e-03,3.2763112e-03,-6.3954789e-03,3.5972216e-04,2.5294018e-04,7.4962932e-04,-8.1574216e-03,-2.1592339e-02,-1.7261332e-02
8.6000013e-01,5.7589130e-05,-2.1032686e-05,-6.1259167e-05,-1.5594755e-02,9.5410773e-03,-1.5583174e-02,1.1990777e-04,-5.1631651e-04,-2.5015560e-04,-2.3981463e-02,-7.6925742e-02,-9.9978587e-02
8.7000012e-01,1.7246137e-04,-8.0092520e-05,-2.8513230e-06,1.1484194e-02,-5.9039091e-03,1.1491344e-02,1.8745675e-05,1.9974853e-04,2.5507444e-04,-1.0116219e-02,7.1606572e-02,5.0523051e-02
8.8000011e-01,1.7829471e-04,1.5438899e-05,-5.1746879e-05,5.8320995e-04,9.5526862e-03,5.9102047e-04,3.6341291e-07,-7.9109316e-04,2.2006643e-04,-1.8382279e-03,-9.9084263e-02,-3.5008042e-03
8.9000010e-01,1.8888308e-04,3.1737488e-05,-3.3291854e-05,1.0586590e-03,1.6293922e-03,1.0597361e-03,-8.5373938e-06,-4.5061213e-04,1.5528213e-04,-8.9008152e-04,3.4048135e-02,-6.4784358e-03
9.0000010e-01,3.7822280e-05,-1.0298556e-05,-8.7285299e-05,-1.5112617e-02,-4.1945637e-03,-1.5102084e-02,2.7054851e-04,-3.2828933e-04,-3.5660611e-04,2.7908617e-02,1.2232292e-02,-5.1188873e-02
9.1000009e-01,3.7621043e-05,-8.7054855e-05,1.5268083e-04,-2.4005592e-05,-7.6756258e-03,-2.0238190e-05,5.0750132e-04,-1.2808624e-05,6.7227109e-04,2.3695303e-02,3.1548100e-02,1.0288782e-01
9.2000008e-01,4.7548778e-05,-1.8794647e-04,1.4595854e-04,9.8561520e-04,-1.0089907e-02,9.9243523e-04,6.1887178e-04,-1.2368277e-04,9.2147525e-04,1.1137057e-02,-1.1087425e-02,2.4920439e-02
9.3000007e-01,1.6287965e-04,-1.6725881e-04,1.9004701e-04,1.1522665e-02,2.0591873e-03,1.1545235e-02,6.0359566e-04,-2.2687300e-04,1.0122191e-03,-1.5276134e-03,-1.0319033e-02,9.0743907e-03
9.4000006e-01,1.4788441e-04,-1.6210726e-04,1.9076399e-04,-1.4979148e-03,5.1534907e-04,-1.5010670e-03,6.5509711e-04,5.2522100e-04,8.4821530e-04,5.1501499e-03,7.5209471e-02,-1.6400392e-02
9.5000005e-01,-8.1316011e-05,-1.5577865e-04,1.3137866e-05,-2.2917518e-02,6.3329384e-04,-2.2922598e-02,5.6703570e-04,5.4815064e-04,9.5261815e-05,-8.8061495e-03,2.2929666e-03,-7.5295420e-02
9.6000004e-01,-9.9934814e-05,-6.2528135e-05,-8.3259856e-05,-1.8596914e-03,9.3271762e-03,-1.8534524e-03,2.5812072e-04,-8.8069086e-04,-1.1617286e-04,-3.0891528e-02,-1.4288429e-01,-2.1143487e-02
9.6999407e-01,-6.7668033e-05,-7.6055561e-05,-1.9544236e-04,3.2301968e-03,-1.3559789e-03,3.2259940e-03,1.3638435e-05,-7.3898344e-04,-4.9868269e-04,-2.4462832e-02,1.4179207e-02,-3.8273832e-02
9.7999406e-01,-1.0380045e-04,-4.4214689e-06,-2.1125426e-04,-3.6147652e-03,7.1659887e-03,-3.6066174e-03,2.0501130e-04,-5.0771788e-04,-8.2748771e-04,1.9137305e-02,2.3126578e-02,-3.2880534e-02
9.8999405e-01,-6.3880866e-05,3.7948236e-05,-1.9796464e-04,3.9959776e-03,4.2334367e-03,3.9916983e-03,1.9941187e-04,-6.8709639e-04,-7.9454450e-04,-5.5994323e-04,-1.7937868e-02,3.2943245e-03
9.9999404e-01,1.4890468e-04,-5.0072966e-05,-2.9701546e-05,2.1272073e-02,-8.8128601e-03,2.1280633e-02,1.5100977e-04,-3.5326942e-04,2.4303615e-04,-4.8402147e-03,3.3382729e-02,1.0375816e-01
1.0099940e+00,1.7738971e-04,-8.9791520e-05,3.3643035e-05,2.8455675e-03,-3.9744167e-03,2.8478747e-03,3.5011744e-04,-5.4775191e-04,5.4304665e-04,1.9910786e-02,-1.9448267e-02,3.0001079e-02
1.0199940e+00,1.0550897e-04,-9.7806089e-05,2.0606607e-04,-7.1821901e-03,-7.9626684e-04,-7.1945438e-03,5.9005301e-04,-1.3195531e-04,8.8478936e-04,2.3993580e-02,4.1579700e-02,3.4174304e-02
1.0299940e+00,1.6436086e-04,-1.6170733e-04,2.5064403e-04,5.8741720e-03,-6.3911227e-03,5.8951220e-03,7.0278534e-04,5.3309004e-04,1.1091131e-03,1.1273244e-02,6.6504599e-02,2.2432393e-02
1.0399940e+00,3.2525574e-04,-2.0051155e-04,1.4744885e-04,1.6068006e-02,-3.8918253e-03,1.6108221e-02,6.7916461e-04,-2.9325548e-05,1.1713586e-03,-2.3620757e-03,-5.6241613e-02,6.2245626e-03
1.0499940e+00,2.7811118e-04,-2.0730937e-04,1.1776590e-04,-4.7100125e-03,-6.7711311e-04,-4.7192866e-03,6.4290501e-04,7.6794479e-05,1.0352992e-03,-3.6259634e-03,1.0612013e-02,-1.3605956e-02
1.0599940e+00,-9.0645626e-05,-1.3862195e-04,2.2149678e-05,-3.6867937e-02,6.8914677e-03,-3.6879256e-02,5.7321609e-04,-4.2908638e-05,1.0402584e-04,-6.9688983e-03,-1.1970323e-02,-9.3127427e-02
1.0699940e+00,-1.6096417e-04,-9.2679742e-05,-3.8670033e-05,-7.0319495e-03,4.5976534e-03,-7.0295308e-03,4.2770173e-04,-5.9974535e-05,-2.9218517e-04,-1.4551450e-02,-1.7065912e-03,-3.9621138e-02
1.0799940e+00,2.1223814e-05,-2.6477647e-05,-1.9183272e-04,1.8229510e-02,6.6147670e-03,1.8210095e-02,2.6970236e-05,-2.7225251e-04,-5.7737466e-04,-4.0073188e-02,-2.1227817e-02,-2.8518976e-02
1.0899940e+00,1.0146138e-04,-1.9732794e-05,-9.8545431e-05,8.0227345e-03,6.6931151e-04,8.0252262e-03,5.7849996e-05,-5.8694669e-04,1.3313459e-04,3.0879790e-03,-3.1469449e-02,7.1050992e-02
1.0999942e+00,-1.0176034e-04,-4.2053171e-05,-1.5726504e-04,-2.0332146e-02,-2.2214241e-03,-2.0312420e-02,2.5574832e-04,-2.6413926e-04,-4.8575578e-04,1.9789379e-02,3.2280004e-02,-6.1887620e-02
1.1099942e+00,2.9537851e-04,1.2844229e-04,6.6756902e-05,3.9661275e-02,1.6988016e-02,3.9792833e-02,-1.2495652e-04,-1.6719681e-03,1.2712328e-03,-3.8070520e-02,-1.4078302e-01,1.7569902e-01
1.1199942e+00,8.9213580e-05,-1.4208250e-04,1.5636617e-04,-2.0614266e-02,-2.7042884e-02,-2.0631376e-02,4.7045004e-04,3.9607743e-06,7.2592244e-04,5.9540713e-02,1.6759305e-01,-5.4531087e-02
1.1299942e+00,2.0359658e-04,-1.0993098e-04,8.6241812e-05,1.1429137e-02,3.2105730e-03,1.1448763e-02,4.8679356e-04,8.6228005e-05,9.3828722e-04,1.6343535e-03,8.2267309e-03,2.1236498e-02
1.1399941e+00,2.1269673e-04,-7.6470793e-05,1.3843941e-04,9.1096016e-04,3.3455772e-03,9.1070650e-04,5.2792399e-04,3.9489340e-05,9.0282742e-04,4.1130465e-03,-4.6738709e-03,-3.5459836e-03
1.1499941e+00,-4.2150579e-05,-1.1818595e-04,4.9777978e-05,-2.5481735e-02,-4.1542617e-03,-2.5490593e-02,5.9058275e-04,-8.6550830e-05,2.1497282e-04,6.2658821e-03,-1.2604029e-02,-6.8785525e-02
1.1599941e+00,3.3696515e-04,3.2873961e-05,1.0809465e-04,3.7857802e-02,1.5013137e-02,3.8002160e-02,3.5375444e-04,-2.0916963e-03,1.5589557e-03,-2.3682853e-02,-2.0051474e-01,1.3439842e-01
1.1699941e+00,1.8200405e-04,-8.7267713e-05,-2.2306836e-05,-1.5495523e-02,-1.2003873e-02,-1.5504709e-02,3.5283214e-04,-3.1203506e-04,3.1221838e-04,-9.2230095e-05,1.7796630e-01,-1.2467385e-01
1.1799941e+00,2.5671571e-04,1.1857003e-05,-7.3903770e-05,7.4716962e-03,9.9075311e-03,7.4772130e-03,1.8757335e-04,-4.7471435e-04,1.7879294e-04,-1.6525895e-02,-1.6267945e-02,-1.3342556e-02
1.1899941e+00,4.0108812e-05,-3.3273875e-05,-1.5956167e-04,-2.1671715e-02,-4.5079150e-03,-2.1650780e-02,1.0353783e-04,-1.3553684e-04,-4.8656013e-04,-8.4035595e-03,3.3917784e-02,-6.6535371e-02
1.1999941e+00,-8.5345837e-05,-3.2838060e-05,-5.3209227e-05,-1.2548380e-02,5.1281661e-05,-1.2542544e-02,1.2918747e-04,-4.8470315e-04,-2.3187897e-04,2.5649661e-03,-3.4916665e-02,2.5468140e-02
1.2099941e+00,1.2366725e-04,-1.4729607e-04,8.6484009e-05,2.0884325e-02,-1.1452281e-02,2.0914777e-02,3.2177415e-04,1.2230282e-05,6.3705240e-04,1.9258686e-02,4.9693390e-02,8.6893220e-02
1.2199941e+00,2.6587001e-04,-6.6850102e-05,1.1328557e-04,1.4210980e-02,8.0377041e-03,1.4233492e-02,3.4254487e-04,-1.4251076e-04,8.4805508e-04,2.0770739e-03,-1.5474119e-02,2.1100288e-02
1.2299941e+00,1.6756588e-04,-9.0832548e-05,2.1101098e-04,-9.8221292e-03,-2.3928693e-03,-9.8400188e-03,5.3608115e-04,-1.0911214e-05,9.7383934e-04,1.9353647e-02,1.3159967e-02,1.2578438e-02
1.2399940e+00,-3.2505962e-05,-1.9843689e-04,2.5261734e-04,-1.9997932e-02,-1.0740065e-02,-2.0027412e-02,8.0174486e-04,-2.1649497e-04,8.9386734e-04,2.6566396e-02,-2.0558396e-02,-7.9972072e-03
1.2499940e+00,-1.2019050e-04,-1.5980704e-04,6.0540459e-05,-8.7641268e-03,3.8683548e-03,-8.7704307e-03,5.5138140e-04,-6.0684382e-05,2.5134803e-04,-2.5036370e-02,1.5581074e-02,-6.4251993e-02
1.2599940e+00,1.0203652e-04,-1.5489954e-04,8.6812935e-05,2.2211154e-02,4.8459194e-04,2.2234421e-02,4.0249022e-04,1.2527662e-04,5.2927281e-04,-1.4889132e-02,1.8596118e-02,2.7792505e-02
1.2699940e+00,-7.3213456e-05,-7.4912770e-05,-1.4072287e-04,-1.7526966e-02,8.0090318e-03,-1.7518335e-02,4.0438728e-04,-1.8613670e-04,-2.9607253e-04,1.8970659e-04,-3.1141362e-02,-8.2534613e-02
1.2799940e+00,-9.6398454e-05,1.0933094e-05,-1.7189801e-04,-2.3180447e-03,8.5866951e-03,-2.3111692e-03,2.4241043e-04,-6.6495943e-04,-7.0062402e-04,-1.6197701e-02,-4.7882318e-02,-4.0455188e-02
1.2899940e+00,-6.6830767e-05,3.2715722e-05,-2.0029023e-04,2.9594446e-03,2.1753919e-03,2.9562123e-03,1.0675978e-04,-8.6534542e-04,-8.2576339e-04,-1.3565078e-02,-2.0038618e-02,-1.2513949e-02
1.2999852e+00,9.9205538e-05,-3.9619110e-05,-8.6625363e-05,1.6616304e-02,-7.2451541e-03,1.6618008e-02,8.9015870e-05,-2.2854201e-04,8.1685715e-05,-1.7759590e-03,6.3736626e-02,9.0825118e-02
1.3099852e+00,1.2974898e-04,-6.2950977e-05,1.1271768e-05,3.0525219e-03,-2.3353096e-03,3.0545518e-03,2.0802812e-04,-4.8617657e-04,4.3867683e-04,1.1901236e-02,-2.5763481e-02,3.5699145e-02
1.3199725e+00,1.3479647e-04,-1.0377066e-04,1.3839241e-04,5.0351411e-04,-4.0872264e-03,5.0653054e-04,3.8195397e-04,2.0342697e-04,6.1814323e-04,1.7414607e-02,6.9047670e-02,1.7969364e-02
1.3299725e+00,2.0869593e-04,-1.3644153e-04,1.9575444e-04,7.3827087e-03,-3.2686329e-03,7.3965092e-03,5.0993406e-04,3.0084818e-04,7.5447945e-04,1.2798021e-02,9.7421302e-03,1.3633635e-02
1.3399725e+00,2.4821329e-04,-1.2891358e-04,1.7213832e-04,3.9482695e-03,7.4916365e-04,3.9558951e-03,5.7489055e-04,-3.4365965e-04,9.8686110e-04,6.4956558e-03,-6.4450845e-02,2.3238188e-02
1.3499727e+00,1.8887455e-04,-2.0324504e-04,1.1701311e-04,-5.9326797e-03,-7.4280237e-03,-5.9409913e-03,6.2252388e-04,-2.1144651e-04,9.5744262e-04,4.7632240e-03,1.3221011e-02,-2.9417807e-03
1.3599727e+00,1.3197961e-04,-1.6407461e-04,1.5234969e-04,-5.6829615e-03,3.9230143e-03,-5.6919217e-03,6.4130778e-04,-4.0760673e-04,7.0721369e-04,1.8783912e-03,-1.9616040e-02,-2.5022917e-02
1.3699727e+00,4.6914926e-05,-6.6252869e-05,-2.9039174e-05,-8.5030471e-03,9.7899723e-03,-8.5009430e-03,5.1304008e-04,-4.0288901e-04,-1.8698976e-04,-1.2826782e-02,4.7177192e-04,-8.9420430e-02
1.3799727e+00,1.9606080e-04,-3.0629800e-05,1.1212835e-05,1.4911205e-02,3.5612114e-03,1.4918260e-02,1.9275625e-04,1.1904533e-04,2.7372067e-04,-3.2028414e-02,5.2193483e-02,4.6071087e-02
1.3899727e+00,1.3666078e-04,-5.6361756e-05,-8.9485196e-05,-5.9387927e-03,-2.5682251e-03,-5.9433733e-03,1.1025597e-04,-7.2664497e-04,2.5222575e-04,-8.2500353e-03,-8.4569111e-02,-2.1494942e-03
1.3999727e+00,-7.3750985e-05,-1.6103246e-05,-1.1747470e-04,-2.1048041e-02,4.0438517e-03,-2.1030898e-02,2.1880745e-04,-6.3678385e-04,-3.6724846e-04,1.0855159e-02,8.9861208e-03,-6.1947480e-02
1.4099727e+00,-8.9381590e-04,-1.9396020e-03,4.8753405e-04,-8.3260393e-02,-1.9262651e-01,-8.0071434e-02,6.4431398e-03,9.9815570e-03,-1.9751823e-04,6.2243383e-01,1.0618351e+00,1.6973039e-02
1.4199727e+00,6.5398918e-05,-7.4062378e-05,8.7072772e-05,9.5927983e-02,1.8655199e-01,9.5919351e-02,2.9522881e-04,2.7280013e-04,5.0718437e-04,-6.1479169e-01,-9.7087662e-01,7.0470327e-02
1.4299726e+00,2.2832791e-04,-1.1427181e-04,2.6501854e-05,1.6279349e-02,-4.0232590e-03,1.6305899e-02,3.1634257e-04,1.7427976e-04,7.5419922e-04,2.1113776e-03,-9.8520465e-03,2.4701509e-02
1.4399726e+00,1.2563504e-04,-1.8421672e-04,1.2655057e-04,-1.0266216e-02,-6.9908374e-03,-1.0274867e-02,5.6681193e-04,2.1035786e-04,6.8561168e-04,2.5046960e-02,3.6078133e-03,-6.8587607e-03
1.4499726e+00,-9.5386623e-04,-1.9918012e-03,4.6548873e-04,-1.0917696e-01,-1.8110923e-01,-1.0611326e-01,6.5733228e-03,9.9437190e-03,-3.7881550e-04,6.0065166e-01,9.7333704e-01,-1.0644282e-01
1.4599726e+00,-7.6224674e-05,-1.3327371e-04,-4.6814945e-06,8.7845101e-02,1.8583749e-01,8.7716022e-02,4.1756766e-04,2.4189804e-04,-3.7181599e-05,-6.1557610e-01,-9.7018302e-01,3.4163422e-02
1.4699726e+00,2.2354541e-04,-8.4337349e-05,-6.6585589e-05,2.9964989e-02,4.8660069e-03,2.9993576e-02,2.9085464e-04,-6.3064275e-04,4.4923367e-04,-1.2671314e-02,-8.7254161e-02,4.8641573e-02
1.4799726e+00,1.7548169e-04,-7.8814262e-05,-1.3355510e-05,-4.8046395e-03,5.5490657e-04,-4.8078130e-03,2.4381952e-04,-2.9648131e-04,3.3320886e-04,-4.7035171e-03,3.3416175e-02,-1.1602492e-02
1.4899726e+00,-9.5232716e-05,-1.3562895e-05,-5.6945234e-05,-2.7080540e-02,6.5462914e-03,-2.7057283e-02,2.5241911e-04,-5.2904453e-04,-3.9610231e-04,8.5995961e-04,-2.3256344e-02,-7.2931187e-02
1.4999726e+00,-4.2611374e-05,-4.3060374e-05,-4.3069417e-05,5.2624221e-03,-2.9548456e-03,5.2589971e-03,3.1308500e-04,-6.5543007e-04,-2.2931700e-04,6.0665955e-03,-1.2638566e-02,1.6678547e-02
1.5099726e+00,2.6568844e-04,-4.0249832e-05,-2.6353690e-05,3.0812876e-02,2.4764880e-04,3.0847422e-02,2.0287686e-04,-8.8017280e-04,5.5744914e-04,-1.1020825e-02,-2.2474295e-02,7.8676690e-02
1.5199726e+00,2.7874660e-04,-6.8912974e-05,3.1949446e-05,1.3041626e-03,-2.8668506e-03,1.3062987e-03,2.6955091e-04,-1.3909570e-04,6.7491558e-04,6.6674115e-03,7.4107780e-02,1.1746655e-02
1.5299726e+00,1.1751482e-04,-1.3555430e-04,1.8722678e-04,-1.6113553e-02,-6.6651180e-03,-1.6132423e-02,4.6293934e-04,5.2334582e-04,7.8885047e-04,1.9338861e-02,6.6244216e-02,1.1393500e-02
1.5399725e+00,3.4360830e-04,9.4765581e-05,2.4033435e-04,2.2566817e-02,2.2983744e-02,2.2700814e-02,1.4632516e-04,-1.9824138e-03,2.0290763e-03,-3.1661448e-02,-2.5057621e-01,1.2402270e-01
1.5499725e+00,8.9805925e-05,-2.2060688e-04,1.2053229e-04,-2.5379832e-02,-3.1524289e-02,-2.5396821e-02,5.9572480e-04,8.4187201e-05,7.5672855e-04,4.4940008e-02,2.0666030e-01,-1.2723490e-01
1.5599725e+00,1.0917362e-04,-1.4803842e-04,6.1764175e-05,1.9387942e-03,7.2561348e-03,1.9374337e-03,4.5663989e-04,8.6679570e-05,6.6600221e-04,-1.3908505e-02,2.4923721e-04,-9.0726431e-03
1.5699725e+00,-2.3282719e-05,-7.5352898e-05,-1.1070611e-04,-1.3247025e-02,7.2737786e-03,-1.3241401e-02,4.3822925e-04,4.4177231e-05,-3.4475999e-04,-1.8410657e-03,-4.2502380e-03,-1.0107632e-01
1.5799725e+00,-1.1442967e-04,-3.5422949e-05,-8.8561891e-05,-9.1178613e-03,3.9981456e-03,-9.1092878e-03,2.8012845e-04,-2.8472356e-04,-4.6929184e-04,-1.5810095e-02,-3.2890110e-02,-1.2453196e-02
1.5899725e+00,-1.4016565e-04,-7.1157654e-05,-1.2878747e-04,-2.5751378e-03,-3.5726001e-03,-2.5732762e-03,9.9497994e-05,-2.4010081e-04,-4.5923232e-04,-1.8063063e-02,4.4622785e-03,1.0059524e-03
1.5999727e+00,7.5730677e-05,-3.5404027e-05,1.1343446e-05,2.1583351e-02,3.5589068e-03,2.1597630e-02,1.3163762e-04,-6.2658780e-04,2.8985632e-04,3.2138886e-03,-3.8647814e-02,7.4907150e-02
1.6099727e+00,1.6130585e-04,-8.8770938e-06,4.9391759e-05,8.5546645e-03,2.6476430e-03,8.5619501e-03,1.6879740e-04,-4.2146346e-04,3.8658158e-04,3.7159825e-03,2.0512454e-02,9.6725356e-03
1.6199727e+00,1.1913502e-04,-7.3423199e-05,8.9886740e-05,-4.2166989e-03,-6.4535034e-03,-4.2191781e-03,2.7887921e-04,1.4959873e-05,5.1867915e-04,1.1008191e-02,4.3642375e-02,1.3209769e-02
1.6299727e+00,-4.0276409e-05,-1.3248637e-04,2.9885997e-05,-1.5940905e-02,-5.9013530e-03,-1.5943252e-02,4.1612567e-04,1.0437838e-04,1.6997513e-04,1.3724659e-02,8.9418590e-03,-3.4870434e-02
1.6399727e+00,1.5649989e-04,-1.4451154e-04,1.1479643e-04,1.9663103e-02,-1.2170790e-03,1.9691290e-02,4.3575890e-04,-3.0402173e-04,7.1225304e-04,1.9633254e-03,-4.0840050e-02,5.4227842e-02
1.6499727e+00,2.8398686e-04,-1.2880065e-04,7.4319141e-05,1.2741096e-02,1.5614045e-03,1.2757507e-02,4.4958835e-04,-3.0993480e-04,6.5226567e-04,1.3829461e-03,-5.9130786e-04,-5.9987423e-03
1.6599727e+00,2.2365809e-04,-1.3247018e-04,9.9184817e-05,-6.0295071e-03,-3.6189034e-04,-6.0365628e-03,5.3397525e-04,-3.0506393e-04,5.9176057e-04,8.4386982e-03,4.8708832e-04,-6.0505166e-03
1.6699727e+00,8.8295556e-05,-1.2788547e-04,1.3718802e-04,-1.3527714e-02,4.6740007e-04,-1.3544508e-02,5.8945269e-04,-7.0122354e-05,6.1146603e-04,5.5477492e-03,2.3494180e-02,1.9705480e-03
1.6799726e+00,1.5899407e-04,-1.3253806e-04,6.6211791e-05,7.0664039e-03,-4.6625023e-04,7.0732455e-03,3.0672306e-04,1.6645673e-04,4.6825151e-04,-2.8272990e-02,2.3657931e-02,-1.4321465e-02
1.6899726e+00,2.8555920e-04,-9.6631196e-05,-2.1906138e-06,1.2651327e-02,3.5880265e-03,1.2662476e-02,1.6849227e-04,-4.1895908e-05,4.5841076e-04,-1.3823093e-02,-2.0835284e-02,-9.8407625e-04
1.6999726e+00,1.7339189e-04,-6.8655521e-05,2.4432647e-05,-1.1211776e-02,2.7998738e-03,-1.1221130e-02,1.6569933e-04,-3.9655845e-05,4.0123990e-04,-2.7929389e-04,2.2400645e-04,-5.7170913e-03
1.7099726e+00,-8.0044467e-05,-4.7794058e-05,-6.1349883e-05,-2.5350333e-02,2.0949906e-03,-2.5336256e-02,3.2892402e-04,-1.9986316e-05,-2.9046339e-04,1.6322485e-02,1.9669548e-03,-6.9170395e-02
1.7199726e+00,-8.3028140e-05,-8.3880449e-05,7.8772264e-07,-2.9963667e-04,-3.6085375e-03,-2.9836530e-04,3.4746515e-04,-3.5757699e-06,-5.0868207e-05,1.8541149e-03,1.6410562e-03,2.3959541e-02
1.7299726e+00,4.6718079e-05,-1.6176993e-04,9.7894284e-05,1.2963869e-02,-7.7915875e-03,1.2983811e-02,3.7570501e-04,1.7267378e-04,6.0391894e-04,2.8239885e-03,1.7624972e-02,6.5478777e-02
1.7399726e+00,3.0989631e-05,-2.0242357e-04,8.6261908e-05,-1.5739331e-03,-4.0644840e-03,-1.5740423e-03,4.9374866e-04,-6.7702290e-05,5.8489821e-04,1.1804376e-02,-2.4037630e-02,-1.9020745e-03
1.7499726e+00,-7.4589777e-05,-6.0725515e-05,-2.9871160e-05,-1.0553288e-02,1.4177841e-02,-1.0551840e-02,4.3134426e-04,-3.2878943e-04,-1.3740853e-04,-6.2404455e-03,-2.6108739e-02,-7.2230743e-02
1.7599726e+00,-6.1056576e-05,-9.3113539e-05,-4.2204969e-05,1.3522589e-03,-3.2397252e-03,1.3521817e-03,4.5929122e-04,-2.2064365e-04,-3.1423466e-04,2.7946983e-03,1.0814589e-02,-1.7682629e-02
1.7699590e+00,5.9949496e-05,-1.5252828e-04,5.3453602e-05,1.2108932e-02,-5.9542552e-03,1.2122931e-02,4.2900350e-04,4.1861514e-05,4.6206368e-04,-3.0328964e-03,2.6286264e-02,7.7735550e-02
1.7799590e+00,4.8739811e-05,-1.3089807e-04,3.7353927e-05,-1.1196522e-03,2.1639056e-03,-1.1205817e-03,3.8378976e-04,-4.0410336e-04,4.3440199e-04,-4.5213786e-03,-4.4596530e-02,-2.7661724e-03
1.7899590e+00,1.0980832e-04,-3.4293754e-05,3.7262983e-05,6.1076661e-03,9.6529539e-03,6.1178761e-03,2.7092375e-04,-9.5404693e-04,2.9590517e-04,-1.1286611e-02,-5.4994410e-02,-1.3849695e-02
1.7999589e+00,1.1574830e-04,-4.0172963e-05,-7.1564320e-05,5.9396887e-04,-5.8844666e-04,5.9350866e-04,2.6487165e-04,-6.1956563e-04,-2.1171112e-04,-6.0521062e-04,3.3448162e-02,-5.0761677e-02
1.8099589e+00,1.9730726e-04,-3.6026790e-05,3.0606250e-05,8.1526501e-03,4.1213416e-04,8.1592826e-03,2.0409332e-04,-1.0038003e-04,4.0924233e-04,-6.0778392e-03,5.1918609e-02,6.2095405e-02
1.8199589e+00,1.4268530e-04,-8.2368877e-05,5.3303546e-06,-5.4602551e-03,-4.6321756e-03,-5.4658753e-03,2.1147226e-04,-1.6142933e-04,5.3565301e-04,7.3789504e-04,-6.1049359e-03,1.2641080e-02
1.8299589e+00,1.1422568e-04,-1.2164344e-04,5.8238023e-05,-2.8459259e-03,-3.9264540e-03,-2.8473898e-03,3.1556668e-04,-3.7846926e-05,4.4869179e-04,1.0409452e-02,1.2358252e-02,-8.6961303e-03
1.8399589e+00,-3.9978642e-05,-9.7014600e-05,1.2701204e-05,-1.5419648e-02,2.4743454e-03,-1.5419413e-02,4.3433744e-04,-3.0880294e-04,-1.7599692e-05,1.1877087e-02,-2.7095628e-02,-4.6629193e-02
1.8499591e+00,1.0105152e-04,-1.1506095e-04,1.2476918e-04,1.4092818e-02,-1.8088691e-03,1.4112015e-02,5.0029824e-04,1.9698054e-04,6.3593431e-04,6.5959286e-03,5.0577191e-02,6.5351904e-02
1.8599591e+00,2.1024550e-04,-1.4617904e-04,8.6380337e-05,1.0909927e-02,-3.1157562e-03,1.0927757e-02,5.0596629e-04,1.4465727e-04,7.2368548e-04,5.6680615e-04,-5.2323321e-03,8.7751257e-03
1.8699591e+00,1.5206148e-04,-1.3114241e-04,1.1120908e-04,-5.8136942e-03,1.5068781e-03,-5.8222850e-03,4.1698193e-04,-1.3527757e-04,7.0187131e-04,-8.8984447e-03,-2.7993511e-02,-2.1814194e-03
1.8799591e+00,-1.6932417e-04,-1.0860523e-04,2.4799204e-05,-3.2137648e-02,2.2650567e-03,-3.2138747e-02,3.8622948e-04,3.3493218e-05,2.3352389e-06,-3.0752479e-03,1.6877095e-02,-6.9953674e-02
1.8899591e+00,-1.3691284e-04,-6.7069093e-05,8.7336224e-06,3.2427377e-03,4.1517008e-03,3.2419897e-03,3.8043635e-04,-2.1088109e-04,-6.7236470e-06,-5.7931347e-04,-2.4437454e-02,-9.0588946e-04
1.8999591e+00,1.6008579e-04,2.8251507e-06,6.4393357e-05,2.9686928e-02,6.9588451e-03,2.9720028e-02,1.9451971e-04,-8.3482750e-04,4.8212492e-04,-1.8591682e-02,-6.2394700e-02,4.8884903e-02
1.9099591e+00,1.7323638e-04,-5.3130320e-05,8.0045912e-06,1.3139062e-03,-5.5961080e-03,1.3138484e-03,1.2236832e-04,-3.0026709e-04,3.5665000e-04,-7.2151455e-03,5.3456092e-02,-1.2547503e-02
1.9199591e+00,-1.4911918e-04,-1.1096556e-04,-9.3047410e-05,-3.2247957e-02,-5.7749145e-03,-3.2224756e-02,3.3400577e-04,6.6773939e-05,-3.2393988e-04,2.1163765e-02,3.6704137e-02,-6.8059053e-02
1.9299591e+00,4.5310409e-04,-4.4756590e-04,1.9143905e-03,5.9686539e-02,-3.3261477e-02,6.0972635e-02,2.9926031e-04,6.8455644e-03,8.6927896e-03,-3.4745501e-03,6.7787970e-01,9.0167381e-01
1.9399590e+00,-2.4023503e-05,-7.0209311e-05,-1.5034320e-04,-4.7723478e-02,3.7765123e-02,-4.7678834e-02,2.5832095e-04,-3.5868228e-04,-4.2813858e-04,-4.0939394e-03,-7.2042536e-01,-9.1209369e-01
1.9499590e+00,2.1282432e-04,-1.0250336e-04,-4.7693727e-05,2.3676578e-02,-3.2393577e-03,2.3691670e-02,2.6841537e-04,-1.5161452e-04,3.1064556e-04,1.0094429e-03,2.0706796e-02,7.3878485e-02
1.9599590e+00,1.4822095e-04,-1.5438959e-04,6.6747750e-05,-6.4589820e-03,-5.1898540e-03,-6.4607181e-03,3.7201328e-04,5.6169384e-04,5.0918183e-04,1.0359801e-02,7.1330904e-02,1.9853646e-02
1.9699590e+00,-5.7223340e-05,-1.1315590e-04,6.1265839e-05,-2.0540445e-02,4.1350935e-03,-2.0546097e-02,4.2944620e-04,-1.4103019e-04,1.0860760e-04,5.7432973e-03,-7.0272470e-02,-4.0057461e-02
1.9799590e+00,1.2971123e-04,-1.9432250e-04,1.6628614e-04,1.8675204e-02,-8.1210193e-03,1.8709840e-02,4.7386436e-04,2.4086096e-04,7.7123281e-04,4.4418200e-03,3.8189152e-02,6.6262584e-02
1.9899590e+00,2.6760040e-04,-1.3411303e-04,8.1359755e-05,1.3778715e-02,6.0203567e-03,1.3799397e-02,3.4911655e-04,3.0563433e-04,8.9278707e-04,-1.2474792e-02,6.4773430e-03,1.2155438e-02
1.9999590e+00,2.7557675e-04,-4.1203956e-05,8.4764616e-05,8.0078962e-04,9.2903450e-03,8.0112308e-04,4.1503058e-04,-2.9933108e-04,8.8078033e-04,6.5914085e-03,-6.0496599e-02,-1.2006753e-03
2.0099590e+00,5.7038204e-05,-4.5816214e-05,-2.5016292e-05,-2.1856179e-02,-4.3778727e-04,-2.1852055e-02,2.8920757e-04,-7.8339308e-04,-9.9323077e-05,-1.2582312e-02,-4.8406246e-02,-9.8010434e-02
2.0199590e+00,3.3950006e-04,5.1327826e-05,6.0795495e-05,2.8210006e-02,9.6629020e-03,2.8300014e-02,8.1089136e-05,-1.7397659e-03,1.3088654e-03,-2.0811863e-02,-9.5637371e-02,1.4081898e-01
2.0299590e+00,3.3356125e-05,-1.4897048e-04,3.4949943e-05,-3.0612599e-02,-2.0017298e-02,-3.0624454e-02,4.4986432e-04,3.9913215e-05,3.5372669e-04,3.6877554e-02,1.7796808e-01,-9.5513960e-02
2.0399590e+00,6.4262019e-05,-8.7886225e-05,-7.1643943e-06,3.0918709e-03,6.1072111e-03,3.0917247e-03,3.5869880e-04,-3.5931932e-05,2.9518765e-04,-9.1165611e-03,-7.5845219e-03,-5.8539098e-03
2.0499589e+00,-1.6262848e-05,-1.0509163e-04,-1.2055826e-04,-8.0561405e-03,-1.7151598e-03,-8.0499953e-03,4.7359949e-04,-1.9481902e-04,-3.5177182e-04,1.1490080e-02,-1.5888724e-02,-6.4696008e-02
2.0599589e+00,-1.0884526e-04,-1.2782978e-04,-3.1176550e-05,-9.2609559e-03,-2.2704338e-03,-9.2563749e-03,4.1892654e-04,5.3436747e-05,-1.8944054e-04,-5.4672995e-03,2.4825600e-02,1.6233143e-02
2.0699589e+00,-1.4954940e-04,-1.4769169e-04,6.6134178e-06,-4.0708320e-03,-1.9865941e-03,-4.0698066e-03,3.2776666e-04,4.2661297e-04,5.8039856e-05,-9.1159967e-03,3.7317657e-02,2.4748064e-02
2.0799589e+00,7.7699512e-05,-7.1025903e-05,1.6102053e-04,2.2711171e-02,7.6464222e-03,2.2745435e-02,3.5886420e-04,-5.2796440e-04,7.2545362e-04,3.1097571e-03,-9.5457828e-02,6.6741440e-02
2.0899589e+00,1.0502909e-04,-9.8799604e-05,1.5606298e-04,2.7301175e-03,-2.7780790e-03,2.7350842e-03,2.9902238e-04,4.0528676e-05,7.3621162e-04,-5.9841880e-03,5.6849362e-02,1.0758009e-03
2.0999591e+00,8.4986774e-05,-9.1261320e-05,1.1989568e-04,-2.0025577e-03,7.5515983e-04,-2.0053061e-03,3.6151861e-04,-3.1121015e-04,6.7627964e-04,6.2494797e-03,-3.5173078e-02,-5.9930613e-03
2.1099591e+00,1.1384739e-04,-1.0808011e-04,5.2738059e-05,2.8842351e-03,-1.6824853e-03,2.8875395e-03,3.7146794e-04,1.6197815e-04,4.1702897e-04,9.9493403e-04,4.7318876e-02,-2.5925091e-02
2.1199591e+00,4.9582438e-05,-5.3603575e-05,-1.2840753e-04,-6.4275485e-03,5.4533867e-03,-6.4205927e-03,2.4730332e-04,-6.4438967e-04,-3.7275703e-04,-1.2416473e-02,-8.0636859e-02,-7.8978676e-02
2.1299591e+00,3.8716487e-05,-8.8382348e-05,-1.6745353e-04,-1.0878750e-03,-3.4769117e-03,-1.0884157e-03,2.3339268e-04,-6.5779747e-04,-4.3010276e-04,-1.3910656e-03,-1.3407813e-03,-5.7345785e-03
2.1399591e+00,1.3326177e-04,-5.2912268e-05,1.2822765e-05,9.4533679e-03,3.5382231e-03,9.4589985e-03,3.4151187e-04,-5.8778612e-04,2.5171462e-04,1.0811929e-02,7.0011412e-03,6.8181803e-02
2.1499591e+00,1.7529860e-04,-9.2527384e-05,3.9213633e-05,4.2005341e-03,-3.9624825e-03,4.2059268e-03,3.7815358e-04,1.4796099e-04,3.9353221e-04,3.6641747e-03,7.3574781e-02,1.4181773e-02
2.1599591e+00,2.1155424e-04,-1.3404660e-04,9.6935927e-05,3.6218918e-03,-4.1546250e-03,3.6261491e-03,3.7689558e-04,-3.6767344e-04,5.8202309e-04,-1.2580061e-04,-5.1563492e-02,1.8849105e-02
2.1699591e+00,1.6548074e-04,-1.8786262e-04,1.5606417e-04,-4.6060616e-03,-5.3790140e-03,-4.6116749e-03,4.9576005e-04,-6.6968302e-05,8.5929844e-04,1.1886459e-02,3.0070543e-02,2.7727562e-02
2.1799591e+00,9.1780873e-05,-1.2619375e-04,2.2245592e-04,-7.3588926e-03,6.1754445e-03,-7.3739246e-03,6.4574518e-04,-5.1434151e-04,9.6522252e-04,1.4998527e-02,-4.4737363e-02,1.0592418e-02
2.1899590e+00,1.1408474e-04,-1.3888131e-04,1.9333463e-04,2.2275476e-03,-1.2690954e-03,2.2330351e-03,5.8250554e-04,4.3047981e-04,9.4203622e-04,-6.3239696e-03,9.4482222e-02,-2.3186327e-03
2.1999590e+00,1.4488477e-04,-1.1296248e-04,1.1390683e-04,3.0790340e-03,2.5907777e-03,3.0819098e-03,4.2852611e-04,6.8713243e-05,6.7588055e-04,-1.5397957e-02,-3.6176691e-02,-2.6615592e-02
2.2099590e+00,4.1609101e-05,-1.4950174e-04,2.8413554e-05,-1.0324800e-02,-3.6494350e-03,-1.0331942e-02,4.6914736e-04,3.3994709e-05,4.3467411e-04,4.0621286e-03,-3.4718567e-03,-2.4120668e-02
2.2199590e+00,-1.3378339e-04,-9.5044398e-05,-1.2405580e-04,-1.7545792e-02,5.4599262e-03,-1.7528325e-02,2.5388768e-04,-5.5529986e-04,-4.5105538e-04,-2.1525988e-02,-5.8929513e-02,-8.8573033e-02
2.2299590e+00,-1.1648230e-04,-3.9169865e-05,-1.6732296e-04,1.7333951e-03,5.5855729e-03,1.7329113e-03,3.5637233e-04,-7.3309851e-04,-7.4750130e-04,1.0248474e-02,-1.7779882e-02,-2.9644620e-02
2.2399590e+00,-8.4950145e-05,-6.0957743e-05,-1.9307319e-04,3.1547059e-03,-2.1814548e-03,3.1498860e-03,3.6144062e-04,-4.8416453e-04,-7.2185258e-04,5.0683029e-04,2.4893421e-02,2.5648742e-03
2.2499590e+00,2.3400432e-05,-6.7612098e-05,7.0415748e-06,1.0831642e-02,-6.7173938e-04,1.0838105e-02,1.8754040e-04,-3.9409124e-04,3.0466712e-04,-1.7390039e-02,9.0073378e-03,1.0265207e-01
2.2599590e+00,4.5693773e-05,-1.8585987e-04,1.0799052e-04,2.2239479e-03,-1.1825069e-02,2.2332305e-03,3.5577295e-04,2.2966871e-04,5.2973201e-04,1.6823271e-02,6.2376054e-02,2.2506510e-02
2.2699590e+00,3.8356004e-05,-1.6592909e-04,1.9600786e-04,-7.3195871e-04,1.9936019e-03,-7.3417780e-04,6.4624201e-04,-6.4872909e-05,7.2310008e-04,2.9046934e-02,-2.9454190e-02,1.9336825e-02
2.2799590e+00,1.3536783e-04,-1.6379176e-04,2.2908046e-04,9.6923249e-03,2.0668497e-04,9.7102035e-03,7.1517475e-04,-1.1279023e-05,9.2908741e-04,6.8932805e-03,5.3593938e-03,2.0598753e-02
2.2899590e+00,2.2251386e-04,-2.4985322e-04,1.2635633e-04,8.7005621e-03,-8.6078909e-03,8.7269252e-03,7.3423174e-04,5.3398199e-04,8.8642884e-04,1.9057006e-03,5.4526153e-02,-4.2658611e-03
2.2999589e+00,2.1864646e-04,-1.9171265e-04,7.1933034e-05,-3.8217500e-04,5.8144981e-03,-3.8471229e-04,7.4137500e-04,-3.9216936e-04,6.5918672e-04,7.1432624e-04,-9.2615223e-02,-2.2724234e-02
2.3099589e+00,7.2403360e-05,-2.2722967e-04,1.0591631e-04,-1.4621324e-02,-3.5377308e-03,-1.4630710e-02,9.4421552e-04,-1.1203612e-05,4.3391759e-04,2.0284071e-02,3.8096611e-02,-2.2526934e-02
2.3199589e+00,-1.0800018e-04,-1.6013038e-04,-8.5151784e-05,-1.8043181e-02,6.7286375e-03,-1.8030592e-02,6.4655721e-04,-3.9040465e-04,-3.9652916e-04,-2.9765859e-02,-3.7920140e-02,-8.3044755e-02
2.3299589e+00,1.2101267e-04,-1.8233734e-04,-1.3444612e-05,2.2895591e-02,-2.2341167e-03,2.2905716e-02,5.4006489e-04,-4.5882148e-05,1.9704480e-04,-1.0649242e-02,3.4452283e-02,5.9357453e-02
2.3399589e+00,1.8803308e-04,-7.1014102e-05,-1.9268257e-05,6.7043846e-03,1.1124497e-02,6.7127151e-03,3.5055266e-04,-8.1799462e-04,2.3347935e-04,-1.8951242e-02,-7.7211321e-02,3.6434583e-03
2.3499591e+00,-1.3351259e-04,-7.1551532e-05,-7.1169916e-05,-3.2164168e-02,-2.9158406e-05,-3.2143524e-02,4.1795523e-04,-3.4670856e-04,-3.2090843e-04,6.7401028e-03,4.7127527e-02,-5.5437509e-02
2.3599591e+00,-2.6922621e-04,-1.0396448e-04,6.8710318e-05,-1.3572262e-02,-3.2312189e-03,-1.3572890e-02,4.1944183e-04,-3.2319842e-04,3.4665746e-05,1.4866047e-04,2.3510159e-03,3.5557452e-02
2.3699591e+00,-2.0679500e-05,-2.1309401e-04,1.7386262e-04,2.4831384e-02,-1.0918785e-02,2.4875429e-02,5.9272463e-04,3.5816194e-04,6.7721195e-04,1.7328296e-02,6.8136101e-02,6.4254682e-02
2.3799591e+00,1.0045657e-04,-1.6454262e-04,1.4517826e-04,1.2107721e-02,4.8525288e-03,1.2120561e-02,6.0097289e-04,3.8492870e-04,7.2729172e-04,8.2482743e-04,2.6766787e-03,5.0079817e-03
2.3899591e+00,5.4327398e-05,-1.3172123e-04,1.3671588e-04,-4.6078176e-03,3.2854785e-03,-4.6156477e-03,6.8158072e-04,-4.1664067e-05,6.2111224e-04,8.0607908e-03,-4.2659317e-02,-1.0617958e-02
2.3999591e+00,-1.4591276e-04,-1.5547578e-04,-9.6199101e-06,-2.0027910e-02,-2.3571623e-03,-2.0022321e-02,6.6569449e-04,-2.4795871e-04,-1.1477789e-04,-1.5886249e-03,-2.0629484e-02,-7.3589084e-02
2.4099591e+00,-1.5134739e-04,-1.4873325e-04,-1.0699083e-04,-5.4322787e-04,6.7485733e-04,-5.4294908e-04,5.8117081e-04,-5.3103162e-04,-2.8755823e-04,-8.4523759e-03,-2.8307318e-02,-1.7278051e-02
2.4199591e+00,-1.3974857e-04,-1.2565080e-04,-1.5627719e-04,1.1615909e-03,2.3071653e-03,1.1603287e-03,5.6178808e-04,-3.7117665e-04,-3.5416041e-04,-1.9382745e-03,1.5985513e-02,-6.6602245e-03
2.4299591e+00,-8.1897016e-05,-1.1526862e-04,5.4287926e-05,5.7843463e-03,1.0324553e-03,5.7870060e-03,5.3333267e-04,-4.6274103e-04,2.3629687e-04,-2.8455437e-03,-9.1564468e-03,5.9045785e-02
2.4399590e+00,-8.5570473e-05,-1.6587743e-04,8.2899745e-05,-3.6942620e-04,-5.0605823e-03,-3.6944027e-04,4.4526619e-04,-3.7937441e-04,4.7165949e-04,-8.8066568e-03,8.3366699e-03,2.3536284e-02
2.4499590e+00,-1.6371665e-04,-2.0034299e-04,1.1150554e-04,-7.8111323e-03,-3.4396507e-03,-7.8211583e-03,5.3182301e-04,-3.5189169e-04,6.8114545e-04,8.6556901e-03,2.7482746e-03,2.0948616e-02
2.4599590e+00,-3.3646665e-04,-3.0609212e-04,1.7344224e-04,-1.7261619e-02,-1.0580649e-02,-1.7284901e-02,5.5343593e-04,8.8422952e-04,1.1135910e-03,2.1612945e-03,1.2361224e-01,4.3244599e-02
2.4699590e+00,-5.0906311e-04,-3.4807802e-04,1.2310785e-04,-1.7243055e-02,-4.1976415e-03,-1.7276483e-02,6.0902391e-04,5.5331612e-04,1.1094889e-03,5.5588030e-03,-3.3091371e-02,-4.1021121e-04
2.4799590e+00,-7.6587852e-04,-5.4576623e-04,1.2404094e-04,-2.5667547e-02,-1.9786926e-02,-2.5681653e-02,7.0481920e-04,1.4084882e-03,1.0875769e-03,9.5795384e-03,8.5517289e-02,-2.1912082e-03
2.4899590e+00,-1.4578087e-03,-6.5701588e-04,6.0315132e-05,-6.9175009e-02,-1.1224558e-02,-6.9195067e-02,7.7627044e-04,2.2150620e-03,3.8560844e-04,7.1451310e-03,8.0657457e-02,-7.0196908e-02
2.4999590e+00,-2.9353154e-03,-1.9544360e-03,-6.2452570e-04,-1.4921643e-01,-1.2951029e-01,-1.4647583e-01,6.3292439e-03,4.8090344e-03,-4.3914758e-03,5.5529787e-01,2.5939748e-01,-4.7770888e-01
2.5099590e+00,-1.9787084e-03,-1.1494316e-03,2.3809582e-04,9.5648801e-02,8.0658766e-02,9.5539419e-02,1.8639628e-03,3.5189156e-03,1.6908066e-03,-4.4652854e-01,-1.2901199e-01,6.0822882e-01
2.5199590e+00,-2.6329636e-03,-8.7082332e-04,1.6206022e-04,-6.5392589e-02,2.7713218e-02,-6.5521217e-02,8.6440411e-04,3.1182519e-03,1.3594532e-04,-9.9955961e-02,-4.0066417e-02,-1.5548628e-01
2.5299590e+00,-3.7687255e-03,-1.2544538e-03,-3.0306328e-04,-1.1413321e-01,-3.8178553e-02,-1.1307910e-01,4.0756777e-03,2.4634714e-03,-3.5413865e-03,3.2112767e-01,-6.5478110e-02,-3.6773353e-01
2.5399590e+00,-4.2575298e-03,-2.2994162e-03,6.3302683e-04,-4.9582393e-02,-1.0467704e-01,-4.7774392e-02,6.4045407e-03,1.0264664e-02,-6.8900110e-04,2.3288652e-01,7.8012002e-01,2.8523881e-01
2.5499589e+00,-4.5300995e-03,-1.5938589e-03,-5.3263271e-04,-2.6975126e-02,7.0671099e-02,-2.7238698e-02,5.7872508e-03,1.5178829e-03,-4.6669202e-03,-6.1729051e-02,-8.7467896e-01,-3.9779229e-01
2.5599589e+00,-4.3451069e-03,-8.9563873e-04,-8.7696532e-05,1.8776984e-02,6.9755984e-02,1.8468825e-02,3.4207668e-03,-1.3040672e-04,-2.1086282e-03,-2.3664862e-01,-1.6482912e-01,2.5582944e-01
2.5699589e+00,-4.4925578e-03,-7.9314213e-04,-9.4175476e-06,-1.4737535e-02,1.0289916e-02,-1.4724642e-02,2.9733055e-03,2.4111052e-04,-1.5585573e-03,-4.4746176e-02,3.7151759e-02,5.5007148e-02
2.5799589e+00,-4.7307546e-03,-8.4910227e-04,1.0137041e-05,-2.3876465e-02,-5.5184151e-03,-2.3780930e-02,3.2667987e-03,1.0106369e-05,-1.6225318e-03,2.9349349e-02,-2.3100437e-02,-6.3974584e-03
2.5899589e+00,-5.3337957e-03,-1.1759120e-03,-5.6428538e-06,-6.0545677e-02,-3.2514316e-02,-6.0152087e-02,3.9466779e-03,1.1893465e-03,-1.8755789e-03,6.7987984e-02,1.1792413e-01,-2.5304731e-02
2.5999591e+00,-6.3714589e-03,-1.8762659e-03,-1.3968240e-04,-1.0449425e-01,-6.9713013e-02,-1.0324579e-01,5.9136502e-03,2.8455451e-03,-3.0690392e-03,1.9669273e-01,1.6561606e-01,-1.1934330e-01
2.6099591e+00,-6.7960938e-03,-1.7670061e-03,-3.0508018e-05,-4.2531426e-02,1.1033859e-02,-4.2367575e-02,5.4167061e-03,2.8802994e-03,-3.0119143e-03,-4.9694461e-02,3.4754353e-03,5.7124926e-03
2.6199591e+00,-7.0081957e-03,-1.9116377e-03,1.7770176e-05,-2.1351373e-02,-1.4402975e-02,-2.1109297e-02,5.6965032e-03,2.8802724e-03,-2.7912510e-03,2.7979736e-02,-2.6986721e-06,2.2066354e-02
2.6299591e+00,-6.7967428e-03,-9.7149395e-04,3.9237699e-04,2.1380506e-02,9.3986707e-02,2.1031867e-02,2.3907970e-03,1.0942110e-03,-4.9633347e-04,-3.3057093e-01,-1.7860631e-01,2.2949197e-01
2.6399591e+00,-7.5243709e-03,-1.1459502e-03,1.6253349e-04,-7.2917240e-02,-1.7379422e-02,-7.2624062e-02,2.7715540e-03,1.8655008e-03,-1.4618815e-03,3.8075744e-02,7.7129057e-02,-9.6554892e-02
2.6499591e+00,-7.7939956e-03,-1.1126038e-03,2.7201080e-04,-2.6970633e-02,3.2967540e-03,-2.6959020e-02,1.2577113e-03,2.6638405e-03,-4.5819479e-04,-1.5138442e-01,7.9834045e-02,1.0036876e-01
2.6599591e+00,-8.2711888e-03,-1.2499453e-03,2.6480888e-04,-4.7792278e-02,-1.3780332e-02,-4.7633014e-02,1.7150428e-03,2.6868676e-03,-1.0362772e-03,4.5733197e-02,2.3027133e-03,-5.7808300e-02
2.6699591e+00,-8.7441383e-03,-1.3305205e-03,4.6719952e-04,-4.7341190e-02,-8.1245219e-03,-4.7237277e-02,1.8464330e-03,3.2662475e-03,-6.6414039e-04,1.3139024e-02,5.7938046e-02,3.7213721e-02
2.6799591e+00,-9.1206062e-03,-1.4278350e-03,5.4764761e-04,-3.7692595e-02,-9.8215930e-03,-3.7577555e-02,2.0072746e-03,4.4076567e-03,-6.9918284e-04,1.6084179e-02,1.1414103e-01,-3.5042486e-03
2.6899590e+00,-1.0238324e-02,-2.8918723e-03,-1.3449945e-04,-1.1346517e-01,-1.4622044e-01,-1.1029623e-01,7.8953279e-03,6.3523757e-03,-4.8506782e-03,5.8880589e-01,1.9447208e-01,-4.1514993e-01
2.6999590e+00,-1.0088498e-02,-2.2277459e-03,9.3306089e-05,1.5420553e-02,6.6399165e-02,1.4593187e-02,5.9045025e-03,5.1532291e-03,-3.0807673e-03,-1.9908274e-01,-1.1991477e-01,1.7699126e-01
2.7099590e+00,-1.0021068e-02,-1.5507851e-03,2.9941791e-04,6.9790719e-03,6.7704262e-02,6.4133742e-03,3.3758717e-03,4.7559724e-03,-1.1139445e-03,-2.5286332e-01,-3.9725710e-02,1.9668246e-01
2.7199590e+00,-1.0315278e-02,-1.4894544e-03,2.3954384e-04,-2.9448019e-02,6.1012228e-03,-2.9400668e-02,3.1132371e-03,4.1999674e-03,-1.5720417e-03,-2.6263477e-02,-5.5600555e-02,-4.5809761e-02
2.7299590e+00,-1.0492909e-02,-1.3327810e-03,3.8163517e-04,-1.7749952e-02,1.5649200e-02,-1.7792238e-02,1.9171147e-03,2.9360111e-03,-9.5238436e-04,-1.1961236e-01,-1.2639574e-01,6.1965793e-02
2.7399590e+00,-1.1007199e-02,-1.2781026e-03,7.0810352e-04,-5.1431055e-02,5.4634362e-03,-5.1427557e-02,1.8512351e-03,1.9371050e-03,-2.3712504e-04,-6.5879682e-03,-9.9890711e-02,7.1526000e-02
2.7499590e+00,-1.1241674e-02,-1.5333587e-03,1.5990657e-03,-2.3437837e-02,-2.5520394e-02,-2.3462796e-02,2.6142820e-03,2.3897292e-03,3.2479587e-03,7.6304762e-02,4.5262470e-02,3.4850871e-01
2.7599590e+00,-1.0515693e-02,-1.1777815e-03,2.4370498e-03,7.2009394e-02,3.5586219e-02,7.3168328e-02,1.4650976e-03,1.8423251e-03,8.7877298e-03,-1.1491855e-01,-5.4740471e-02,5.5397764e-01
2.7699590e+00,-1.1427170e-02,-1.4953575e-03,4.7391047e-04,-9.1223662e-02,-3.1832918e-02,-9.1045505e-02,2.3809854e-03,3.2097966e-03,-5.9942553e-06,9.1588867e-02,1.3674729e-01,-8.7937324e-01
2.7799590e+00,-1.1718662e-02,-1.5636491e-03,6.1829571e-04,-2.9143244e-02,-6.8340248e-03,-2.9154164e-02,2.8777631e-03,3.0436977e-03,8.7653557e-04,4.9677816e-02,-1.6609912e-02,8.8253067e-02
2.7899590e+00,-1.2374985e-02,-1.4990041e-03,7.1826842e-04,-6.5580868e-02,6.5271194e-03,-6.5677717e-02,2.8915561e-03,1.9359858e-03,4.9618752e-04,1.3793016e-03,-1.1077129e-01,-3.8034841e-02
2.7999589e+00,-1.2598581e-02,-1.3733197e-03,1.1340077e-03,-2.2264052e-02,1.2622936e-02,-2.2424128e-02,2.5657491e-03,1.2689011e-04,2.8230534e-03,-3.2580722e-02,-1.8090975e-01,2.3268681e-01
2.8099589e+00,-1.4391122e-02,-5.1740753e-03,-2.5103579e-04,-1.8549285e-01,-3.8012987e-01,-1.7267179e-01,1.3937874e-02,1.4755818e-02,-5.3634263e-03,1.1372136e+00,1.4628942e+00,-8.1864876e-01
2.8199589e+00,-1.4318865e-02,-2.0835753e-03,1.0107275e-03,8.3055707e-03,3.0905426e-01,5.7433097e-03,3.5038969e-03,4.8074552e-03,4.0331621e-04,-1.0433987e+00,-9.9483721e-01,5.7667481e-01
2.8299589e+00,-1.4816645e-02,-2.0131504e-03,8.2490907e-04,-4.9791392e-02,6.9781131e-03,-4.9773739e-02,3.3445361e-03,4.6390875e-03,-7.4742899e-04,-1.5936095e-02,-1.6836789e-02,-1.1507463e-01
2.8399589e+00,-1.5217807e-02,-2.0079457e-03,8.6299980e-04,-4.0156808e-02,4.6324792e-04,-4.0076239e-02,3.1013501e-03,4.5322536e-03,-1.0580396e-03,-2.4318628e-02,-1.0683402e-02,-3.1061088e-02
2.8499591e+00,-1.6383986e-02,-4.3006626e-03,1.4482885e-03,-1.1906291e-01,-2.2991034e-01,-1.1281220e-01,1.0403671e-02,1.6301798e-02,-5.9023567e-04,7.3021533e-01,1.1769275e+00,4.6779320e-02
2.8599591e+00,-1.4880547e-02,-2.8009207e-03,3.5432921e-03,1.4917695e-01,1.5140869e-01,1.5006857e-01,4.0869871e-03,1.3568425e-02,1.1761873e-02,-6.3166894e-01,-2.7333749e-01,1.2352121e+00
2.8699591e+00,-1.5753332e-02,-2.1087542e-03,7.0941133e-04,-8.7042948e-02,6.9052821e-02,-8.7642985e-02,3.2513440e-03,5.1140432e-03,1.1613180e-04,-8.3564394e-02,-8.4543901e-01,-1.1645753e+00
2.8799591e+00,-1.6312370e-02,-2.1073540e-03,7.2658121e-04,-5.5942298e-02,5.4659862e-05,-5.5865465e-02,3.5058605e-03,5.0361995e-03,-7.0345392e-04,2.5451676e-02,-7.7843735e-03,-8.1958650e-02
2.8899591e+00,-1.7694123e-02,-2.4018337e-03,6.0360695e-04,-1.3892263e-01,-2.8735200e-02,-1.3757488e-01,7.2500466e-03,2.1056475e-03,-3.8967784e-03,3.7441897e-01,-2.9305548e-01,-3.1933276e-01
2.8999591e+00,-1.8113408e-02,-3.0597175e-03,8.1806746e-04,-4.2640724e-02,-6.5546406e-02,-4.1588167e-02,8.9637159e-03,3.2721614e-03,-2.9639046e-03,1.7136709e-01,1.1665150e-01,9.3287476e-02
2.9099591e+00,-1.7395551e-02,-2.2660679e-03,1.2875836e-03,7.1993501e-02,7.9400604e-02,7.1538049e-02,3.7934375e-03,4.3014780e-03,1.2926385e-03,-5.1702833e-01,1.0293176e-01,4.2565471e-01
2.9199591e+00,-1.7845349e-02,-2.3927171e-03,1.2272658e-03,-4.4985113e-02,-1.2723307e-02,-4.4958054e-02,4.2019757e-03,5.5006999e-03,1.0561626e-03,4.0853866e-02,1.1992230e-01,-2.3647610e-02
2.9299591e+00,-1.8390680e-02,-2.3278566e-03,1.2910407e-03,-5.4466124e-02,6.4684370e-03,-5.4602288e-02,4.4672194e-03,4.7844413e-03,6.8850342e-04,2.6524393e-02,-7.1625924e-02,-3.6765951e-02
2.9399083e+00,-1.9023150e-02,-2.1477249e-03,1.2218952e-03,-6.3469848e-02,1.8162543e-02,-6.3653304e-02,3.7591147e-03,2.8512878e-03,4.9501694e-04,-7.1171968e-02,-1.9430227e-01,-1.9447427e-02
2.9499083e+00,-1.9817891e-02,-2.2951294e-03,1.2229351e-03,-7.9463902e-02,-1.4677443e-02,-7.9496173e-02,3.9628093e-03,3.1695481e-03,8.5646020e-04,2.0369473e-02,3.1826066e-02,3.6144361e-02
2.9599075e+00,-2.0599757e-02,-2.4327220e-03,1.4534663e-03,-7.8127687e-02,-1.3699950e-02,-7.8267402e-02,4.5957381e-03,3.8213146e-03,1.6229656e-03,6.3297472e-02,6.5181371e-02,7.6656098e-02
2.9699075e+00,-2.1524160e-02,-2.3981221e-03,1.4692128e-03,-9.2364510e-02,3.6261354e-03,-9.2509870e-02,4.7175963e-03,2.9178303e-03,6.3308214e-04,1.2185825e-02,-9.0348515e-02,-9.8988442e-02
2.9799075e+00,-2.3144473e-02,-3.3152245e-03,8.6858183e-04,-1.6348622e-01,-9.0773104e-02,-1.6109509e-01,8.9548832e-03,3.2089524e-03,-3.9582078e-03,4.2372910e-01,2.9112240e-02,-4.5912943e-01
2.9899075e+00,-2.4243185e-02,-3.8611164e-03,6.7974338e-04,-1.1093562e-01,-5.3958241e-02,-1.0911099e-01,1.0301887e-02,4.6116504e-03,-4.6320320e-03,1.3470046e-01,1.4026993e-01,-6.7382480e-02
2.9999075e+00,-2.4874965e-02,-4.7569832e-03,1.8719536e-03,-6.4200025e-02,-8.9710820e-02,-6.1959979e-02,1.1813063e-02,1.4006515e-02,5.0413870e-04,1.5111778e-01,9.3948735e-01,5.1361756e-01
3.0099075e+00,-2.5035181e-02,-3.4300916e-03,1.9053722e-03,-1.5166029e-02,1.3259023e-01,-1.7597024e-02,6.1755793e-03,1.1616775e-02,2.2367578e-03,-5.6374891e-01,-2.3897424e-01,1.7326208e-01
3.0199075e+00,-2.5886040e-02,-3.0225035e-03,1.6928519e-03,-8.4690726e-02,4.0905539e-02,-8.5409337e-02,6.0383843e-03,4.2936796e-03,1.7332548e-03,-1.3719507e-02,-7.3231022e-01,-5.0350352e-02
3.0299075e+00,-2.7311230e-02,-2.9708941e-03,1.4713559e-03,-1.4240269e-01,5.5888639e-03,-1.4261925e-01,6.2870343e-03,3.2816752e-03,5.6907801e-04,2.4865024e-02,-1.0120054e-01,-1.1641779e-01
3.0399075e+00,-2.8827991e-02,-3.1147567e-03,1.5681000e-03,-1.5176406e-01,-1.3617445e-02,-1.5165954e-01,7.1757292e-03,2.1092725e-03,7.6432093e-05,8.8869576e-02,-1.1724038e-01,-4.9264639e-02
3.0499074e+00,-3.0127058e-02,-3.4446778e-03,1.8165027e-03,-1.3008348e-01,-3.2392514e-02,-1.2988079e-01,7.9203408e-03,3.3117029e-03,6.1946339e-04,7.4461224e-02,1.2024316e-01,5.4303182e-02
3.0599074e+00,-3.1480672e-02,-3.4577910e-03,1.8018551e-03,-1.3525501e-01,-6.4900587e-04,-1.3547287e-01,8.1135785e-03,3.2181645e-03,8.3266527e-04,1.9323791e-02,-9.3538516e-03,2.1320208e-02
3.0699074e+00,-3.2741222e-02,-3.6076556e-03,1.6674363e-03,-1.2611452e-01,-1.4372227e-02,-1.2606729e-01,8.8733068e-03,4.0037614e-03,5.4439660e-04,7.5972902e-02,7.8559766e-02,-2.8826894e-02
3.0799074e+00,-3.3889567e-02,-3.8562309e-03,1.7196875e-03,-1.1493007e-01,-2.4320018e-02,-1.1485412e-01,9.3803499e-03,4.7056219e-03,1.1541240e-03,5.0704361e-02,7.0186114e-02,6.0972799e-02
3.0899074e+00,-3.5516030e-02,-3.7209401e-03,1.4985079e-03,-1.6249690e-01,1.4593950e-02,-1.6270379e-01,8.9923986e-03,2.4412893e-03,1.3084669e-04,-3.8795170e-02,-2.2643348e-01,-1.0232783e-01
3.0999076e+00,-3.7324237e-02,-4.0565908e-03,1.4791452e-03,-1.8117063e-01,-3.2424432e-02,-1.8067020e-01,9.9774301e-03,3.6842623e-03,-1.5560155e-04,9.8500901e-02,1.2429446e-01,-2.8644169e-02
3.1099076e+00,-3.9110544e-02,-3.9359792e-03,1.4870376e-03,-1.7855560e-01,1.3216854e-02,-1.7862435e-01,9.2306735e-03,2.7583803e-03,-2.4450569e-04,-7.4675732e-02,-9.2588292e-02,-8.8904223e-03
3.1199076e+00,-4.0849368e-02,-3.9533945e-03,1.5949398e-03,-1.7388823e-01,-3.6068593e-04,-1.7388527e-01,9.4570244e-03,1.5160222e-03,1.7458577e-05,2.2635107e-02,-1.2423593e-01,2.6196452e-02
3.1299076e+00,-4.2756071e-02,-4.1911647e-03,1.6805714e-03,-1.9088809e-01,-2.2044064e-02,-1.9066091e-01,1.0357293e-02,1.2748909e-03,9.6471573e-05,9.0026905e-02,-2.4113151e-02,7.9013071e-03
3.1399076e+00,-4.5690444e-02,-4.7617138e-03,7.2184285e-04,-2.9574073e-01,-5.3817354e-02,-2.9173206e-01,1.3077171e-02,2.0716796e-03,-5.4064757e-03,2.7198808e-01,7.9678942e-02,-5.5029525e-01
3.1499076e+00,-4.7574699e-02,-5.8882651e-03,2.0574487e-03,-1.9030289e-01,-1.1167511e-01,-1.8711797e-01,1.5252049e-02,1.0159493e-02,-9.6103802e-04,2.1748799e-01,8.0878216e-01,4.4454419e-01
3.1599076e+00,-4.9420661e-02,-6.1736063e-03,2.0071634e-03,-1.8522024e-01,-2.7380059e-02,-1.8414584e-01,1.6385292e-02,1.0170656e-02,-9.8129689e-04,1.1332444e-01,1.1162921e-03,-2.0258882e-03
3.1699076e+00,-5.1230948e-02,-5.2605868e-03,9.9905834e-04,-1.8034700e-01,9.3477501e-02,-1.8059856e-01,1.4550934e-02,2.4873082e-03,-3.6848246e-03,-1.8343602e-01,-7.6833555e-01,-2.7035303e-01
3.1799076e+00,-5.3043041e-02,-5.3381745e-03,1.2760667e-03,-1.8170694e-01,-5.5534078e-03,-1.8079182e-01,1.4366678e-02,2.2053473e-03,-2.2359471e-03,-1.8425574e-02,-2.8196120e-02,1.4488789e-01
