time, x, y, z, vx, vy, vz, yaw, pitch, roll, yaw_rate, pitch_rate, roll_rate
0.0000000e+00,0.0000000e+00,0.0000000e+00,0.0000000e+00,0.0000000e+00,0.0000000e+00,0.0000000e+00,0.0000000e+00,0.0000000e+00,0.0000000e+00,0.0000000e+00,0.0000000e+00,0.0000000e+00
9.9999905e-03,1.7242519e-05,-1.3044627e-04,-5.7673596e-05,1.7240001e-03,-1.3042228e-02,1.7426521e-03,9.8575757e-05,1.4896990e-03,-5.9896627e-04,9.8575851e-03,1.4897004e-01,-5.9896684e-02
1.9999981e-02,4.6888100e-04,6.4068103e-04,3.1711237e-04,4.4898570e-02,7.7015173e-02,4.5592984e-02,-1.9252753e-03,-4.0593022e-03,2.5822475e-03,-2.0238530e-01,-5.5490064e-01,3.1812168e-01
2.9999971e-02,1.5894245e-04,1.2421292e-04,7.8255810e-05,-3.0921652e-02,-5.1657857e-02,-3.1047662e-02,-9.4080528e-04,-5.8457156e-04,7.6210111e-04,9.8447099e-02,3.4747339e-01,-1.8201481e-01
3.9999962e-02,1.1987521e-04,1.6711143e-04,1.0948170e-04,-3.9046564e-03,4.2921107e-03,-3.9063209e-03,-8.1293680e-04,-1.3897592e-03,1.4215109e-03,1.2786860e-02,-8.0518842e-02,6.5941038e-02
4.9999952e-02,-8.7442566e-06,7.2179932e-05,5.4269510e-05,-1.2846999e-02,-9.4788431e-03,-1.2887443e-02,-3.2596109e-04,-1.4368422e-03,9.2203636e-04,4.8697617e-02,-4.7082989e-03,-4.9947497e-02
5.9999943e-02,8.2556123e-05,-2.5746070e-04,5.2995331e-04,9.0790840e-03,-3.2983029e-02,9.1124683e-03,4.9020598e-04,-1.5825923e-03,3.8046348e-03,8.1616785e-02,-1.4575032e-02,2.8826012e-01
6.9999933e-02,-2.5892356e-04,-7.0629989e-04,3.4207628e-04,-3.4180408e-02,-4.4901786e-02,-3.4092100e-02,1.9263596e-03,2.4508313e-03,1.5798728e-03,1.4361550e-01,4.0334275e-01,-2.2247641e-01
7.9999924e-02,-1.8922508e-04,-4.9899938e-04,5.0066130e-04,6.9844736e-03,2.0724169e-02,6.9727718e-03,1.6514517e-03,8.0736175e-04,2.8090099e-03,-2.7490814e-02,-1.6434712e-01,1.2291382e-01
8.9999914e-02,-1.4154676e-04,-4.6737566e-04,4.4558463e-04,4.7613700e-03,3.1609635e-03,4.7752282e-03,1.4999651e-03,1.2023045e-03,2.3471988e-03,-1.5148674e-02,3.9494316e-02,-4.6181155e-02
9.9999905e-02,-2.1271727e-04,-2.2723391e-04,-8.3230366e-05,-7.1189636e-03,2.3999176e-02,-7.1656572e-03,1.5174282e-04,2.2555951e-03,-7.8008925e-04,-1.3482236e-01,1.0532916e-01,-3.1272910e-01
1.0999990e-01,-2.2673172e-04,-2.5025010e-04,-1.0924035e-04,-1.4036865e-03,-2.3039700e-03,-1.3953308e-03,4.3050788e-04,2.1123422e-03,-8.9205488e-04,2.7876533e-02,-1.4325300e-02,-1.1196574e-02
1.1999989e-01,-1.0695370e-04,4.5126679e-05,8.1039018e-05,1.1976412e-02,2.9527383e-02,1.2004639e-02,2.2954706e-04,-6.3132702e-04,6.8287020e-04,-2.0096101e-02,-2.7436719e-01,1.5749266e-01
1.2999988e-01,4.3273324e-05,1.9104519e-04,1.9504785e-04,1.4993125e-02,1.4572411e-02,1.5071084e-02,-3.2656830e-04,-1.6175685e-03,1.6511424e-03,-5.5611589e-02,-9.8624238e-02,9.6827316e-02
1.3999987e-01,1.3881701e-04,1.4666918e-04,9.0321133e-05,9.5464921e-03,-4.4417785e-03,9.5603180e-03,-6.2909509e-04,-1.0650871e-03,1.1166614e-03,-3.0252708e-02,5.5248188e-02,-5.3448156e-02
1.4999986e-01,2.4228112e-05,-4.7672032e-05,-1.5478786e-05,-1.1453945e-02,-1.9433667e-02,-1.1464656e-02,-1.3708293e-04,-1.7829672e-04,1.9992151e-04,4.9201263e-02,8.8679123e-02,-9.1674076e-02
1.5999985e-01,6.4546557e-06,3.2519730e-05,2.3147869e-05,-1.7767080e-03,8.0206800e-03,-1.7712248e-03,-5.6607222e-05,-8.9968438e-04,6.1491670e-04,8.0475784e-03,-7.2138835e-02,4.1499558e-02
1.6999984e-01,-4.2598328e-05,-2.4010455e-05,3.1325101e-05,-4.9022703e-03,-5.6551957e-03,-4.9058316e-03,-1.7219782e-04,2.7048757e-04,4.1971723e-04,-1.1559071e-02,1.1701731e-01,-1.9519965e-02
1.7999983e-01,-4.1139389e-05,-9.5742795e-05,1.1771488e-06,1.4873646e-04,-7.1730168e-03,1.5382264e-04,-3.9232248e-04,1.1093333e-03,-1.9336886e-04,-2.2012486e-02,8.3884649e-02,-6.1308667e-02
1.8999982e-01,-1.5138543e-04,-1.9279548e-04,-8.2557510e-05,-1.1032486e-02,-9.7307871e-03,-1.0994214e-02,-1.7221794e-04,2.1455104e-03,-8.6591900e-04,2.2010474e-02,1.0361781e-01,-6.7255078e-02
1.9999981e-01,-2.5152849e-04,-7.5983218e-04,2.7970557e-04,-1.0112989e-02,-5.6722305e-02,-9.8078025e-03,1.8891549e-03,3.7921249e-03,8.4153637e-04,2.0613748e-01,1.6466160e-01,1.7074570e-01
2.0999980e-01,-2.1170806e-04,-6.7162507e-04,3.3180739e-04,3.9927310e-03,8.8223127e-03,3.9677953e-03,1.9241056e-03,2.3305318e-03,1.5760909e-03,3.4950717e-03,-1.4615945e-01,7.3455518e-02
2.2000003e-01,-1.3525851e-04,-6.2207991e-04,3.0300312e-04,7.6410322e-03,4.9580132e-03,7.6461864e-03,1.5604799e-03,2.0318311e-03,1.4992347e-03,-3.6361732e-02,-2.9869381e-02,-7.6854408e-03
2.3000002e-01,2.1272498e-05,1.7948268e-05,-1.2987351e-05,1.5633210e-02,6.3991494e-02,1.5719414e-02,-2.1835245e-04,-9.4339857e-04,3.7874567e-04,-1.7788341e-01,-2.9752325e-01,-1.1204901e-01
2.4000001e-01,-2.9150055e-05,3.9420296e-05,1.3211131e-05,-5.0390910e-03,2.1529832e-03,-5.0429640e-03,-1.1018223e-04,-1.2556581e-03,6.7517607e-04,1.0817032e-02,-3.1225982e-02,2.9643069e-02
2.5000000e-01,-8.3731492e-06,1.5238704e-04,1.2694359e-04,2.0729126e-03,1.1292399e-02,2.1055796e-03,-1.5966374e-04,-2.2061318e-03,1.4314627e-03,-4.9481554e-03,-9.5047460e-02,7.5628730e-02
2.5999999e-01,7.1830617e-05,2.0523927e-04,1.6408045e-04,8.0063770e-03,5.2719566e-03,8.0430823e-03,-3.8192996e-04,-2.0323202e-03,1.4935866e-03,-2.2226644e-02,1.7381176e-02,6.2123957e-03
2.6999998e-01,-3.4250211e-05,-1.1873906e-05,1.0161302e-04,-1.0599664e-02,-2.1717420e-02,-1.0604070e-02,-1.1670050e-04,4.5649344e-04,5.5554208e-04,2.6522972e-02,2.4888160e-01,-9.3804536e-02
2.7999997e-01,-1.6275086e-04,-9.5767723e-05,1.5717806e-05,-1.2849843e-02,-8.3977906e-03,-1.2844822e-02,1.1674553e-04,7.7063551e-04,9.4382398e-05,2.3344625e-02,3.1414237e-02,-4.6116013e-02
2.8999996e-01,-2.3401526e-04,-5.3556096e-04,3.1960316e-04,-7.2031404e-03,-4.3972747e-02,-7.0900882e-03,2.0150573e-03,1.1007885e-03,1.6702910e-03,1.8983136e-01,3.3015333e-02,1.5759101e-01
2.9999995e-01,-1.4487021e-04,-5.0398404e-04,3.5010469e-04,8.9035300e-03,3.1479420e-03,8.9289271e-03,1.8731701e-03,7.7840355e-04,1.8920165e-03,-1.4188736e-02,-3.2238529e-02,2.2172572e-02
3.0999994e-01,-1.2433652e-04,-9.3018436e-05,-4.3487851e-05,2.0583596e-03,4.1098317e-02,2.0136265e-03,1.0443769e-04,9.5011460e-04,-3.3905923e-04,-1.7687341e-01,1.7171122e-02,-2.2310778e-01
3.1999993e-01,-1.4609015e-04,-7.2900984e-04,2.3723193e-04,-2.2830848e-03,-6.3603044e-02,-1.9398701e-03,1.7144454e-03,3.7244717e-03,6.0386766e-04,1.6100093e-01,2.7743598e-01,9.4292779e-02
3.2999992e-01,-3.6299639e-05,1.3347969e-05,1.2569792e-05,1.0943812e-02,7.4233913e-02,1.1027256e-02,-4.0315656e-04,-5.7776722e-04,4.8443470e-04,-2.1176040e-01,-4.3022430e-01,-1.1943307e-02
3.3999991e-01,7.2320073e-06,7.8052158e-05,1.2309737e-04,4.3459844e-03,6.4707940e-03,4.3597938e-03,-4.6844871e-04,-3.8306338e-04,9.5353413e-04,-6.5292210e-03,1.9470402e-02,4.6909988e-02
3.4999990e-01,3.5600208e-05,-1.4738111e-04,-1.4978912e-05,2.8408579e-03,-2.2538734e-02,2.8692631e-03,-1.6212866e-04,1.4560708e-03,-1.3404446e-04,3.0632034e-02,1.8391359e-01,-1.0875796e-01
3.5999990e-01,2.9803504e-04,3.3788735e-04,1.9314732e-04,2.6123729e-02,4.8488638e-02,2.6433037e-02,-1.3278031e-03,-2.7709218e-03,2.1057964e-03,-1.1656755e-01,-4.2269966e-01,2.2398430e-01
3.6999989e-01,-1.0988611e-04,-2.2775640e-04,-2.8494278e-05,-4.0796958e-02,-5.6625807e-02,-4.0702094e-02,-5.2231693e-05,1.4541630e-03,-1.9022543e-04,1.2755726e-01,4.2250888e-01,-2.2960240e-01
3.7999988e-01,-4.3633438e-05,-4.1369554e-06,1.2323025e-04,6.6140919e-03,2.2360029e-02,6.6429603e-03,-2.2020750e-04,-5.1155755e-04,9.4405733e-04,-1.6797597e-02,-1.9657224e-01,1.1342838e-01
3.8999987e-01,8.4733839e-05,1.6872362e-04,1.5713871e-04,1.2814282e-02,1.7264255e-02,1.2888437e-02,-2.6649420e-04,-1.9609004e-03,1.3896081e-03,-4.6286746e-03,-1.4493442e-01,4.4555116e-02
3.9999986e-01,-3.4036717e-05,-5.3670311e-04,3.5736521e-04,-1.1974066e-02,-7.0535635e-02,-1.1821743e-02,1.6886931e-03,1.1004370e-03,1.8597044e-03,1.9551892e-01,3.0613403e-01,4.7009679e-02
4.0999985e-01,-2.7419446e-04,-6.4170607e-04,3.3430634e-04,-2.3997644e-02,-1.0515948e-02,-2.4027095e-02,1.7982209e-03,2.4478175e-03,1.5392787e-03,1.0952789e-02,1.3473818e-01,-3.2042603e-02
4.1999984e-01,-2.4651697e-04,-5.1793434e-04,4.0334839e-04,2.7830302e-03,1.2375056e-02,2.7619379e-03,1.7557868e-03,9.9380344e-04,2.3270717e-03,-4.2434115e-03,-1.4540154e-01,7.8779381e-02
4.2999983e-01,-1.5082731e-04,-4.4426401e-04,4.2131481e-04,9.5589819e-03,7.3565505e-03,9.5870168e-03,1.7213622e-03,6.2497093e-04,2.3653445e-03,-3.4424627e-03,-3.6883286e-02,3.8272815e-03
4.3999982e-01,-1.6491273e-04,-8.3969878e-05,2.3889613e-05,-1.3970394e-03,3.6028839e-02,-1.4353104e-03,3.1818257e-04,7.4181288e-04,2.8505166e-05,-1.4031810e-01,1.1684206e-02,-2.3368416e-01
4.4999981e-01,-1.9307350e-04,-1.9562136e-04,-8.2429861e-07,-2.8211198e-03,-1.1167942e-02,-2.7999515e-03,3.7413109e-04,1.3670139e-03,-3.0642601e-04,5.5948568e-03,6.2520163e-02,-3.3493150e-02
4.5999980e-01,-1.2252574e-04,-7.0800864e-05,7.3848722e-05,7.0512170e-03,1.2484961e-02,7.0532164e-03,8.9214550e-06,4.1984370e-04,5.2105495e-04,-3.6520998e-02,-9.4717111e-02,8.2748176e-02
4.7000003e-01,1.1450721e-04,2.1250625e-04,1.1232561e-04,2.3663072e-02,2.8283225e-02,2.3798144e-02,-3.7596118e-04,-2.3457586e-03,1.2239353e-03,-3.8487382e-02,-2.7655390e-01,7.0286425e-02
4.8000002e-01,1.8213532e-04,1.8276110e-04,9.3428669e-05,6.7583543e-03,-2.9838775e-03,6.7631574e-03,-3.6518481e-04,-1.7483801e-03,8.2026652e-04,1.0776376e-03,5.9737901e-02,-4.0366916e-02
4.9000001e-01,3.5329344e-04,5.4539656e-04,2.8560169e-04,1.7007737e-02,3.6222514e-02,1.7309444e-02,-1.7024222e-03,-4.0702230e-03,2.7032479e-03,-1.3372386e-01,-2.3218451e-01,1.8829832e-01
5.0000000e-01,-2.0362976e-05,-5.7717073e-04,3.1741187e-04,-3.7438327e-02,-1.1228438e-01,-3.7209877e-02,1.2004948e-03,1.9422074e-03,1.6602453e-03,2.9029197e-01,6.0124362e-01,-1.0430036e-01
5.0999999e-01,4.1702224e-05,-4.6501790e-04,3.7331303e-04,6.2041308e-03,1.1214959e-02,6.2095257e-03,1.0433170e-03,9.8892170e-04,2.2680832e-03,-1.5717797e-02,-9.5328665e-02,6.0783851e-02
5.1999998e-01,-4.1946135e-05,-5.9599331e-05,-1.0175028e-05,-8.3723142e-03,4.0536600e-02,-8.3830148e-03,-1.9177196e-04,4.4072197e-04,3.6392373e-05,-1.2350901e-01,-5.4820026e-02,-2.2316930e-01
5.2999997e-01,-2.0483482e-04,-2.0440705e-04,-1.1081762e-04,-1.6304084e-02,-1.4501565e-02,-1.6255155e-02,1.1906936e-04,1.3967952e-03,-8.2766704e-04,3.1084162e-02,9.5607417e-02,-8.6406023e-02
5.3999996e-01,-2.5771519e-04,-7.9932562e-04,1.9697849e-04,-5.4031809e-03,-5.9498689e-02,-5.0917840e-03,1.9850716e-03,3.3496362e-03,5.5715024e-04,1.8660040e-01,1.9528428e-01,1.3848186e-01
5.4999995e-01,-1.4227127e-04,3.1533956e-06,1.0168078e-04,1.1541296e-02,8.0241687e-02,1.1591141e-02,4.6904774e-05,-4.9681867e-04,5.9505625e-04,-1.9381687e-01,-3.8464585e-01,3.7906046e-03
5.5999994e-01,-7.3429123e-06,1.3118144e-04,1.9726456e-04,1.3473214e-02,1.2793334e-02,1.3521432e-02,-1.4184369e-04,-8.4317346e-04,1.3196801e-03,-1.8874864e-02,-3.4635512e-02,7.2462455e-02
5.6999993e-01,1.1007987e-04,2.0892519e-04,1.6801203e-04,1.1722343e-02,7.7564215e-03,1.1774053e-02,-4.2397521e-04,-1.9495050e-03,1.4168358e-03,-2.8213180e-02,-1.1063326e-01,9.7155822e-03
5.7999992e-01,-4.4474102e-05,6.1039682e-05,4.0253495e-05,-1.5438602e-02,-1.4773566e-02,-1.5486525e-02,-2.1627725e-04,-1.1849878e-03,8.8024703e-04,2.0769816e-02,7.6451794e-02,-5.3658931e-02
5.8999991e-01,-5.0930253e-05,-4.7100831e-04,3.2774319e-04,-7.3525475e-04,-5.3203669e-02,-6.4712108e-04,1.7121930e-03,2.8819027e-06,2.2537444e-03,1.9284721e-01,1.1878709e-01,1.3734987e-01
5.9999990e-01,-9.0436679e-05,1.4659828e-05,2.8352490e-05,-3.9447747e-03,4.8569482e-02,-3.9241972e-03,6.6789255e-05,-5.9860369e-04,6.6496071e-04,-1.6454053e-01,-6.0148617e-02,-1.5887852e-01
6.0999990e-01,2.6354999e-05,1.1366409e-04,4.7750338e-05,1.1665598e-02,9.8853804e-03,1.1705475e-02,-2.5814813e-04,-1.5446801e-03,9.4355227e-04,-3.2493770e-02,-9.4607732e-02,2.7859183e-02
6.1999989e-01,-1.2052862e-04,-6.6873035e-05,2.2052636e-05,-1.4683275e-02,-1.8065009e-02,-1.4679604e-02,-1.6802888e-04,6.0004745e-04,1.4069258e-04,9.0119342e-03,2.1447296e-01,-8.0286045e-02
6.2999988e-01,-1.5012864e-04,-2.8972784e-05,6.7042415e-05,-2.9593783e-03,3.7899184e-03,-2.9607731e-03,-4.1658289e-05,-4.4011587e-06,2.6509057e-04,1.2637071e-02,-6.0444918e-02,1.2439810e-02
6.3999987e-01,-1.3326503e-04,-5.6478460e-06,5.7496584e-05,1.6859701e-03,2.3318932e-03,1.6875878e-03,7.8742083e-05,-2.7862474e-04,3.4142323e-04,1.2040049e-02,-2.7422384e-02,7.6332732e-03
6.4999986e-01,-1.0512648e-04,-7.2605252e-05,4.8350789e-05,2.8131155e-03,-6.6953589e-03,2.8155233e-03,7.0719221e-05,2.0857135e-04,9.5565673e-05,-8.0228697e-04,4.8719656e-02,-2.4585779e-02
6.5999985e-01,-1.5179415e-04,-2.3583093e-04,-6.9564030e-05,-4.6700843e-03,-1.6330773e-02,-4.6346950e-03,7.3430299e-05,1.8350983e-03,-4.5314623e-04,2.7110810e-04,1.6265285e-01,-5.4871243e-02
6.6999984e-01,-1.4565277e-04,-2.0804918e-04,-2.8957804e-05,6.1407731e-04,2.7791839e-03,6.0963096e-04,-6.2596063e-05,1.5821211e-03,-1.8241016e-04,-1.3602649e-02,-2.5297743e-02,2.7073633e-02
6.7999983e-01,-7.9333783e-05,-1.9361552e-04,-3.3526316e-05,6.6313965e-03,1.4567699e-03,6.6294820e-03,-1.0597444e-04,1.9151486e-03,5.3554474e-05,-4.3378422e-03,3.3302779e-02,2.3596486e-02
6.8999982e-01,-1.4880856e-05,-9.9226393e-05,-3.3560183e-06,6.4417569e-03,9.4478129e-03,6.4358054e-03,-2.6548137e-04,1.1148457e-03,1.6071409e-04,-1.5950708e-02,-8.0030367e-02,1.0715972e-02
6.9999981e-01,1.0018110e-04,1.1611541e-04,-1.2067557e-05,1.1489868e-02,2.1528212e-02,1.1533709e-02,-5.3749310e-04,-1.0562818e-03,4.1386226e-04,-2.7201198e-02,-2.1711296e-01,2.5314841e-02
7.0999980e-01,-4.5956427e-05,7.5757616e-07,2.2448507e-05,-1.4606375e-02,-1.1539224e-02,-1.4618449e-02,-3.2420970e-04,-8.9449447e-05,2.4982869e-04,2.1328361e-02,9.6683327e-02,-1.6403373e-02
7.2000003e-01,7.1197312e-05,1.8258784e-04,1.1078304e-04,1.1694899e-02,1.8160565e-02,1.1769365e-02,-3.4588448e-04,-2.2211779e-03,1.1872096e-03,-2.1674286e-03,-2.1316797e-01,9.3735943e-02
7.3000002e-01,8.4645448e-05,2.4535393e-04,1.6517899e-04,1.3407589e-03,6.2735725e-03,1.3629390e-03,-3.0877006e-04,-2.5516878e-03,1.5736256e-03,3.7114457e-03,-3.3051022e-02,3.8641642e-02
7.4000001e-01,-9.9915618e-05,-9.0561426e-06,7.8661240e-05,-1.8443056e-02,-2.5434846e-02,-1.8477701e-02,1.8278889e-05,-3.1659822e-04,7.3297343e-04,3.2704926e-02,2.2350917e-01,-8.4065300e-02
7.5000000e-01,-2.5469827e-04,-1.7044008e-04,-1.2637564e-07,-1.5480701e-02,-1.6147022e-02,-1.5466873e-02,2.6272158e-04,8.1941140e-04,1.1749387e-04,2.4444293e-02,1.1360107e-01,-6.1548014e-02
7.5999999e-01,-3.1780852e-04,-6.6394824e-04,3.6235604e-04,-6.3999149e-03,-4.9351097e-02,-6.2190215e-03,2.0214109e-03,2.0878380e-03,1.7195127e-03,1.7586910e-01,1.2684278e-01,1.6020203e-01
7.6999998e-01,-2.9283087e-04,-6.1036660e-04,3.7165841e-04,2.5033918e-03,5.3581418e-03,2.4921885e-03,1.9447586e-03,1.9382630e-03,1.9163345e-03,-7.6652376e-03,-1.4957513e-02,1.9682204e-02
7.7999997e-01,-1.8180996e-04,2.8185790e-05,1.0068026e-04,1.1093775e-02,6.3850939e-02,1.1135459e-02,-4.4566960e-06,-3.9655787e-04,7.2410703e-04,-1.9492172e-01,-2.3348231e-01,-1.1922286e-01
7.8999996e-01,-1.0941347e-04,-8.6173666e-05,3.1241333e-05,7.2386811e-03,-1.1430804e-02,7.2487609e-03,-5.0751239e-05,6.6040919e-04,2.1475081e-04,-4.6294587e-03,1.0569681e-01,-5.0935670e-02
7.9999995e-01,-6.9651573e-05,-6.2087193e-05,-4.2287838e-06,3.9765848e-03,2.4111822e-03,3.9742671e-03,-1.2629340e-04,5.1081999e-04,-1.7489982e-04,-7.5542235e-03,-1.4958934e-02,-3.8965101e-02
8.0999994e-01,1.0705594e-04,7.2107646e-05,-1.7112811e-06,1.7657900e-02,1.3404360e-02,1.7695103e-02,-3.5702057e-04,-1.2124800e-03,4.5691098e-04,-2.3072739e-02,-1.7233017e-01,6.3181140e-02
8.1999993e-01,2.0645084e-04,2.0366427e-04,7.4660555e-05,9.9227756e-03,1.3142499e-02,9.9735816e-03,-5.7326076e-04,-1.8944783e-03,9.2326652e-04,-2.1624039e-02,-6.8199894e-02,4.6635599e-02
8.2999992e-01,1.8860866e-04,6.2789073e-05,5.8901569e-06,-1.7756068e-03,-1.4087862e-02,-1.7902010e-03,-5.3829874e-04,-3.5178278e-04,5.7700221e-04,3.4962056e-03,1.5426970e-01,-3.4626464e-02
8.3999991e-01,9.0856276e-05,-8.8327942e-05,-1.6410048e-05,-9.7663754e-03,-1.5123205e-02,-9.7663434e-03,-4.5532909e-04,7.2040878e-04,2.0357442e-04,8.2969731e-03,1.0721926e-01,-3.7342815e-02
8.4999990e-01,3.5331791e-06,-6.2066492e-05,-3.8233426e-05,-8.7302997e-03,2.6213433e-03,-8.7357789e-03,-2.7610513e-04,2.7394825e-04,3.1408222e-04,1.7922413e-02,-4.4646096e-02,1.1050791e-02
8.5999990e-01,-8.2689897e-05,-1.4600729e-05,7.5512343e-05,-8.6180286e-03,4.7458157e-03,-8.6270220e-03,-9.9978558e-05,-1.1235376e-05,5.5211476e-04,1.7612674e-02,-2.8518389e-02,2.3803277e-02
8.6999989e-01,-1.1112282e-04,3.6366364e-05,9.2336616e-05,-2.8424431e-03,5.0980097e-03,-2.8418230e-03,-1.3597104e-04,-5.9163508e-04,5.4306001e-04,-3.5992512e-03,-5.8040025e-02,-9.0547592e-04
8.7999988e-01,-2.0275755e-04,-6.5673937e-04,3.1678369e-04,-9.2789513e-03,-6.9316043e-02,-9.0050422e-03,1.8319590e-03,2.4540007e-03,1.2530663e-03,1.9679320e-01,3.0456387e-01,7.1000695e-02
8.8999987e-01,-2.5670977e-04,-6.8196108e-04,3.1812048e-04,-5.3925855e-03,-2.5249701e-03,-5.3965600e-03,1.9584096e-03,2.4755163e-03,1.4022401e-03,1.2645065e-02,2.1515600e-03,1.4917393e-02
8.9999986e-01,-2.1117670e-04,-5.9505575e-04,4.0475380e-04,4.5606401e-03,8.6878715e-03,4.5510716e-03,1.9570026e-03,1.3732156e-03,2.1215546e-03,-1.4069708e-04,-1.1023017e-01,7.1931525e-02
9.0999985e-01,-1.9461859e-04,-5.8473848e-04,3.4134840e-04,1.6543840e-03,1.0310856e-03,1.6576400e-03,1.9011908e-03,1.5117307e-03,2.0435006e-03,-5.5811839e-03,1.3851516e-02,-7.8054088e-03
9.1999984e-01,-8.2555294e-05,4.6812575e-05,4.6678131e-05,1.1184073e-02,6.3144340e-02,1.1289285e-02,-2.0019211e-04,-1.1613457e-03,8.5840717e-04,-2.1013849e-01,-2.6730789e-01,-1.1850946e-01
9.2999983e-01,-1.4652935e-04,-4.8642473e-05,4.1634188e-05,-6.3943546e-03,-9.5453130e-03,-6.4007678e-03,2.7510220e-05,-3.8910561e-06,5.1884213e-04,2.2770254e-02,1.1574557e-01,-3.3956536e-02
9.3999982e-01,-8.3653803e-05,1.2940389e-05,1.0587218e-04,6.2814141e-03,6.1568193e-03,6.2951428e-03,-1.4143517e-04,-3.7526895e-04,8.3875442e-04,-1.6894555e-02,-3.7137824e-02,3.1991259e-02
9.4999981e-01,-9.5902548e-06,1.1402694e-05,8.0806102e-05,7.4025997e-03,-1.5367988e-04,7.4101241e-03,-1.0845353e-04,-9.6286464e-05,5.1008344e-04,3.2981677e-03,2.7898275e-02,-3.2867129e-02
9.5999980e-01,1.0425206e-05,-1.3175388e-04,-6.0811378e-06,2.0020344e-03,-1.4313189e-02,2.0187369e-03,4.5700474e-06,1.2393724e-03,-2.7573097e-04,1.1302368e-02,1.3356601e-01,-7.8581516e-02
9.7000003e-01,-1.6195567e-05,-1.5945928e-04,-4.9584340e-05,-2.6633926e-03,-2.7741783e-03,-2.6567798e-03,3.5930671e-05,1.4281210e-03,-4.7972677e-04,3.1359906e-03,1.8874434e-02,-2.0399113e-02
9.8000002e-01,-5.6147384e-05,-1.4312153e-04,-4.4827649e-05,-3.9959120e-03,1.6274897e-03,-3.9970248e-03,-1.1747895e-04,1.4560420e-03,-1.3380925e-04,-1.5340977e-02,2.7920979e-03,3.4591785e-02
9.9000001e-01,-2.7940328e-05,-1.0807241e-04,-3.3138556e-06,2.8192725e-03,3.5096705e-03,2.8162268e-03,-3.1663356e-04,1.3704578e-03,1.1553126e-04,-1.9915480e-02,-8.5584287e-03,2.4934075e-02
1.0000000e+00,-4.8036681e-05,-1.7638378e-04,-6.2904571e-05,-2.0081779e-03,-6.8355060e-03,-1.9962164e-03,-3.0485933e-04,1.8727928e-03,-3.1019433e-04,1.1774242e-03,5.0233548e-02,-4.2572600e-02
1.0100000e+00,-7.6545122e-05,-9.8669555e-05,1.7539971e-07,-2.8524651e-03,7.7678468e-03,-2.8589816e-03,-1.6573250e-04,1.0895513e-03,-1.1585447e-04,1.3912696e-02,-7.8324221e-02,1.9434004e-02
1.0200000e+00,-1.3776306e-04,-6.7877213e-05,2.9073796e-05,-6.1207427e-03,3.0782834e-03,-6.1233358e-03,-5.8199035e-05,9.7565880e-05,2.0188997e-04,1.0753357e-02,-9.9198637e-02,3.1774475e-02
1.0300000e+00,-1.4121019e-04,-5.9895743e-04,3.6194773e-04,-4.3780569e-04,-5.3107837e-02,-2.6643808e-04,1.7653207e-03,1.4896805e-03,1.9124572e-03,1.8235214e-01,1.3921159e-01,1.7105688e-01
1.0400000e+00,-1.5138205e-05,1.4181343e-04,1.1756139e-04,1.2576266e-02,7.4051047e-02,1.2790174e-02,-1.9777810e-04,-2.2508496e-03,1.2915616e-03,-1.9631006e-01,-3.7405337e-01,-6.2089613e-02
1.0500000e+00,-1.5299220e-04,-6.3961803e-04,3.5791894e-04,-1.3895311e-02,-7.8149843e-02,-1.3636727e-02,1.7250974e-03,2.2239581e-03,1.8035101e-03,1.9228774e-01,4.4748120e-01,5.1194894e-02
1.0599999e+00,-1.1441240e-04,-4.9693207e-04,3.9419385e-04,3.8705760e-03,1.4265293e-02,3.8576330e-03,1.5316081e-03,6.7559142e-04,2.3964116e-03,-1.9348952e-02,-1.5483682e-01,5.9290211e-02
1.0699999e+00,-1.8476328e-04,-5.5062320e-04,4.1179357e-04,-7.0279326e-03,-5.3667402e-03,-7.0440616e-03,1.7686539e-03,1.4293479e-03,2.3635376e-03,2.3704603e-02,7.5375717e-02,-3.2874073e-03
1.0799999e+00,-1.2291962e-04,5.8145891e-05,9.7857570e-05,6.1716206e-03,6.0873195e-02,6.2340336e-03,-9.9317625e-05,-7.0586575e-04,1.0836652e-03,-1.8679733e-01,-2.1352157e-01,-1.2798736e-01
1.0899999e+00,-1.2127393e-04,6.4839436e-06,7.4148919e-05,1.6450777e-04,-5.1662262e-03,1.6379740e-04,-1.8457589e-06,-1.6316655e-04,4.3177709e-04,9.7471959e-03,5.4269971e-02,-6.5188875e-02
1.0999999e+00,-1.3169837e-04,-3.4631296e-05,4.4696177e-05,-1.0426263e-03,-4.1118226e-03,-1.0410999e-03,8.6931278e-05,3.6989216e-04,1.6870664e-04,8.8777122e-03,5.3305922e-02,-2.6307070e-02
1.1099999e+00,-9.8804564e-05,2.7463368e-06,8.9743816e-05,3.2877389e-03,3.7362643e-03,3.2927329e-03,-6.9344037e-06,-4.6338424e-04,4.9194076e-04,-9.3865772e-03,-8.3327719e-02,3.2323443e-02
1.1199999e+00,-1.5484932e-05,3.1729239e-05,8.2778425e-05,8.3263260e-03,2.8905468e-03,8.3403011e-03,3.7618141e-06,-9.2515396e-04,6.7860452e-04,1.0696228e-03,-4.6177015e-02,1.8666394e-02
1.1299999e+00,-8.1780734e-06,-1.0391271e-04,-6.5377354e-06,7.3358678e-04,-1.3563402e-02,7.4263416e-04,-2.0715476e-04,8.8754233e-04,-1.2370938e-04,-2.1091678e-02,1.8126980e-01,-8.0231467e-02
1.1399999e+00,-3.8870062e-05,-3.0629793e-04,-1.2372691e-04,-3.0697825e-03,-2.0247340e-02,-3.0100154e-03,-1.0908493e-04,2.7860032e-03,-9.0894548e-04,9.8069924e-03,1.8984627e-01,-7.8523684e-02
1.1499999e+00,-7.5048120e-05,-2.3484997e-04,-8.2171448e-05,-3.6197514e-03,7.1358810e-03,-3.6334402e-03,-5.7944343e-05,2.4032765e-03,-4.2248589e-04,5.1140636e-03,-3.8272710e-02,4.8646005e-02
1.1599998e+00,7.5454506e-05,1.3249382e-05,6.5251917e-05,1.5026340e-02,2.4811809e-02,1.5071131e-02,-3.9274988e-04,-2.6938331e-04,9.4252460e-04,-3.3480586e-02,-2.6726623e-01,1.3650118e-01
1.1699998e+00,1.1559190e-04,1.4715998e-04,9.8118476e-05,4.0004998e-03,1.3386977e-02,4.0405356e-03,-6.2834800e-04,-1.6414947e-03,1.2022195e-03,-2.3559834e-02,-1.3721127e-01,2.5969516e-02
1.1799998e+00,-1.5530224e-05,-5.6565428e-04,2.6651506e-04,-1.3176933e-02,-7.1280440e-02,-1.3052956e-02,1.1926104e-03,1.1177157e-03,1.5465112e-03,1.8209601e-01,2.7592130e-01,3.4429205e-02
1.1899998e+00,-9.4031379e-05,-5.3991356e-04,2.7436365e-04,-7.8339293e-03,2.5828441e-03,-7.8634085e-03,1.6361684e-03,5.1784963e-04,1.5238570e-03,4.4355841e-02,-5.9986663e-02,-2.2654212e-03
1.1999998e+00,-1.5837871e-04,-4.6894586e-04,4.2717573e-04,-6.4072032e-03,7.1044538e-03,-6.4537159e-03,1.8634799e-03,6.6674145e-04,2.2198282e-03,2.2731174e-02,1.4889196e-02,6.9597180e-02
1.2099998e+00,-9.4007187e-05,1.3284232e-04,1.7712571e-04,6.4197021e-03,6.0170898e-02,6.5285103e-03,-1.5201755e-04,-1.3804163e-03,1.2897434e-03,-2.0154994e-01,-2.0471597e-01,-9.3008572e-02
1.2200000e+00,-1.3654449e-04,-8.2845016e-05,7.3102297e-05,-4.2458238e-03,-2.1572049e-02,-4.2421012e-03,-2.4260044e-04,6.5386408e-04,6.0564087e-04,-9.0580817e-03,2.0342338e-01,-6.8408682e-02
1.2300000e+00,-2.3034313e-04,-1.6422032e-04,-2.2858019e-05,-9.3797647e-03,-8.1463333e-03,-9.3723429e-03,8.6178523e-05,1.0242110e-03,8.6248118e-05,3.2877928e-02,3.7034729e-02,-5.1939325e-02
1.2400000e+00,-1.9940265e-04,-2.8720764e-06,7.8331818e-05,3.0955455e-03,1.6131805e-02,3.1083482e-03,2.4758237e-04,-7.3114360e-04,8.0776538e-04,1.6140400e-02,-1.7553563e-01,7.2151795e-02
1.2500000e+00,-1.3370685e-04,-1.5258731e-06,6.0139840e-05,6.5637983e-03,1.2876486e-04,6.5754862e-03,2.3250784e-04,-6.5822434e-04,8.8535843e-04,-1.5074550e-03,7.2919325e-03,7.7593123e-03
1.2600000e+00,-3.6778800e-05,-4.9686252e-05,4.9953332e-05,9.6895664e-03,-4.8123705e-03,9.6978836e-03,-5.4988419e-05,3.2369538e-04,3.6231422e-04,-2.8749653e-02,9.8192065e-02,-5.2304471e-02
1.2699451e+00,5.5121680e-05,4.3639601e-05,4.2996467e-05,9.2342869e-03,9.3826955e-03,9.2485447e-03,-3.3341242e-04,-4.7995397e-04,3.5848601e-04,-2.7995946e-02,-8.0808134e-02,-3.8493284e-04
1.2799451e+00,-5.5757777e-05,-4.8980510e-05,7.0862934e-05,-1.1085001e-02,-9.2694582e-03,-1.1084694e-02,-1.3758879e-04,5.3329434e-04,1.5153701e-04,1.9582382e-02,1.0132493e-01,-2.0694919e-02
1.2899451e+00,-2.8053243e-05,5.5951345e-05,9.0815603e-05,2.7661306e-03,1.0492951e-02,2.7757006e-03,-2.8541041e-04,-3.7321032e-04,4.8009992e-04,-1.4782176e-02,-9.0650553e-02,3.2856322e-02
1.2999451e+00,-6.4219656e-06,-1.1011864e-04,-2.4153463e-05,2.1669479e-03,-1.6604214e-02,2.1807350e-03,-2.1393724e-04,1.0762154e-03,-1.2264618e-04,7.1473239e-03,1.4494271e-01,-6.0274667e-02
1.3099451e+00,8.7313094e-05,-9.2205665e-05,-8.8513288e-05,9.3739247e-03,1.8042928e-03,9.3706126e-03,-4.5980391e-04,9.2658349e-04,-1.3170275e-04,-2.4586691e-02,-1.4963209e-02,-9.0565824e-04
1.3199451e+00,-7.8733109e-05,-2.0341059e-04,-6.2263469e-05,-1.6605929e-02,-1.1158508e-02,-1.6577825e-02,-2.7568752e-04,2.0150721e-03,-2.6256402e-04,1.8411656e-02,1.0884896e-01,-1.3086140e-02
1.3299451e+00,-1.1230658e-04,-1.6411291e-04,-1.5465212e-05,-3.3565732e-03,3.9256729e-03,-3.3629165e-03,-9.9754109e-05,1.1198829e-03,3.4800546e-04,1.7593358e-02,-8.9519005e-02,6.1057006e-02
1.3399451e+00,-1.3037794e-04,-6.9354289e-04,3.2680736e-04,-1.8954924e-03,-5.2944703e-02,-1.6623432e-03,1.7208231e-03,2.7894108e-03,1.5198070e-03,1.8205790e-01,1.6695295e-01,1.1718027e-01
1.3499451e+00,-1.4170253e-04,-8.5535530e-05,-1.1134186e-05,-1.1206607e-03,6.0800639e-02,-1.1523446e-03,1.9594613e-04,3.2890859e-04,-1.0108036e-04,-1.5248784e-01,-2.4605045e-01,-1.6208889e-01
1.3599451e+00,-2.0233992e-04,-5.6190236e-04,3.4383033e-04,-6.1353325e-03,-4.7635362e-02,-6.0021540e-03,1.6838799e-03,1.4761426e-03,1.4201965e-03,1.4879351e-01,1.1472351e-01,1.5212784e-01
1.3699450e+00,-2.3304484e-04,-4.9993693e-04,4.3627293e-04,-3.0541791e-03,6.1969611e-03,-3.0858983e-03,1.4979713e-03,1.3565355e-03,2.2871862e-03,-1.8590873e-02,-1.1960721e-02,8.6699052e-02
1.3799450e+00,-1.8273661e-04,-5.1650202e-04,4.7459584e-04,5.0156109e-03,-1.6581907e-03,5.0454469e-03,1.5477528e-03,1.2100240e-03,2.5107677e-03,4.9781564e-03,-1.4651164e-02,2.2358171e-02
1.3899450e+00,-2.1242458e-04,-6.1477689e-04,3.2896712e-04,-2.9839854e-03,-9.8273481e-03,-2.9540301e-03,2.0467688e-03,2.0069436e-03,1.6566735e-03,4.9901646e-02,7.9692042e-02,-8.5409508e-02
1.3999450e+00,-2.2790985e-04,-1.9462658e-04,-2.5977707e-05,-1.5327240e-03,4.2013749e-02,-1.5993098e-03,3.7119848e-04,1.2037266e-03,1.3486496e-04,-1.6755719e-01,-8.0321775e-02,-1.5218100e-01
1.4099450e+00,-1.3343122e-04,-9.9651163e-05,3.7877255e-05,9.4420103e-03,9.4988775e-03,9.4523977e-03,9.6647019e-05,2.3697078e-04,7.1737477e-04,-2.7455172e-02,-9.6675678e-02,5.8251037e-02
1.4199450e+00,-3.6766514e-05,-1.0135956e-05,6.2318749e-05,9.6590036e-03,8.9513350e-03,9.6741294e-03,-2.4686292e-05,-4.4744448e-05,7.5024774e-04,-1.2133343e-02,-2.8171550e-02,3.2872997e-03
1.4299450e+00,6.0914701e-05,3.3790849e-05,6.7257220e-05,9.7645214e-03,4.3917912e-03,9.7721405e-03,-1.2006336e-04,-2.1145342e-04,3.1545891e-04,-9.5377155e-03,-1.6670913e-02,-4.3478924e-02
1.4399450e+00,-4.9233050e-06,-7.5818274e-05,1.2801629e-05,-6.5859587e-03,-1.0966908e-02,-6.5716756e-03,-2.8479868e-05,8.8166586e-04,-3.7431150e-04,9.1583576e-03,1.0931203e-01,-6.8977107e-02
1.4499450e+00,-7.7664791e-05,-6.0572177e-05,2.0744937e-05,-7.2755451e-03,1.5180530e-03,-7.2741374e-03,-1.4960813e-04,7.5201279e-04,-1.5969712e-04,-1.2112838e-02,-1.2965320e-02,2.1461459e-02
1.4599450e+00,-4.9678603e-05,-8.9535916e-05,4.6564644e-06,2.7991510e-03,-2.8932427e-03,2.8013322e-03,-2.7001867e-04,8.4930491e-04,9.0203894e-05,-1.2041065e-02,9.7292213e-03,2.4990125e-02
1.4699452e+00,1.0776015e-04,3.5463594e-05,1.0372132e-05,1.5727894e-02,1.2499271e-02,1.5759434e-02,-4.2241898e-04,-4.4700541e-04,6.5655609e-04,-1.5239682e-02,-1.2962807e-01,5.6633923e-02
1.4799452e+00,-1.0370678e-05,-7.3597767e-05,-5.6559937e-05,-1.1806857e-02,-1.0906174e-02,-1.1819303e-02,-2.2256948e-04,-2.2015510e-04,3.2244632e-04,1.9984969e-02,2.2685053e-02,-3.3411009e-02
1.4899452e+00,-1.4327201e-04,-7.2858572e-04,2.1896927e-04,-1.3378083e-02,-6.5500176e-02,-1.3195081e-02,1.6560586e-03,1.7669392e-03,1.5423655e-03,1.8786298e-01,1.9870962e-01,1.2199203e-01
1.4999452e+00,-1.3649763e-04,-6.3930225e-04,2.7524924e-04,6.9197764e-04,8.9275956e-03,6.7275014e-04,1.7678080e-03,6.6743706e-04,1.8337742e-03,1.1174950e-02,-1.0995032e-01,2.9140901e-02
1.5099452e+00,2.1725570e-05,7.5415246e-05,1.0922504e-04,1.5796865e-02,7.1438382e-02,1.5997810e-02,-7.4572938e-05,-2.1743208e-03,1.2720668e-03,-1.8423827e-01,-2.8417606e-01,-5.6170792e-02
1.5199451e+00,3.3475686e-06,1.1593278e-04,1.1343570e-04,-1.8360223e-03,4.0552918e-03,-1.8317740e-03,-5.7620568e-05,-1.9832575e-03,1.0947727e-03,1.6952385e-03,1.9106351e-02,-1.7729430e-02
1.5299451e+00,-1.8995902e-04,-5.1786611e-04,4.4177841e-04,-1.9399622e-02,-6.3370228e-02,-1.9293444e-02,1.6829952e-03,1.1847495e-03,1.9481632e-03,1.7406174e-01,3.1680101e-01,8.5339133e-02
1.5399451e+00,-2.7400800e-04,-6.3779378e-04,3.4869058e-04,-8.4146390e-03,-1.1993153e-02,-8.3946266e-03,1.9288120e-03,1.9757104e-03,1.5910678e-03,2.4581707e-02,7.9096161e-02,-3.5709579e-02
1.5499451e+00,-1.8061300e-04,-5.8003308e-05,2.3062036e-05,9.3518713e-03,5.7978769e-02,9.3292035e-03,2.6437465e-04,2.2899077e-04,3.1755481e-04,-1.6644390e-01,-1.7467213e-01,-1.2735142e-01
1.5599451e+00,-1.3013063e-04,-1.3277177e-04,-4.4987087e-05,5.0460377e-03,-7.4728812e-03,5.0563210e-03,2.9572271e-04,1.0816860e-03,-1.4106347e-06,3.1348088e-03,8.5269601e-02,-3.1896574e-02
1.5699451e+00,-1.5609011e-04,-1.5605661e-04,-4.4190703e-05,-2.5961188e-03,-2.3314926e-03,-2.5930835e-03,1.1299730e-04,1.2717963e-03,3.6776634e-05,-1.8272559e-02,1.9011056e-02,3.8187305e-03
1.5799451e+00,-9.6210298e-05,-9.8120481e-05,3.8906571e-05,5.9854524e-03,5.7959537e-03,5.9882619e-03,8.7862771e-05,4.7768019e-04,5.0819352e-04,-2.5134555e-03,-7.9411691e-02,4.7141734e-02
1.5899451e+00,7.2031132e-05,9.5212371e-05,7.9604091e-05,1.6808784e-02,1.9304740e-02,1.6872257e-02,5.1085582e-06,-1.6894748e-03,9.1928740e-04,-8.2754292e-03,-2.1671571e-01,4.1109427e-02
1.5999451e+00,8.9009445e-05,8.2823544e-05,5.1922128e-05,1.6970410e-03,-1.2409603e-03,1.6971081e-03,-1.0569803e-04,-1.3285750e-03,5.4339278e-04,-1.1080670e-02,3.6090014e-02,-3.7589498e-02
1.6099451e+00,4.8669681e-05,7.0281180e-05,7.1203346e-05,-4.0311830e-03,-1.2501004e-03,-4.0380587e-03,-3.2629403e-04,-1.3507878e-03,5.9174833e-04,-2.2059621e-02,-2.2212758e-03,4.8355599e-03
1.6199450e+00,-3.9237639e-05,1.0147277e-04,8.0065337e-05,-8.7834670e-03,3.1316339e-03,-8.7935762e-03,-2.9011237e-04,-1.7077965e-03,9.2985991e-04,3.6181692e-03,-3.5700905e-02,3.3811190e-02
1.6299450e+00,-1.5590880e-04,-6.8632146e-04,3.0250859e-04,-1.1778474e-02,-7.8789661e-02,-1.1485203e-02,1.6303892e-03,2.5282751e-03,1.4627174e-03,1.9205034e-01,4.2360756e-01,5.3285802e-02
1.6399450e+00,-1.3147604e-04,-7.6892678e-04,2.3535335e-04,2.4282291e-03,-8.2553268e-03,2.4756839e-03,1.5455484e-03,3.6491202e-03,9.3228269e-04,-8.4840912e-03,1.1208462e-01,-5.3043524e-02
1.6499450e+00,-1.4190663e-04,-3.0000601e-04,-1.3579078e-04,-1.0417586e-03,4.6889592e-02,-1.1523577e-03,4.4031589e-05,2.3471487e-03,-7.3200079e-04,-1.5015182e-01,-1.3019728e-01,-1.6642851e-01
1.6599450e+00,-1.1409922e-04,-1.7630223e-04,-7.1431476e-05,2.7837885e-03,1.2372878e-02,2.7665920e-03,1.6721057e-04,1.0649593e-03,-3.5103715e-04,1.2317909e-02,-1.2821907e-01,3.8096400e-02
1.6699450e+00,3.0164253e-05,3.6832020e-05,3.9306581e-05,1.4413233e-02,2.1298573e-02,1.4461406e-02,-1.5882119e-04,-1.1879084e-03,6.7513655e-04,-3.2603207e-02,-2.2528698e-01,1.0261747e-01
1.6799450e+00,-3.7067098e-05,-1.3429774e-05,8.4032438e-05,-6.7196685e-03,-5.0253272e-03,-6.7272530e-03,-1.1376716e-05,-1.3876517e-04,5.0794712e-04,1.4744462e-02,1.0491442e-01,-1.6718959e-02
1.6899450e+00,3.6764463e-05,1.7521601e-04,1.4924083e-04,7.3680954e-03,1.8850248e-02,7.4346820e-03,-3.1369862e-04,-2.2476677e-03,1.2384880e-03,-3.0232219e-02,-2.1089045e-01,7.3054155e-02
1.6999450e+00,-4.7937469e-05,8.2009279e-05,1.0781933e-04,-8.4601170e-03,-9.3055051e-03,-8.4969242e-03,2.2876954e-05,-1.7650102e-03,1.2150031e-03,3.3657589e-02,4.8265799e-02,-2.3484904e-03
1.7099450e+00,-1.5319686e-04,-4.7767226e-04,3.7862946e-04,-1.0611415e-02,-5.5946597e-02,-1.0554981e-02,1.9491419e-03,-9.3585393e-05,2.2399818e-03,1.9262667e-01,1.6714264e-01,1.0249797e-01
1.7199452e+00,-2.6208010e-04,-1.3449224e-04,-1.9948464e-05,-1.0875820e-02,3.4316713e-02,-1.0901898e-02,3.1731242e-04,3.6310316e-04,1.2529158e-04,-1.6317921e-01,4.5667810e-02,-2.1146418e-01
1.7299452e+00,-1.8689922e-04,-1.1804799e-04,1.9787923e-05,7.5160303e-03,1.6457036e-03,7.5198800e-03,2.4004203e-04,4.0974310e-04,3.2706164e-04,-7.7270457e-03,4.6639990e-03,2.0177025e-02
1.7399452e+00,-1.5385233e-04,-1.0221294e-04,1.4205147e-05,3.3036929e-03,1.5855305e-03,3.3047202e-03,8.6365393e-05,6.9878123e-04,3.4361785e-04,-1.5367679e-02,2.8903840e-02,1.6556226e-03
1.7499452e+00,-1.1351582e-04,-1.1515376e-04,-8.3932169e-06,4.0332455e-03,-1.2918482e-03,4.0347816e-03,7.6767480e-05,6.3076680e-04,7.6992706e-05,-9.5979229e-04,-6.8014500e-03,-2.6662540e-02
1.7599452e+00,4.9530901e-05,8.0490703e-05,1.6163374e-05,1.6292069e-02,1.9550562e-02,1.6333951e-02,-2.9871472e-04,-1.1501194e-03,4.1532112e-04,-3.7548256e-02,-1.7808879e-01,3.3832874e-02
1.7699451e+00,-5.9709389e-06,-1.1062517e-04,-4.7349667e-05,-5.5521523e-03,-1.9117189e-02,-5.5289589e-03,-1.3528669e-05,9.9442984e-04,-4.0035711e-04,2.8518632e-02,2.1445513e-01,-8.1567901e-02
1.7799451e+00,1.3754556e-04,7.9349138e-05,4.5145390e-05,1.4342327e-02,1.8988431e-02,1.4372916e-02,-2.3892050e-04,-8.6648348e-04,3.3418534e-04,-2.2539205e-02,-1.8609151e-01,7.3454315e-02
1.7899451e+00,-6.8715376e-05,-2.5644586e-04,-7.9616676e-05,-2.0642066e-02,-3.3615652e-02,-2.0551182e-02,1.8567205e-04,1.9408674e-03,-4.7129773e-04,4.2459296e-02,2.8073535e-01,-8.0548384e-02
1.7999451e+00,-1.0317515e-04,-2.7497568e-04,-5.1745422e-05,-3.4474129e-03,-1.8612150e-03,-3.4401086e-03,-7.5166852e-05,2.3158344e-03,-4.5599072e-04,-2.6083915e-02,3.7496744e-02,1.5307026e-03
1.8099451e+00,-1.3939509e-04,-2.7386210e-04,-7.2697149e-05,-3.6238829e-03,1.0376949e-04,-3.6203363e-03,8.2463298e-05,2.1788277e-03,-5.2325077e-04,1.5763030e-02,-1.3700684e-02,-6.7260109e-03
1.8199451e+00,-1.5441092e-04,-1.9098573e-04,-2.6210157e-05,-1.5000513e-03,8.2858625e-03,-1.5129077e-03,2.1198947e-04,1.3934108e-03,-1.4913401e-04,1.2952629e-02,-7.8541772e-02,3.7411711e-02
1.8299451e+00,-1.7774877e-04,-1.2666956e-04,-3.3951783e-07,-2.3319816e-03,6.4310240e-03,-2.3372396e-03,2.4149848e-04,4.9770396e-04,1.0794865e-04,2.9509042e-03,-8.9570765e-02,2.5708290e-02
1.8399451e+00,-9.4245052e-05,-4.6950612e-04,3.8932768e-04,8.2743489e-03,-3.4297023e-02,8.3712803e-03,1.6393394e-03,3.6848676e-05,2.3703848e-03,1.3978422e-01,-4.6085573e-02,2.2624383e-01
1.8499451e+00,-5.2605221e-05,-3.7321219e-04,4.8891630e-04,4.1653861e-03,9.6202224e-03,4.1837586e-03,1.4002897e-03,-7.9886564e-04,2.8970680e-03,-2.3904994e-02,-8.3571511e-02,5.2668375e-02
1.8599451e+00,-1.7998628e-04,-6.0336017e-04,3.5923949e-04,-1.2759247e-02,-2.3010058e-02,-1.2725570e-02,1.9541852e-03,1.5830504e-03,1.8684094e-03,5.5389610e-02,2.3819183e-01,-1.0286596e-01
1.8699450e+00,-1.9882516e-04,-6.3661599e-04,3.1720605e-04,-1.8878895e-03,-3.3257205e-03,-1.8796398e-03,2.0607743e-03,2.1375121e-03,1.5111490e-03,1.0658920e-02,5.5446228e-02,-3.5726074e-02
1.8799450e+00,-1.6080298e-04,-1.0481729e-04,2.3759132e-05,3.8142045e-03,5.3181123e-02,3.7732938e-03,2.4963502e-04,5.6833983e-04,3.3988552e-04,-1.8111411e-01,-1.5691738e-01,-1.1712646e-01
1.8899450e+00,-1.3980876e-04,-1.1516310e-04,3.4254115e-05,2.0984449e-03,-1.0335447e-03,2.1009128e-03,1.6164388e-04,6.5572057e-04,3.8644142e-04,-8.7991218e-03,8.7380830e-03,4.6555951e-03
1.8999450e+00,-5.5129812e-05,-4.6032276e-05,9.2539316e-05,8.4635083e-03,6.9129941e-03,8.4723730e-03,1.3909534e-04,1.2779181e-04,6.3232633e-04,-2.2548565e-03,-5.2792926e-02,2.4588514e-02
1.9099450e+00,-6.9790915e-05,-1.0162839e-04,6.5949850e-05,-1.4662190e-03,-5.5604357e-03,-1.4628941e-03,9.1638299e-05,6.5102692e-04,2.7421433e-04,-4.7457084e-03,5.2323560e-02,-3.5811234e-02
1.9199450e+00,-6.6740106e-05,-9.6266899e-05,1.1707100e-05,3.0513506e-04,5.3635603e-04,3.0466380e-04,1.0764440e-04,7.8546324e-04,1.2529019e-05,1.6006119e-03,1.3443645e-02,-2.6168556e-02
1.9299450e+00,-3.2751855e-05,-1.6128508e-04,-8.2631261e-06,3.3991425e-03,-6.4983553e-03,3.4051417e-03,8.9380118e-05,1.1090144e-03,-2.6347155e-04,-1.8264303e-03,3.2355149e-02,-2.7600083e-02
1.9399450e+00,8.3292268e-05,-5.6508655e-05,-2.6247837e-05,1.1602025e-02,1.0477407e-02,1.1607042e-02,-6.8161274e-05,-8.9239073e-05,1.4508799e-04,-1.5754154e-02,-1.1982546e-01,4.0855993e-02
1.9499450e+00,-5.2277058e-05,-1.9590483e-04,-6.0324467e-05,-1.3560527e-02,-1.3961769e-02,-1.3530557e-02,-2.1822830e-05,1.6129292e-03,-2.8667768e-04,4.6338488e-03,1.7021699e-01,-4.3176608e-02
1.9599450e+00,-1.1485534e-04,-7.2876487e-04,2.0642876e-04,-6.3343739e-03,-5.3298017e-02,-6.0763249e-03,1.5553153e-03,3.5264810e-03,1.0109331e-03,1.5771397e-01,1.9135537e-01,1.2976120e-01
1.9699452e+00,-1.7648608e-04,-7.6408654e-04,2.4839858e-04,-6.1607850e-03,-3.5454874e-03,-6.1573817e-03,1.4632768e-03,3.6377933e-03,1.1852578e-03,-9.2036399e-03,1.1130970e-02,1.7432071e-02
1.9799452e+00,-1.6809876e-04,-1.9745238e-04,-9.7397853e-05,8.4442606e-04,5.6664517e-02,7.5841096e-04,9.5274050e-05,1.4122671e-03,-3.5172501e-04,-1.3680041e-01,-2.2255284e-01,-1.5369843e-01
1.9899452e+00,-1.3784344e-04,-1.8861219e-04,-1.8909916e-05,3.0264749e-03,8.8564430e-04,3.0241198e-03,3.3419536e-04,8.7121779e-04,-2.1308458e-04,2.3892154e-02,-5.4104979e-02,1.3864057e-02
1.9999452e+00,3.0840170e-05,7.7127772e-05,1.2511401e-04,1.6848295e-02,2.6548648e-02,1.6928293e-02,-1.0195943e-04,-1.6024622e-03,1.0293285e-03,-4.3615521e-02,-2.4736823e-01,1.2424143e-01
2.0099452e+00,-1.0092361e-05,7.8897508e-05,1.6033844e-04,-4.0878084e-03,1.8459555e-04,-4.0983623e-03,-1.3066023e-04,-1.9901183e-03,1.3358752e-03,-2.8700822e-03,-3.8765651e-02,3.0654695e-02
2.0199451e+00,-1.7518375e-04,-1.1752388e-04,4.7937844e-05,-1.6508314e-02,-1.9640772e-02,-1.6511642e-02,4.0441693e-04,3.2048982e-04,5.3182284e-04,5.3507767e-02,2.3106104e-01,-8.0405312e-02
2.0299451e+00,-2.3711267e-04,-1.8779887e-04,-1.4538590e-05,-6.1957520e-03,-7.0290245e-03,-6.1883185e-03,5.0589278e-04,7.5143512e-04,1.1308369e-04,1.0147595e-02,4.3094570e-02,-4.1873956e-02
2.0399451e+00,-2.1583534e-04,-1.3888399e-04,-5.4950097e-05,2.1289206e-03,4.8930259e-03,2.1230176e-03,2.6186274e-04,9.8364552e-04,4.4573351e-05,-2.4403027e-02,2.3221063e-02,-6.8510401e-03
2.0499451e+00,-1.6779501e-04,-7.0253094e-04,3.0644886e-04,4.6902959e-03,-5.6359643e-02,4.9733497e-03,1.8922819e-03,2.8812170e-03,1.4716307e-03,1.6304208e-01,1.8975733e-01,1.4270587e-01
2.0599451e+00,-9.9539254e-05,-1.0857185e-04,-4.2500373e-06,6.8281782e-03,5.9399887e-02,6.7887633e-03,8.2328327e-05,6.5851721e-04,3.3607007e-04,-1.8099553e-01,-2.2227019e-01,-1.1355617e-01
2.0699451e+00,-8.0705856e-05,-3.4512302e-05,3.4281450e-05,1.8826568e-03,7.4060789e-03,1.8835666e-03,-1.7149487e-05,4.4910695e-05,2.9614248e-04,-9.9477908e-03,-6.1360710e-02,-3.9927624e-03
2.0799451e+00,-5.3592334e-05,-7.8221261e-05,-1.2256245e-06,2.7113271e-03,-4.3703278e-03,2.7123049e-03,6.6265386e-05,2.7728867e-04,-9.6601320e-05,8.3414952e-03,2.3237820e-02,-3.9274418e-02
2.0899451e+00,-4.1754651e-05,-1.5346811e-04,-3.3354280e-05,1.1835846e-03,-7.5238174e-03,1.1894977e-03,9.0694870e-05,8.2742182e-04,-4.2046152e-04,2.4429507e-03,5.5013368e-02,-3.2386050e-02
2.0999451e+00,2.4959370e-05,-1.6530744e-04,-2.5273900e-05,6.6723130e-03,-1.1771509e-03,6.6717042e-03,1.5685811e-04,1.1737362e-03,-1.6345066e-04,6.6163308e-03,3.4631470e-02,2.5701110e-02
2.1099451e+00,2.0239817e-05,-1.6879226e-04,3.8288757e-05,-4.7180283e-04,-3.4925069e-04,-4.7154093e-04,-1.8201977e-04,1.4456459e-03,1.8971665e-04,-3.3887821e-02,2.7191001e-02,3.5316765e-02
2.1199450e+00,-8.7933016e-05,-2.8203160e-04,-3.3877398e-05,-1.0814251e-02,-1.1355080e-02,-1.0787657e-02,-3.0699281e-04,2.5749589e-03,-4.0121818e-05,-1.2497315e-02,1.1293141e-01,-2.2983869e-02
2.1299450e+00,-2.0134151e-04,-2.4620932e-04,-2.7208902e-05,-1.1342780e-02,3.5620781e-03,-1.1345287e-02,-2.6594029e-06,1.7742031e-03,-1.6848010e-04,3.0433370e-02,-8.0075666e-02,-1.2835841e-02
2.1399450e+00,-2.0021882e-04,-7.5940680e-04,2.3969444e-04,9.8782366e-06,-5.1319316e-02,2.7309730e-04,1.9926164e-03,3.1336217e-03,1.1604807e-03,1.9952777e-01,1.3594200e-01,1.3289621e-01
2.1499450e+00,-1.9540799e-04,-6.7011339e-04,2.7869142e-04,4.9824423e-04,8.9293545e-03,4.6320390e-04,1.9994596e-03,2.0825742e-03,1.4362824e-03,6.8432114e-04,-1.0510485e-01,2.7580193e-02
2.1599450e+00,-1.7751379e-04,-6.4642247e-04,3.4360361e-04,1.7907323e-03,2.3696206e-03,1.7874129e-03,1.7129074e-03,2.0089890e-03,1.5330976e-03,-2.8655251e-02,-7.3585265e-03,9.6815345e-03
2.1699450e+00,-5.3364629e-05,-4.6005563e-04,4.1460837e-04,1.2414140e-02,1.8616791e-02,1.2445551e-02,1.5269770e-03,-7.4901514e-05,2.3517278e-03,-1.8593060e-02,-2.0838925e-01,8.1863096e-02
2.1799450e+00,5.6322884e-06,-3.6133196e-04,4.9777175e-04,5.8983951e-03,9.8607314e-03,5.9204382e-03,1.5944557e-03,-3.7607835e-04,2.8834132e-03,6.7478738e-03,-3.0117712e-02,5.3168588e-02
2.1899450e+00,-9.2636998e-05,4.5526843e-06,1.1511740e-04,-9.8162192e-03,3.6592370e-02,-9.8232368e-03,3.5321094e-05,-3.5849459e-04,9.5879385e-04,-1.5591360e-01,1.7583777e-03,-1.9246212e-01
2.1999450e+00,-1.4856936e-04,-6.9766216e-05,4.7399905e-05,-5.5887353e-03,-7.4331741e-03,-5.5960474e-03,-3.9985227e-05,1.8820158e-04,7.5215279e-04,-7.5306393e-03,5.4669669e-02,-2.0664126e-02
2.2099450e+00,-1.6969105e-04,-1.4037395e-04,1.8577314e-05,-2.1124092e-03,-7.0609149e-03,-2.1114819e-03,2.0429716e-04,2.6819419e-04,5.7001271e-04,2.4428262e-02,7.9992682e-03,-1.8214025e-02
2.2199452e+00,-1.0278498e-04,-8.1774393e-05,6.9298773e-05,6.6868949e-03,5.8604710e-03,6.6934411e-03,1.9985480e-04,2.9678655e-04,7.0662775e-04,-4.4422610e-04,2.8591713e-03,1.3661192e-02
2.2299452e+00,-3.9398158e-05,-1.3644651e-04,9.3114429e-05,6.3341094e-03,-5.4634233e-03,6.3465322e-03,2.5341202e-04,8.5116190e-04,5.0367145e-04,5.3557271e-03,5.5437587e-02,-2.0295649e-02
2.2399452e+00,-9.7543051e-05,-1.9572086e-04,4.2488995e-05,-5.8156853e-03,-5.9344644e-03,-5.8061333e-03,1.2352227e-04,1.3326223e-03,-7.8816743e-05,-1.2988988e-02,4.8146087e-02,-5.8248875e-02
2.2499452e+00,-1.4129736e-04,-1.1960080e-04,7.3558187e-05,-4.3745610e-03,7.6091017e-03,-4.3813683e-03,2.4466809e-05,6.8919015e-04,1.5724453e-04,-9.9055554e-03,-6.4343276e-02,2.3606150e-02
2.2599452e+00,-2.3877703e-04,-1.1225689e-04,2.3921585e-05,-9.7478276e-03,7.2799433e-04,-9.7486043e-03,3.8249381e-06,6.6012887e-04,1.4933484e-05,-2.0641890e-03,-2.9061315e-03,-1.4231118e-02
2.2699451e+00,-3.2758272e-04,-1.7417131e-04,-7.4573941e-05,-8.8830806e-03,-6.2027146e-03,-8.8702070e-03,-1.1421457e-04,1.1553321e-03,-3.6150980e-04,-1.1803963e-02,4.9520374e-02,-3.7644364e-02
2.2799451e+00,-4.3739387e-04,-2.8090690e-04,-1.0498072e-04,-1.0985460e-02,-1.0697137e-02,-1.0953822e-02,-9.8636521e-05,2.0506172e-03,-4.9082744e-04,1.5578068e-03,8.9528589e-02,-1.2931776e-02
2.2899451e+00,-5.6443427e-04,-8.8853591e-04,2.2286560e-04,-1.2810262e-02,-6.0785850e-02,-1.2486019e-02,1.9554028e-03,3.7971049e-03,9.8987265e-04,2.0540413e-01,1.7464894e-01,1.4807015e-01
2.2999451e+00,-6.8726083e-04,-8.8770431e-04,2.8005232e-04,-1.2264647e-02,5.8515063e-05,-1.2300804e-02,1.8739098e-03,3.8746920e-03,1.4516604e-03,-8.1493079e-03,7.7587096e-03,4.6178815e-02
2.3099451e+00,-8.7038023e-04,-9.1833067e-04,2.5132838e-04,-1.8289959e-02,-3.1100593e-03,-1.8325947e-02,1.6396774e-03,4.2247458e-03,1.4731700e-03,-2.3423267e-02,3.5005418e-02,2.1509661e-03
2.3199451e+00,-1.0523957e-03,-3.0677570e-04,-1.4115605e-05,-1.8198026e-02,6.1117197e-02,-1.8333456e-02,-5.1113192e-05,2.0485136e-03,3.6580682e-04,-1.6907922e-01,-2.1762343e-01,-1.1073642e-01
2.3299451e+00,-1.2170424e-03,-1.9274901e-04,4.6183548e-05,-1.6450582e-02,1.1386547e-02,-1.6489930e-02,1.6220242e-04,1.1407625e-03,7.4400230e-04,2.1331581e-02,-9.0775198e-02,3.7819584e-02
2.3399451e+00,-1.4713980e-03,-6.4922279e-04,3.6480823e-04,-2.5464892e-02,-4.5648058e-02,-2.5405101e-02,1.7894523e-03,1.8165586e-03,2.0554683e-03,1.6272514e-01,6.7579674e-02,1.3114672e-01
2.3499451e+00,-1.6538058e-03,-5.4960962e-04,4.8870764e-04,-1.8181897e-02,9.9664169e-03,-1.8296750e-02,1.3157708e-03,1.0333787e-03,2.5068664e-03,-4.7368195e-02,-7.8318056e-02,4.5139855e-02
2.3599451e+00,-1.8327587e-03,-6.2385723e-04,4.9081516e-04,-1.7862809e-02,-7.4269723e-03,-1.7926824e-02,1.4204945e-03,1.5408704e-03,2.4012001e-03,1.0472382e-02,5.0749212e-02,-1.0566645e-02
2.3699450e+00,-1.9814319e-03,-1.0283042e-04,2.3126236e-04,-1.4840252e-02,5.2106188e-02,-1.4882278e-02,1.7622806e-04,-5.6291180e-05,1.2035763e-03,-1.2442676e-01,-1.5971631e-01,-1.1976249e-01
2.3799450e+00,-2.1516112e-03,-8.0047381e-04,3.9121705e-04,-1.7129368e-02,-6.9772874e-02,-1.6870793e-02,2.1078184e-03,2.6231389e-03,2.0888511e-03,1.9315922e-01,2.6794326e-01,8.8527567e-02
2.3899450e+00,-2.3836483e-03,-8.5605511e-04,3.3574235e-04,-2.3165203e-02,-5.5883040e-03,-2.3234966e-02,1.7377691e-03,3.0331074e-03,2.0731652e-03,-3.7004961e-02,4.0996893e-02,-1.5685953e-03
2.3999450e+00,-2.6990398e-03,-2.3195662e-04,5.5238157e-05,-3.1536361e-02,6.2388068e-02,-3.1585183e-02,-2.9497080e-04,3.9697907e-04,6.7294438e-04,-2.0327419e-01,-2.6361309e-01,-1.4002221e-01
2.4099450e+00,-2.9502809e-03,-1.9118083e-04,1.6245901e-04,-2.5106397e-02,4.0585080e-03,-2.5144928e-02,-3.0602765e-04,4.5285502e-04,7.5496912e-04,-1.1056855e-03,5.5876001e-03,8.2024819e-03
2.4199450e+00,-2.9501863e-03,1.1141398e-04,4.2000444e-04,-2.9815472e-05,3.0259390e-02,8.0935284e-05,-1.2969536e-03,-2.3651054e-03,3.0030807e-03,-9.9092695e-02,-2.8179631e-01,2.2481137e-01
2.4299450e+00,-3.4096439e-03,-2.2611712e-04,4.3476986e-04,-4.5774204e-02,-3.3750007e-02,-4.6119061e-02,-8.0047242e-04,-8.6548501e-04,3.1415577e-03,4.9648170e-02,1.4996218e-01,1.3847712e-02
2.4399450e+00,-4.2890710e-03,-1.6611964e-03,-1.0555017e-03,-8.9095486e-02,-1.4288233e-01,-8.7801293e-02,5.4422349e-03,-1.6537276e-03,-4.2504787e-03,6.2427133e-01,-7.8824336e-02,-7.3920434e-01
2.4499450e+00,-4.5988231e-03,-1.6310658e-03,-1.0170118e-03,-3.1087192e-02,3.2119931e-03,-3.0842826e-02,5.2254219e-03,-1.2030653e-03,-4.1445858e-03,-2.1681317e-02,4.5066273e-02,1.0589303e-02
2.4599450e+00,-4.7819851e-03,-8.4435550e-04,-3.3718204e-04,-1.8043045e-02,7.8856685e-02,-1.7781488e-02,3.5272295e-03,-6.7307754e-03,-2.4210577e-04,-1.6981941e-01,-5.5277153e-01,3.9024837e-01
2.4699452e+00,-5.3992675e-03,-9.3675359e-04,-3.4647973e-04,-6.1823961e-02,-8.6458030e-03,-6.1715636e-02,3.7833697e-03,-5.8387643e-03,-1.0150177e-03,2.5613440e-02,8.9199067e-02,-7.7289424e-02
2.4799452e+00,-5.9625599e-03,-1.1602269e-03,-4.3919182e-04,-5.6565868e-02,-2.1731445e-02,-5.6333203e-02,5.1305993e-03,-5.8043056e-03,-2.1799250e-03,1.3472309e-01,3.4458704e-03,-1.1649084e-01
2.4899452e+00,-6.2683684e-03,-1.1198740e-03,-3.6384459e-04,-3.0600004e-02,4.4221172e-03,-3.0508165e-02,5.6093092e-03,-7.0552325e-03,-1.3823553e-03,4.7871035e-02,-1.2509281e-01,7.9757042e-02
2.4999452e+00,-6.6463700e-03,-1.5520107e-03,-4.3101985e-04,-3.8133804e-02,-4.2877320e-02,-3.7848165e-02,5.8443569e-03,-3.0367290e-03,-2.1635597e-03,2.3504794e-02,4.0185073e-01,-7.8120515e-02
2.5099452e+00,-6.9593780e-03,-1.6339312e-03,-4.3432432e-04,-3.1398397e-02,-7.9113367e-03,-3.1275302e-02,6.3554897e-03,-2.6110063e-03,-1.4752180e-03,5.1113326e-02,4.2572312e-02,6.8834241e-02
2.5199451e+00,-7.4936239e-03,-1.5702266e-03,-4.7326011e-04,-5.3456434e-02,6.8692763e-03,-5.3330952e-02,6.4787662e-03,-2.8649175e-03,-1.3895606e-03,1.2327659e-02,-2.5391143e-02,8.5657484e-03
2.5299451e+00,-8.0164711e-03,-1.1888772e-03,-2.5446188e-04,-5.2110344e-02,3.8734309e-02,-5.2017663e-02,5.7793350e-03,-5.7128379e-03,-8.9617869e-04,-6.9943186e-02,-2.8479232e-01,4.9338234e-02
2.5399451e+00,-8.6103688e-03,-1.0829058e-03,-1.3577828e-04,-5.9399292e-02,1.1315903e-02,-5.9247588e-02,5.3114490e-03,-6.8053292e-03,-1.1218712e-03,-4.6788644e-02,-1.0924923e-01,-2.2569270e-02
2.5499451e+00,-9.2308761e-03,-1.1029416e-03,-1.1114912e-04,-6.2154601e-02,-1.2101646e-03,-6.1967379e-02,5.2645473e-03,-7.5324195e-03,-1.5180453e-03,-4.6901717e-03,-7.2709100e-02,-3.9617452e-02
2.5599451e+00,-9.7650001e-03,-1.3370669e-03,-2.1514161e-06,-5.3581143e-02,-2.2823901e-02,-5.3498201e-02,5.3987831e-03,-5.6134877e-03,-8.0677846e-04,1.3423594e-02,1.9189336e-01,7.1126754e-02
2.5699451e+00,-1.0173660e-02,-1.5347882e-03,-9.9832927e-05,-4.1022940e-02,-1.9373219e-02,-4.0899849e-02,5.8865972e-03,-3.8672289e-03,-1.0096328e-03,4.8781455e-02,1.7462604e-01,-2.0285450e-02
2.5799451e+00,-1.0678004e-02,-1.6146041e-03,-2.6999451e-04,-5.0558317e-02,-7.5913608e-03,-5.0370732e-02,5.4595763e-03,-2.2787926e-03,-1.6072580e-03,-4.2702132e-02,1.5884378e-01,-5.9762582e-02
2.5899451e+00,-1.1671588e-02,-1.8745883e-03,-6.4837927e-04,-9.9981354e-02,-2.5365806e-02,-9.8895984e-02,6.4270664e-03,6.5450418e-05,-4.6191925e-03,9.6749105e-02,2.3442453e-01,-3.0119373e-01
2.5999451e+00,-1.2490618e-02,-1.6427308e-03,-7.9588072e-04,-8.2178958e-02,2.4060687e-02,-8.1372663e-02,6.6640526e-03,-4.0483637e-03,-5.2910898e-03,2.3698636e-02,-4.1138181e-01,-6.7189791e-02
2.6099451e+00,-1.3388227e-02,-1.9325863e-03,-8.1640379e-04,-9.0537803e-02,-2.8115807e-02,-8.9256079e-02,7.4465267e-03,-2.2478693e-03,-6.2970982e-03,7.8247487e-02,1.8004962e-01,-1.0060094e-01
2.6199450e+00,-1.4074160e-02,-2.3177218e-03,-8.6934449e-04,-6.9398319e-02,-3.7915271e-02,-6.8115323e-02,8.3027388e-03,-4.0361722e-04,-7.1337534e-03,8.5621297e-02,1.8442538e-01,-8.3665603e-02
2.6299450e+00,-1.4258386e-02,-2.1176054e-03,-4.2677250e-04,-1.8302611e-02,2.0296411e-02,-1.8229775e-02,1.0667367e-02,-4.8891477e-03,-5.1414808e-03,2.3646300e-01,-4.4855348e-01,1.9922745e-01
2.6399450e+00,-1.4653799e-02,-2.2100374e-03,-4.4822480e-04,-3.9815446e-02,-8.5653303e-03,-3.9418777e-02,1.1411223e-02,-5.7387212e-03,-4.3388580e-03,7.4385699e-02,-8.4957430e-02,8.0262350e-02
2.6499450e+00,-1.4400690e-02,1.6529193e-04,1.0778771e-03,2.6135828e-02,2.3712152e-01,2.8170793e-02,4.0610394e-03,-1.1445497e-02,5.4978180e-03,-7.3501905e-01,-5.7067808e-01,9.8366854e-01
2.6599450e+00,-1.5842531e-02,-1.8105415e-03,-3.8571612e-04,-1.4697242e-01,-1.9461550e-01,-1.4540069e-01,1.1567779e-02,-8.9043263e-03,-3.5593231e-03,7.5067471e-01,2.5411727e-01,-9.0571497e-01
2.6699450e+00,-1.6932703e-02,-1.3638092e-03,4.5874099e-05,-1.0883733e-01,4.7031973e-02,-1.0820203e-01,1.0789632e-02,-1.0926581e-02,-2.8325597e-03,-7.7814783e-02,-2.0222568e-01,7.2676406e-02
2.6799450e+00,-1.8149679e-02,-1.7717601e-03,-8.1549640e-05,-1.2264204e-01,-3.8597075e-02,-1.2146659e-01,1.0318657e-02,-7.7495806e-03,-4.3630001e-03,-4.7097544e-02,3.1770036e-01,-1.5304419e-01
2.6899450e+00,-1.9469031e-02,-2.6709480e-03,-4.3488040e-04,-1.3401063e-01,-8.8412367e-02,-1.3085734e-01,1.1521115e-02,1.4871082e-04,-7.9767348e-03,1.2024588e-01,7.8982989e-01,-3.6137381e-01
2.6999450e+00,-2.0038610e-02,-2.7959478e-03,-4.7172084e-04,-5.7537134e-02,-1.1855127e-02,-5.6511972e-02,1.1825823e-02,5.2318928e-04,-7.6726727e-03,3.0470833e-02,3.7447881e-02,3.0406244e-02
2.7099450e+00,-2.0285179e-02,-2.6359090e-03,-3.2316702e-04,-2.4608721e-02,1.6334367e-02,-2.4487813e-02,1.1559215e-02,-1.8988412e-03,-5.6296629e-03,-2.6660812e-02,-2.4220328e-01,2.0430117e-01
2.7199452e+00,-2.0470642e-02,-2.4827488e-03,-2.0915577e-04,-1.8439572e-02,1.5590642e-02,-1.8422313e-02,1.1739003e-02,-3.1616805e-03,-4.0400653e-03,1.7978363e-02,-1.2628105e-01,1.5895612e-01
2.7299452e+00,-2.0956529e-02,-2.1255937e-03,-1.2553051e-05,-4.8284198e-02,3.6589460e-02,-4.8240865e-02,1.1722523e-02,-6.3444249e-03,-2.4202298e-03,-1.6479684e-03,-3.1827474e-01,1.6198371e-01
2.7399452e+00,-2.1844704e-02,-1.5906226e-03,2.3242539e-04,-8.8336276e-02,5.5404923e-02,-8.8125263e-02,1.1229901e-02,-1.0335375e-02,-1.4091208e-03,-4.9262255e-02,-3.9909536e-01,1.0111099e-01
2.7499452e+00,-2.3020377e-02,-1.5041608e-03,4.3899556e-04,-1.1769185e-01,1.1490490e-02,-1.1719869e-01,1.1830472e-02,-1.2399604e-02,-2.0007110e-03,6.0057126e-02,-2.0642315e-01,-5.9159081e-02
2.7599452e+00,-2.4090915e-02,-1.7287175e-03,4.4190083e-04,-1.0757703e-01,-1.9869203e-02,-1.0704080e-01,1.2669466e-02,-1.1488580e-02,-2.3120046e-03,8.3899541e-02,9.1102519e-02,-3.1129388e-02
2.7699451e+00,-2.5010503e-02,-2.2768452e-03,3.8117060e-04,-9.2865513e-02,-5.2925862e-02,-9.2152993e-02,1.2242579e-02,-8.2348877e-03,-2.6402276e-03,-4.2688759e-02,3.2536953e-01,-3.2822327e-02
2.7799451e+00,-2.5755456e-02,-2.9679529e-03,1.9801384e-04,-7.5732576e-02,-6.7964524e-02,-7.4302398e-02,1.3261184e-02,-2.0524849e-03,-4.4024261e-03,1.0186062e-01,6.1824086e-01,-1.7622002e-01
2.7899451e+00,-2.6350163e-02,-2.5974342e-03,3.0850678e-04,-5.9151529e-02,3.8040465e-02,-5.9164185e-02,1.2860720e-02,-3.8288248e-03,-2.7312631e-03,-4.0046435e-02,-1.7763415e-01,1.6711646e-01
2.7999451e+00,-2.7208342e-02,-2.1604469e-03,5.7634679e-04,-8.5297689e-02,4.5530233e-02,-8.5383341e-02,1.2572629e-02,-8.8333678e-03,-4.1896074e-04,-2.8809125e-02,-5.0045478e-01,2.3123046e-01
2.8099451e+00,-2.8022538e-02,-2.7077833e-04,1.4464778e-03,-7.9786152e-02,1.9055460e-01,-7.9309569e-02,6.3767350e-03,-1.3307059e-02,5.2305116e-03,-6.1959003e-01,-4.4736953e-01,5.6494777e-01
2.8199451e+00,-2.9803956e-02,-7.9294926e-04,1.3487905e-03,-1.7794037e-01,-4.8694240e-02,-1.7933726e-01,7.6584324e-03,-1.2048161e-02,3.3416042e-03,1.2816986e-01,1.2588993e-01,-1.8889092e-01
2.8299451e+00,-3.1240683e-02,-1.1104215e-03,1.2480342e-03,-1.4358533e-01,-2.9062588e-02,-1.4432683e-01,8.3857580e-03,-1.0256699e-02,2.4234639e-03,7.2732629e-02,1.7914637e-01,-9.1814125e-02
2.8399451e+00,-3.2970872e-02,-1.9194597e-03,1.0292146e-03,-1.7373178e-01,-7.8762880e-02,-1.7329272e-01,8.7036350e-03,-3.6504728e-03,-8.6909501e-05,3.1787725e-02,6.6062322e-01,-2.5103758e-01
2.8499451e+00,-3.4267448e-02,-1.7172583e-03,1.1557694e-03,-1.2939753e-01,2.2091473e-02,-1.2961228e-01,8.2095888e-03,-6.2273801e-03,6.9242816e-04,-4.9404663e-02,-2.5769097e-01,7.7933840e-02
2.8599451e+00,-3.5072441e-02,-9.5840970e-04,1.5542745e-03,-7.9596830e-02,7.7485673e-02,-7.9869460e-02,7.2403282e-03,-1.2691732e-02,4.3507682e-03,-9.6926158e-02,-6.4643577e-01,3.6583435e-01
2.8699450e+00,-3.6433563e-02,-7.3143016e-04,1.6789177e-03,-1.3524000e-01,2.5641898e-02,-1.3645868e-01,7.1054211e-03,-1.4471427e-02,5.1854123e-03,-1.3490725e-02,-1.7796972e-01,8.3464488e-02
2.8799450e+00,-3.8023202e-02,-1.1568968e-03,1.5234073e-03,-1.5866207e-01,-3.9104115e-02,-1.6014553e-01,8.5105773e-03,-1.3060525e-02,4.1328684e-03,1.4051576e-01,1.4109032e-01,-1.0525449e-01
2.8899450e+00,-4.0164723e-02,-2.3808841e-03,7.6228964e-04,-2.1547791e-01,-1.1942757e-01,-2.1449983e-01,9.4185070e-03,-4.4291775e-03,-8.5189935e-04,9.0793054e-02,8.6313559e-01,-4.9847725e-01
2.8999450e+00,-4.1294679e-02,-1.8625513e-03,1.4568927e-03,-1.1215540e-01,5.4065925e-02,-1.1278655e-01,8.8647857e-03,-1.0903527e-02,3.3256210e-03,-5.5372175e-02,-6.4743561e-01,4.1775243e-01
2.9099450e+00,-4.2564905e-02,-2.1457930e-03,1.5492244e-03,-1.2672715e-01,-2.6015332e-02,-1.2780942e-01,8.7492866e-03,-9.3702248e-03,4.2308427e-03,-1.1549924e-02,1.5333040e-01,9.0522256e-02
2.9199450e+00,-4.3631451e-02,-1.6253510e-03,1.8556294e-03,-1.0545892e-01,5.4397263e-02,-1.0666948e-01,8.8119177e-03,-1.3223081e-02,6.8490104e-03,6.2631132e-03,-3.8528602e-01,2.6181702e-01
2.9299450e+00,-4.6143980e-02,-4.7328069e-03,2.5941549e-04,-2.5713721e-01,-3.0584822e-01,-2.5130980e-01,1.7198438e-02,-2.1146885e-03,-2.2997338e-03,8.3865281e-01,1.1108404e+00,-9.1487529e-01
2.9399450e+00,-4.7994849e-02,-4.4163734e-03,4.6573205e-04,-1.8462866e-01,3.6162158e-02,-1.8471692e-01,1.6940131e-02,-7.5090852e-03,-5.6270095e-04,-2.5830683e-02,-5.3944018e-01,1.7370345e-01
2.9499450e+00,-5.0213171e-02,-4.3918540e-03,4.6185960e-04,-2.2203350e-01,8.5071529e-03,-2.2148134e-01,1.7469996e-02,-9.8428118e-03,-1.2530425e-03,5.2986550e-02,-2.3337289e-01,-6.9034221e-02
2.9599450e+00,-5.2724358e-02,-5.4477904e-03,-1.2790632e-04,-2.5444231e-01,-1.0024018e-01,-2.4996496e-01,1.9148940e-02,-2.1045158e-03,-5.3807660e-03,1.6789451e-01,7.7383035e-01,-4.1277274e-01
2.9699452e+00,-5.4764193e-02,-5.4350898e-03,6.1112212e-05,-2.0462646e-01,6.1567477e-03,-2.0323994e-01,1.8708593e-02,-5.2692454e-03,-3.4723519e-03,-4.4033621e-02,-3.1646572e-01,1.9083703e-01
2.9799452e+00,-5.6689115e-02,-5.0010924e-03,5.5814178e-04,-1.9184004e-01,4.8735877e-02,-1.9186560e-01,1.8294536e-02,-9.4849412e-03,-9.0317664e-04,-4.1405815e-02,-4.2156998e-01,2.5691777e-01
2.9899452e+00,-5.8641703e-02,-5.0644436e-03,6.5702545e-04,-1.9536228e-01,-8.8149172e-04,-1.9525643e-01,1.8933556e-02,-8.9924023e-03,-9.4023624e-05,6.3902112e-02,4.9253932e-02,8.0915378e-02
2.9999452e+00,-6.0764281e-02,-6.0032799e-03,3.2216977e-04,-2.1435260e-01,-8.9303611e-02,-2.1212938e-01,1.9800059e-02,-1.6942117e-03,-1.3080168e-03,8.6650358e-02,7.2981976e-01,-1.2139943e-01
3.0099452e+00,-6.2511468e-02,-5.5908587e-03,7.1837194e-04,-1.7349080e-01,4.6152710e-02,-1.7471453e-01,2.0102725e-02,-8.0434938e-03,2.0798427e-03,3.0266630e-02,-6.3492881e-01,3.3878627e-01
3.0199451e+00,-6.4969902e-02,-5.6134997e-03,6.2855961e-04,-2.4571745e-01,5.2677199e-03,-2.4592364e-01,2.1094029e-02,-9.5381916e-03,4.8468674e-04,9.9130463e-02,-1.4946992e-01,-1.5951575e-01
3.0299451e+00,-6.7887901e-02,-6.3151009e-03,8.1016120e-05,-2.9445464e-01,-6.1736115e-02,-2.9103668e-01,2.2403237e-02,-6.4288661e-03,-3.9692698e-03,1.3092094e-01,3.1093285e-01,-4.4539608e-01
3.0399451e+00,-7.0161589e-02,-5.8582940e-03,6.2363150e-04,-2.2656524e-01,5.3255953e-02,-2.2652167e-01,2.1968010e-02,-1.1426610e-02,-1.1200092e-03,-4.3522702e-02,-4.9977484e-01,2.8492633e-01
3.0499451e+00,-7.2601616e-02,-6.4233894e-03,5.9435488e-04,-2.4593818e-01,-4.9181919e-02,-2.4364670e-01,2.2815481e-02,-7.1730585e-03,-2.9124416e-03,8.4747157e-02,4.2535552e-01,-1.7924341e-01
3.0599451e+00,-7.4758969e-02,-7.2093433e-03,1.9478396e-04,-2.1816622e-01,-7.3263998e-02,-2.1516680e-01,2.3047452e-02,-1.5753698e-03,-3.1418983e-03,2.3197138e-02,5.5976940e-01,-2.2945698e-02
3.0699451e+00,-7.6791752e-02,-6.2816862e-03,1.0234319e-03,-2.0114076e-01,9.8944281e-02,-2.0249008e-01,1.8372341e-02,-1.2111472e-02,1.9620471e-03,-4.6751160e-01,-1.0536112e+00,5.1039503e-01
3.0799451e+00,-7.9072858e-02,-6.9812558e-03,8.2362481e-04,-2.2908212e-01,-6.3456434e-02,-2.2903649e-01,1.9937489e-02,-8.4760919e-03,1.6557417e-03,1.5651500e-01,3.6353836e-01,-3.0630567e-02
3.0899451e+00,-8.1241952e-02,-6.9502732e-03,1.2713859e-03,-2.1578988e-01,9.2674855e-03,-2.1784847e-01,1.8961060e-02,-9.4414582e-03,4.7003661e-03,-9.7642963e-02,-9.6536722e-02,3.0446272e-01
3.0999451e+00,-8.4084084e-02,-7.3085246e-03,9.5688787e-04,-2.8410688e-01,-2.6874443e-02,-2.8530524e-01,2.0364115e-02,-1.1067635e-02,2.7306885e-03,1.4030557e-01,-1.6261779e-01,-1.9696794e-01
3.1099451e+00,-8.7011723e-02,-7.8363727e-03,9.0253146e-04,-2.9346661e-01,-4.3031744e-02,-2.9365553e-01,2.2631147e-02,-1.0614700e-02,1.4235598e-03,2.2670340e-01,4.5293503e-02,-1.3071299e-01
3.1199450e+00,-9.0019384e-02,-9.0568284e-03,3.4027762e-04,-3.0380221e-01,-1.1401054e-01,-3.0086856e-01,2.3738392e-02,-2.8656643e-03,-7.4368621e-04,1.1072464e-01,7.7490430e-01,-2.1672481e-01
3.1299450e+00,-9.2824447e-02,-9.5948950e-03,3.0383790e-04,-2.8243237e-01,-4.6348582e-02,-2.7990491e-01,2.5664959e-02,-8.6466596e-04,-2.2749842e-03,1.9265693e-01,2.0010003e-01,-1.5312994e-01
3.1399450e+00,-9.5471938e-02,-9.4079544e-03,7.7611777e-04,-2.6435096e-01,2.6352054e-02,-2.6449594e-01,2.4119751e-02,-4.8319741e-03,-4.8893204e-04,-1.5452096e-01,-3.9673119e-01,1.7860538e-01
3.1499450e+00,-9.8223952e-02,-1.0219787e-02,9.8777521e-04,-2.7705089e-01,-7.4611833e-02,-2.7520630e-01,2.5005011e-02,1.2156570e-03,3.4336278e-04,8.8526099e-02,6.0476369e-01,8.3229561e-02
3.1599450e+00,-1.0080812e-01,-1.0418655e-02,1.1021095e-03,-2.5884829e-01,-1.2862209e-02,-2.5843045e-01,2.9041506e-02,1.8864077e-03,1.4393694e-04,4.0364981e-01,6.7075137e-02,-1.9942603e-02
3.1699450e+00,-1.0324200e-01,-9.4470971e-03,2.8361792e-03,-2.3852851e-01,1.0284658e-01,-2.4584835e-01,2.4072729e-02,5.6779567e-04,1.0018260e-02,-4.9687810e-01,-1.3186133e-01,9.8743327e-01
