time, x, y, z, vx, vy, vz, yaw, pitch, roll, yaw_rate, pitch_rate, roll_rate
0.0000000e+00,0.0000000e+00,0.0000000e+00,0.0000000e+00,0.0000000e+00,0.0000000e+00,0.0000000e+00,0.0000000e+00,0.0000000e+00,0.0000000e+00,0.0000000e+00,0.0000000e+00,0.0000000e+00
9.9999905e-03,5.4897479e-05,-1.0746969e-05,6.2116910e-05,5.4845487e-03,-1.0799119e-03,5.4939303e-03,4.5712055e-04,-4.9226981e-04,8.5805967e-04,4.5712099e-02,-4.9227028e-02,8.5806049e-02
1.9999981e-02,3.7229834e-05,-2.4181911e-05,1.0522477e-04,-1.7658620e-03,-1.3423972e-03,-1.7685042e-03,4.1782409e-04,-2.0360608e-04,8.2906952e-04,-3.9296495e-03,2.8866401e-02,-2.8990175e-03
2.9999971e-02,-3.6377728e-05,-9.4441684e-07,4.8735695e-05,-7.3575181e-03,2.3299466e-03,-7.3620491e-03,3.2161508e-04,-5.1987592e-04,3.3921821e-04,-9.6209110e-03,-3.1627014e-02,-4.8985178e-02
3.9999962e-02,-7.6336478e-05,-7.0589990e-05,2.5708207e-05,-3.9967487e-03,-6.9624132e-03,-3.9987558e-03,2.4464746e-04,-2.9340421e-04,2.0866106e-04,-7.6967686e-03,2.2647193e-02,-1.3055727e-02
4.9999952e-02,-7.6003155e-05,6.8033504e-05,-1.5769179e-04,1.4292712e-05,1.3862365e-02,4.4047746e-05,-1.3744790e-03,-7.7341471e-04,-4.1764231e-04,-1.6191280e-01,-4.8001096e-02,-6.2630397e-02
5.9999943e-02,-1.4843681e-04,-2.5250321e-04,-1.0121700e-04,-7.2237421e-03,-3.2073931e-02,-7.1730879e-03,-7.9680194e-04,2.0079565e-03,-8.1655870e-04,5.7767757e-02,2.7813739e-01,-3.9891677e-02
6.9999933e-02,-1.9599414e-04,-2.6807281e-04,-1.3378053e-04,-4.7571102e-03,-1.5680356e-03,-4.7507230e-03,-5.4405699e-05,2.2756726e-03,-3.0656480e-04,7.4239694e-02,2.6771638e-02,5.0999438e-02
7.9999924e-02,-2.1996802e-04,-2.4861153e-04,-1.1190302e-04,-2.3982571e-03,1.9415383e-03,-2.4002461e-03,-2.4250990e-04,1.6720360e-03,-1.6448238e-04,-1.8810438e-02,-6.0363722e-02,1.4208256e-02
8.9999914e-02,-2.5140292e-04,-2.2192336e-04,-1.2072247e-04,-3.1451400e-03,2.6629378e-03,-3.1468308e-03,-3.4082286e-04,1.5295392e-03,-2.3483232e-04,-9.8313060e-03,-1.4249691e-02,-7.0350003e-03
9.9999905e-02,-2.5872630e-04,-1.4953051e-04,-1.4231376e-04,-7.3684900e-04,7.2378856e-03,-7.4166138e-04,-6.0290985e-04,1.3082404e-03,-1.9920630e-04,-2.6208724e-02,-2.2129903e-02,3.5626048e-03
1.0999990e-01,-2.8390342e-04,-2.0417416e-04,-1.2880872e-04,-2.5165286e-03,-5.4695514e-03,-2.5076318e-03,-3.6016385e-04,1.7011731e-03,-3.1072585e-04,2.4274623e-02,3.9293304e-02,-1.1151965e-02
1.2000012e-01,-2.3722080e-04,-1.5856444e-04,-1.2965653e-04,4.6648718e-03,4.5664490e-03,4.6659816e-03,-1.9203560e-04,1.0035108e-03,5.1566855e-04,1.6812440e-02,-6.9764627e-02,8.2637548e-02
1.3000011e-01,-1.4210953e-04,8.2896742e-05,2.7322609e-05,9.5108962e-03,2.4132469e-02,9.5460132e-03,2.2158072e-04,-1.2133395e-03,5.8752082e-04,4.1361671e-02,-2.2168525e-01,7.1852343e-03
1.4000010e-01,-1.6296466e-04,2.3700317e-05,1.8605416e-05,-2.0861037e-03,-5.9171659e-03,-2.0919616e-03,2.6490109e-04,-9.2362410e-04,4.6968008e-04,4.3320412e-03,2.8971572e-02,-1.1784085e-02
1.5000010e-01,-1.1338041e-04,-6.4283029e-05,1.0621303e-04,4.9539551e-03,-8.7994118e-03,4.9610060e-03,1.5821674e-04,-5.7320358e-05,6.2157197e-04,-1.0668446e-02,8.6630457e-02,1.5189204e-02
1.6000009e-01,-1.7013720e-04,-2.7382609e-05,7.6390532e-06,-5.6804921e-03,3.6868978e-03,-5.6729200e-03,-4.3487902e-04,1.1971567e-04,-5.6454743e-04,-5.9309632e-02,1.7703619e-02,-1.1861205e-01
1.7000008e-01,-1.4440104e-04,4.9512012e-05,-3.1826015e-05,2.5700090e-03,7.6898700e-03,2.5760276e-03,-7.3876391e-04,-5.8230056e-04,-8.0542296e-04,-3.0388517e-02,-7.0201689e-02,-2.4087576e-02
1.8000007e-01,-1.7398576e-04,-3.3635147e-05,-1.7606675e-05,-2.9573581e-03,-8.3152910e-03,-2.9579963e-03,-2.9903725e-04,-1.0724018e-04,-4.6328890e-04,4.3972708e-02,4.7506083e-02,3.4213439e-02
1.9000006e-01,-2.6931778e-04,-2.8389365e-04,-8.2448172e-05,-9.5219810e-03,-2.5048922e-02,-9.4837743e-03,-6.6580792e-04,1.7575379e-03,-5.7016448e-04,-3.6677103e-02,1.8647798e-01,-1.0687568e-02
2.0000005e-01,-2.4929510e-04,-2.7688307e-04,-1.1085920e-04,2.0029243e-03,7.0565103e-04,2.0000007e-03,-6.4972849e-04,1.6452772e-03,-5.5475895e-04,1.6079450e-03,-1.1226076e-02,1.5405543e-03
2.1000004e-01,-1.0978787e-04,-1.2267188e-04,1.4060489e-05,1.3950040e-02,1.5427335e-02,1.3944576e-02,-5.0351948e-05,3.9426769e-04,-5.7358441e-06,5.9937711e-02,-1.2510107e-01,5.4902363e-02
2.2000003e-01,-1.4530087e-04,-1.0965434e-04,-4.8688979e-05,-3.5489550e-03,1.3032089e-03,-3.5531179e-03,1.2553651e-04,-2.8340279e-04,6.1509471e-04,1.7588863e-02,-6.7767113e-02,6.2083114e-02
2.3000002e-01,-2.2452557e-04,-2.3212704e-04,-3.5461655e-05,-7.9161511e-03,-1.2258890e-02,-7.9108417e-03,-3.9164358e-04,1.0742878e-03,1.9308239e-04,-5.1718058e-02,1.3576919e-01,-4.2201271e-02
2.4000001e-01,-2.2744121e-04,-3.3115109e-04,-4.1914038e-05,-2.8987686e-04,-9.9028045e-03,-2.7974099e-04,-1.6318155e-04,1.2011532e-03,2.4558124e-04,2.2846224e-02,1.2686555e-02,5.2498896e-03
2.5000000e-01,-1.6317353e-04,-1.7878649e-04,1.5769196e-05,6.4332518e-03,1.5231736e-02,6.4315236e-03,5.8827124e-04,-1.4848331e-04,3.8656313e-04,7.5145351e-02,-1.3496378e-01,1.4098203e-02
2.5999999e-01,-1.4741012e-04,-9.9375854e-05,-1.8062648e-05,1.5787297e-03,7.9404600e-03,1.5770337e-03,2.3787557e-04,-1.4991352e-04,-3.1619389e-04,-3.5039600e-02,-1.4302116e-04,-7.0275769e-02
2.6999998e-01,-1.5493452e-04,-1.0236019e-05,-3.1238537e-05,-7.5490104e-04,8.9141066e-03,-7.4860969e-04,-2.3980653e-04,-3.9349886e-04,-4.2873075e-04,-4.7768256e-02,-2.4358557e-02,-1.1253697e-02
2.7999997e-01,-1.2483797e-04,-1.3292172e-04,1.1522702e-05,3.0155019e-03,-1.2264838e-02,3.0190526e-03,-4.5484764e-04,7.8744811e-04,-8.7653092e-05,-2.1504132e-02,1.1809481e-01,3.4107798e-02
2.8999996e-01,-2.1850967e-04,-2.6233097e-04,-3.4761964e-05,-9.3622901e-03,-1.2961798e-02,-9.3431923e-03,-5.8668240e-04,1.6429078e-03,-2.8884857e-04,-1.3183488e-02,8.5546049e-02,-2.0119567e-02
2.9999995e-01,-2.6657886e-04,-1.5466920e-04,-4.8260253e-06,-4.8126148e-03,1.0761758e-02,-4.8111463e-03,-1.9939064e-04,7.2205209e-04,-7.3770885e-04,3.8729212e-02,-9.2085657e-02,-4.4886070e-02
3.0999994e-01,-1.8798895e-04,-8.5469255e-06,-8.3415308e-05,7.8579692e-03,1.4614503e-02,7.8558212e-03,-3.7125215e-04,-8.3339301e-05,-5.5951173e-04,-1.7186167e-02,-8.0539216e-02,1.7819728e-02
3.1999993e-01,-1.8108860e-04,-1.6940719e-04,-7.0835332e-05,6.9283919e-04,-1.6085187e-02,7.0695889e-04,-1.5101723e-04,1.0755103e-03,-5.4338385e-04,2.2023513e-02,1.1588507e-01,1.6127902e-03
3.2999992e-01,-7.8498875e-05,-2.4800101e-05,2.6253107e-05,1.0262260e-02,1.4440819e-02,1.0283711e-02,7.3348665e-04,-1.2043915e-03,7.1388533e-04,8.8450472e-02,-2.2799040e-01,1.2572704e-01
3.3999991e-01,-1.9320052e-04,-2.3491137e-04,-3.0134999e-05,-1.1466047e-02,-2.1019027e-02,-1.1459862e-02,-4.9806883e-05,6.3742793e-04,2.6870824e-04,-7.8329428e-02,1.8418212e-01,-4.4517751e-02
3.4999990e-01,-1.1613360e-04,-6.3199301e-05,3.7298205e-05,7.7122698e-03,1.7162023e-02,7.7216067e-03,5.3304199e-04,-6.5967403e-04,4.6462955e-04,5.8284943e-02,-1.2971032e-01,1.9592149e-02
3.5999990e-01,-8.3056115e-05,-1.9819832e-04,-1.1007311e-05,3.2993784e-03,-1.3500483e-02,3.3137897e-03,4.9863836e-04,3.2592973e-04,4.9614904e-04,-3.4403660e-03,9.8560470e-02,3.1519524e-03
3.7000012e-01,-8.2768625e-05,-9.9176648e-05,-2.4427853e-05,3.3754212e-05,9.9019155e-03,3.1676956e-05,5.0640247e-04,-2.9476265e-04,2.9420919e-04,7.7639331e-04,-6.2067817e-02,-2.0193523e-02
3.8000011e-01,-1.3056029e-04,-9.6626425e-05,-7.3090972e-05,-4.7831175e-03,2.5142138e-04,-4.7754122e-03,-3.0356707e-04,4.5031765e-04,-8.0994419e-04,-8.0997031e-02,7.4508101e-02,-1.1041544e-01
3.9000010e-01,-1.2411568e-04,-1.9827303e-04,-6.5255498e-05,6.5758554e-04,-1.0163116e-02,6.5561615e-04,-1.2445797e-03,1.1451641e-03,-7.3604169e-04,-9.4101351e-02,6.9484711e-02,7.3902570e-03
4.0000010e-01,-1.4888801e-04,-2.1437147e-04,5.7358961e-05,-2.4780474e-03,-1.6118498e-03,-2.4751184e-03,1.7565422e-05,8.2734657e-04,-3.1648592e-04,1.2621463e-01,-3.1781783e-02,4.1955617e-02
4.1000009e-01,-1.3596168e-04,-1.4892695e-04,-7.2088115e-05,1.2904791e-03,6.5457391e-03,1.2882941e-03,-4.3956569e-04,5.5299315e-04,-5.5849278e-04,-4.5713155e-02,-2.7435369e-02,-2.4200709e-02
4.2000008e-01,-1.9369464e-04,-2.1488341e-04,-1.2196027e-04,-5.7721641e-03,-6.6082666e-03,-5.7599978e-03,-5.6401343e-04,1.6232847e-03,-4.4769847e-04,-1.2444786e-02,1.0702925e-01,1.1079441e-02
4.3000007e-01,-1.2511266e-04,-2.3430535e-04,-8.9312853e-05,6.8528303e-03,-1.9369751e-03,6.8650498e-03,2.1853535e-04,9.7888068e-04,7.2145706e-04,7.8254952e-02,-6.4440459e-02,1.1691566e-01
4.4000006e-01,-1.3538550e-04,-1.5547706e-04,-6.0523714e-05,-1.0230685e-03,7.8829669e-03,-1.0304860e-03,4.4094249e-04,3.1236773e-04,7.2111465e-04,2.2240735e-02,-6.6651359e-02,-3.4240633e-05
4.5000005e-01,-2.0629440e-04,-2.2457338e-04,-8.2869140e-05,-7.0869601e-03,-6.9145625e-03,-7.0900312e-03,1.6977613e-04,8.6402966e-04,7.2028678e-04,-2.7116662e-02,5.5166246e-02,-8.2786667e-05
4.6000004e-01,-1.5376631e-04,-9.8949913e-05,-4.7632757e-05,5.2517281e-03,1.2559547e-02,5.2606169e-03,1.7594134e-04,-3.5879213e-04,6.2737647e-04,6.1652242e-04,-1.2228230e-01,-9.2910401e-03
4.7000003e-01,-1.5084243e-04,-8.2222205e-05,-1.0400339e-04,2.9232655e-04,1.6728416e-03,2.9205301e-04,-9.6363618e-05,1.4061347e-04,-3.4126480e-04,-2.7230522e-02,4.9940608e-02,-9.6864220e-02
4.8000002e-01,-1.2853284e-04,-1.2236837e-04,-8.9309593e-05,2.2323285e-03,-4.0133891e-03,2.2318081e-03,-1.6645446e-04,3.8542515e-04,-3.1353184e-04,-7.0090913e-03,2.4481191e-02,2.7732986e-03
4.9000001e-01,-6.2243436e-05,-1.1546547e-04,3.9824646e-05,6.6286636e-03,6.9186946e-04,6.6290655e-03,6.2682723e-05,3.0086894e-04,4.9257354e-05,2.2913741e-02,-8.4556286e-03,3.6278954e-02
5.0000000e-01,-1.6510680e-04,-8.4058965e-05,-2.1062966e-05,-1.0295357e-02,3.1324215e-03,-1.0279839e-02,-3.2921985e-04,4.7140325e-04,-7.7585111e-04,-3.9190295e-02,1.7053447e-02,-8.2510925e-02
5.0999999e-01,-1.0700640e-04,4.7261378e-05,1.2513887e-05,5.8109769e-03,1.3130208e-02,5.8132671e-03,-4.2849308e-04,-7.4492777e-04,-1.1296262e-03,-9.9273323e-03,-1.2163322e-01,-3.5377544e-02
5.1999998e-01,-5.1029858e-05,5.9221591e-05,-1.8586132e-05,5.6026582e-03,1.1911471e-03,5.5936971e-03,-4.1780539e-04,-1.2898597e-03,-9.8280816e-04,1.0687705e-03,-5.4493248e-02,1.4681819e-02
5.2999997e-01,-8.2137126e-05,-1.7541238e-04,-6.8133430e-06,-3.1206892e-03,-2.3461389e-02,-3.1160635e-03,4.5430650e-04,-1.9741429e-04,2.2495210e-04,8.7211272e-02,1.0924465e-01,1.2077614e-01
5.3999996e-01,-1.1398636e-04,-2.6280844e-04,-5.2489259e-05,-3.1864203e-03,-8.7411808e-03,-3.1791282e-03,1.9480431e-04,6.8730992e-04,6.5519840e-05,-2.5950243e-02,8.8472505e-02,-1.5943241e-02
5.4999995e-01,-1.7645628e-04,-2.6608567e-04,-5.4499748e-05,-6.2455881e-03,-3.3389312e-04,-6.2480801e-03,-1.8959035e-05,9.6836160e-04,2.2460484e-04,-2.1376355e-02,2.8105196e-02,1.5908515e-02
5.5999994e-01,-1.7277226e-04,-6.9896528e-05,-1.4420330e-05,3.7014868e-04,1.9618864e-02,3.7032961e-04,8.2595825e-05,-1.0471297e-04,-3.4258889e-04,1.0155496e-02,-1.0730756e-01,-5.6719428e-02
5.6999993e-01,-2.9705640e-04,-3.2522513e-04,-1.0320149e-04,-1.2426548e-02,-2.5554374e-02,-1.2386063e-02,9.1989692e-05,1.8238789e-03,3.3996789e-04,9.3938761e-04,1.9285937e-01,6.8255744e-02
5.7999992e-01,-2.9271496e-04,-2.9814043e-04,-2.2548315e-04,4.3316922e-04,2.7095853e-03,4.2813238e-04,-4.2575609e-04,2.1537179e-03,-4.0979332e-04,-5.1774627e-02,3.2983923e-02,-7.4976192e-02
5.8999991e-01,-2.4303630e-04,-4.1167449e-04,-1.1081805e-04,4.9715244e-03,-1.1337552e-02,5.0003411e-03,-2.0955321e-04,2.9746440e-03,-2.5674291e-04,2.1620309e-02,8.2092693e-02,1.5305055e-02
5.9999990e-01,-2.6875689e-04,-1.9459790e-04,-1.4078145e-04,-2.5851685e-03,2.1702439e-02,-2.6029580e-03,-5.4287097e-04,1.4848444e-03,-5.1476013e-04,-3.3331809e-02,-1.4898011e-01,-2.5801746e-02
6.0999990e-01,-2.1544522e-04,-2.5072413e-05,-3.3784735e-05,5.3333333e-03,1.6950719e-02,5.3348757e-03,-2.8923682e-05,-3.7506427e-04,-4.9765751e-04,5.1394778e-02,-1.8599104e-01,1.7102631e-03
6.2000012e-01,-2.5338772e-04,-1.0459537e-04,-2.9049347e-05,-3.7955395e-03,-7.9541339e-03,-3.7885475e-03,-1.4332452e-04,3.8960752e-04,-6.6337187e-04,-1.1439822e-02,7.6465429e-02,-1.6571056e-02
6.3000011e-01,-1.6193514e-04,-1.2725949e-04,2.0885535e-05,9.1412945e-03,-2.2721981e-03,9.1478037e-03,4.0856055e-04,-2.2385056e-04,3.3302418e-04,5.5188560e-02,-6.1345867e-02,9.9639700e-02
6.4000010e-01,-1.6280220e-04,-2.9393350e-05,-6.4579789e-05,-8.8116524e-05,9.7866300e-03,-8.4466231e-05,-1.3890790e-04,-2.2354074e-04,-5.9017996e-04,-5.4746897e-02,3.0982201e-05,-9.2320502e-02
6.5000010e-01,-8.1395815e-05,-2.2071785e-05,1.5715456e-05,8.1362673e-03,7.1995665e-04,8.1461098e-03,3.8561213e-04,-1.1124093e-03,5.7232231e-04,5.2452053e-02,-8.8886945e-02,1.1625034e-01
6.6000009e-01,-1.5947333e-04,-1.3980652e-04,1.5345091e-05,-7.8122226e-03,-1.1765374e-02,-7.8155171e-03,6.1909683e-04,-4.1919527e-04,3.6160350e-04,2.3348493e-02,6.9321474e-02,-2.1071901e-02
6.7000008e-01,-2.2244532e-04,-2.6986051e-04,-3.3345831e-05,-6.2939592e-03,-1.3010324e-02,-6.2902979e-03,-5.2995847e-05,7.2746512e-04,4.0594185e-04,-6.7209332e-02,1.1466615e-01,4.4338391e-03
6.8000007e-01,-2.4364544e-04,-1.1245044e-04,-5.1644227e-05,-2.1238560e-03,1.5739967e-02,-2.1239907e-03,-1.4608658e-04,3.5079126e-04,-7.2773067e-04,-9.3090821e-03,-3.7667422e-02,-1.1336736e-01
6.9000006e-01,-1.7721604e-04,-4.3276308e-05,-8.0323833e-05,6.6457620e-03,6.9183564e-03,6.6391551e-03,-2.2707780e-04,-8.6149639e-05,-6.6047507e-04,-8.0991296e-03,-4.3694131e-02,6.7255669e-03
7.0000005e-01,-2.2736703e-04,-2.8778494e-04,-1.4540326e-04,-5.0070466e-03,-2.4462719e-02,-4.9652013e-03,-4.7521112e-04,1.8948809e-03,-7.1069784e-04,-2.4813355e-02,1.9810324e-01,-5.0222815e-03
7.1000004e-01,-2.0700834e-04,-1.9270192e-04,-1.1430454e-04,2.0347409e-03,9.5112997e-03,2.0229967e-03,-2.5865402e-04,1.2138779e-03,-6.5357090e-04,2.1655730e-02,-6.8100363e-02,5.7126988e-03
7.2000003e-01,-1.8155120e-04,-2.1170470e-04,4.5525195e-05,2.5460576e-03,-1.8984325e-03,2.5467542e-03,1.9694622e-04,9.2242724e-04,-2.8087790e-04,4.5560067e-02,-2.9145096e-02,3.7269336e-02
7.3000002e-01,-1.4393785e-04,-6.2830005e-05,1.3196615e-05,3.7651487e-03,1.4882939e-02,3.7754828e-03,3.7685344e-04,-8.2920635e-04,4.7845975e-04,1.7990739e-02,-1.7516353e-01,7.5933837e-02
7.4000001e-01,-2.0689294e-04,-2.8010521e-04,-5.2215018e-05,-6.2914165e-03,-2.1734558e-02,-6.2753594e-03,-1.2318660e-04,9.9289254e-04,2.2586661e-04,-5.0004052e-02,1.8221006e-01,-2.5259338e-02
7.5000000e-01,-1.9172082e-04,-2.1010382e-04,-1.0993634e-04,1.5137915e-03,7.0019560e-03,1.5122711e-03,-4.3391458e-04,7.6083435e-04,2.5364041e-04,-3.1072827e-02,-2.3205841e-02,2.7773827e-03
7.5999999e-01,-2.6913279e-04,-2.4488338e-04,-1.5823336e-04,-7.7440253e-03,-3.4926834e-03,-7.7317486e-03,-2.5226246e-04,1.6512559e-03,-4.7782602e-04,1.8165229e-02,8.9042238e-02,-7.3146712e-02
7.6999998e-01,-2.4293719e-04,-7.7404960e-05,-7.6396468e-05,2.6157223e-03,1.6749042e-02,2.6158267e-03,-3.4306486e-04,1.0945529e-04,-7.2765658e-04,-9.0802479e-03,-1.5418021e-01,-2.4983081e-02
7.7999997e-01,-2.1083810e-04,-6.4195354e-05,-3.0022129e-05,3.2110335e-03,1.3196011e-03,3.2093496e-03,3.4341704e-05,-3.8966981e-04,-3.3537288e-04,3.7740692e-02,-4.9912557e-02,3.9228408e-02
7.8999996e-01,-2.1319285e-04,-1.1853987e-04,-1.8073521e-05,-2.3697136e-04,-5.4344356e-03,-2.3446556e-04,2.6703534e-04,1.7760007e-04,-1.8938279e-04,2.3269386e-02,5.6727043e-02,1.4599022e-02
7.9999995e-01,-2.3950481e-04,-2.8785357e-04,-5.7593700e-05,-2.6373386e-03,-1.6935346e-02,-2.5993757e-03,2.9393616e-04,1.8103927e-03,-4.4251208e-04,2.6900850e-03,1.6327942e-01,-2.5312953e-02
8.0999994e-01,-2.4189753e-04,-1.2058361e-04,-8.2257532e-05,-2.4046254e-04,1.6726916e-02,-2.4472984e-04,-6.2542405e-05,3.3497020e-04,-6.0380751e-04,-3.5647891e-02,-1.4754239e-01,-1.6129558e-02
8.1999993e-01,-2.3952471e-04,-1.0191550e-04,-6.9219508e-05,2.3728781e-04,1.8668900e-03,2.3666410e-04,-8.8993174e-05,2.3857727e-04,-7.2609036e-04,-2.6450794e-03,-9.6393023e-03,-1.2228297e-02
8.2999992e-01,-8.2113112e-05,-1.3394077e-04,6.0273452e-05,1.5728080e-02,-3.2133946e-03,1.5752047e-02,4.3319322e-04,-2.5684486e-04,7.4340656e-04,5.2218689e-02,-4.9542260e-02,1.4694983e-01
8.3999991e-01,-1.0509777e-04,-1.4688581e-04,4.1782711e-05,-2.2984354e-03,-1.2924707e-03,-2.2996453e-03,5.6939850e-04,-3.1549509e-04,3.3467406e-04,1.3620541e-02,-5.8650287e-03,-4.0873289e-02
8.4999990e-01,3.3808565e-05,-2.9153495e-04,2.0811133e-04,1.3870294e-02,-1.4449790e-02,1.3926692e-02,3.2825895e-04,1.4153148e-03,1.1226716e-03,-2.4113978e-02,1.7308116e-01,7.8799827e-02
8.5999990e-01,-7.8194450e-05,-2.1317188e-04,8.3981444e-05,-1.1190403e-02,7.8401420e-03,-1.1207536e-02,5.2036828e-04,1.7841310e-04,5.2037210e-04,1.9210951e-02,-1.2369029e-01,-6.0230006e-02
8.7000012e-01,-4.9267866e-05,-2.6472714e-05,2.0659564e-05,2.8868463e-03,1.8669465e-02,2.8984852e-03,-4.5420624e-04,-4.6179701e-04,-9.4570193e-04,-9.7455222e-02,-6.4019545e-02,-1.4660405e-01
8.8000011e-01,-1.8491907e-04,-2.5529223e-04,1.1266589e-05,-1.3583382e-02,-2.2885530e-02,-1.3540850e-02,4.0032392e-04,6.6349073e-04,-6.7029052e-04,8.5453097e-02,1.1252888e-01,2.7541167e-02
8.9000010e-01,-2.4265229e-04,-3.8520695e-04,-1.1482125e-04,-5.7754840e-03,-1.3002865e-02,-5.7454828e-03,-1.7785841e-04,1.7984377e-03,-7.7409232e-04,-5.7818288e-02,1.1349481e-01,-1.0380189e-02
9.0000010e-01,-2.5250156e-04,-3.6982074e-04,-1.6383901e-04,-9.8547418e-04,1.5369291e-03,-9.8702323e-04,-3.0296062e-05,1.6868856e-03,-5.0680918e-04,1.4756249e-02,-1.1155225e-02,2.6728339e-02
9.1000009e-01,-2.6380098e-04,-3.4561166e-04,-1.6654657e-04,-1.1303699e-03,2.4191908e-03,-1.1331930e-03,3.5732287e-05,1.5555976e-03,-4.5496622e-04,6.6028413e-03,-1.3128810e-02,5.1843011e-03
9.2000008e-01,-3.0958754e-04,-3.9818767e-04,-1.5833753e-04,-4.5816618e-03,-5.2662270e-03,-4.5657319e-03,1.2633537e-04,2.0126513e-03,-5.1058858e-04,9.0603169e-03,4.5705414e-02,-5.5622413e-03
9.3000007e-01,-2.2818336e-04,-4.6936157e-04,-4.0901573e-05,8.1318645e-03,-7.1023424e-03,8.1621009e-03,3.4880686e-04,2.1943055e-03,7.4632646e-04,2.2247171e-02,1.8165435e-02,1.2569162e-01
9.4000006e-01,-1.9316538e-04,-3.8079141e-04,-2.7803179e-05,3.5016153e-03,8.8609605e-03,3.4920153e-03,3.2877398e-04,1.4544917e-03,8.8435955e-04,-2.0032899e-03,-7.3981456e-02,1.3803322e-02
9.5000005e-01,-2.0914396e-04,-2.5613420e-04,1.6116980e-06,-1.5856361e-03,1.2467486e-02,-1.5963588e-03,9.1392815e-04,-1.8641021e-04,5.1919092e-04,5.8515473e-02,-1.6409034e-01,-3.6516898e-02
9.6000004e-01,-1.7083690e-04,-2.7049791e-04,3.2738976e-05,3.8286606e-03,-1.4399911e-03,3.8313985e-03,6.8182947e-04,-2.6282704e-04,2.7883778e-04,-2.3209890e-02,-7.6416904e-03,-2.4035338e-02
9.7000003e-01,-1.3223984e-04,-2.1335979e-04,2.0831765e-05,3.8629146e-03,5.7086547e-03,3.8641412e-03,7.7919538e-04,-5.5753604e-04,3.2291395e-04,9.7366001e-03,-2.9470927e-02,4.4076214e-03
9.8000002e-01,-1.5953499e-04,-2.8317312e-04,4.6356683e-05,-2.7328799e-03,-6.9839824e-03,-2.7193752e-03,1.8279916e-04,1.1535878e-03,-7.6437133e-04,-5.9639678e-02,1.7111255e-01,-1.0872863e-01
9.9000001e-01,-8.2026604e-05,-7.3969319e-05,4.4156820e-05,7.7476632e-03,2.0919947e-02,7.7552517e-03,-3.7226371e-04,-4.3059830e-04,-5.9434687e-04,-5.5506340e-02,-1.5841876e-01,1.7002462e-02
1.0000000e+00,-1.7176277e-04,-1.5348814e-04,-5.3518180e-05,-8.9812798e-03,-7.9519223e-03,-8.9659359e-03,-2.3259455e-04,-2.2918717e-04,-1.0596820e-03,1.3966929e-02,2.0141132e-02,-4.6533555e-02
1.0100000e+00,-1.7245292e-04,-2.2881309e-04,-6.3763412e-05,-7.1401227e-05,-7.5324731e-03,-6.9683244e-05,3.1246621e-04,-9.3159692e-05,-4.7054842e-04,5.4506128e-02,1.3602761e-02,5.8913412e-02
1.0200000e+00,-1.2677148e-04,-2.3139675e-04,2.1056803e-05,4.5661911e-03,-2.6550495e-04,4.5696962e-03,1.0436570e-03,-5.1876578e-04,3.6886960e-04,7.3119151e-02,-4.2560650e-02,8.3941882e-02
1.0300000e+00,-9.6835391e-05,-2.8683127e-04,3.3382492e-05,2.9895941e-03,-5.5436554e-03,2.9972572e-03,3.3065655e-04,2.6400833e-04,7.2949081e-04,-7.1300114e-02,7.8277486e-02,3.6062155e-02
1.0400000e+00,-2.0423467e-04,-4.6283797e-04,-3.5801868e-05,-1.0736669e-02,-1.7614935e-02,-1.0719830e-02,2.7461569e-04,1.6021667e-03,7.5411732e-04,-5.6040915e-03,1.3381596e-01,2.4626531e-03
1.0500000e+00,-3.0852622e-04,-5.0980856e-04,-8.7369057e-05,-1.0427672e-02,-4.7133715e-03,-1.0423299e-02,3.4560066e-04,1.9095483e-03,2.9869917e-04,7.0985032e-03,3.0738190e-02,-4.5541859e-02
1.0599999e+00,-3.0182455e-04,-5.0585942e-04,-8.7804948e-05,6.7017873e-04,3.9600495e-04,6.6951267e-04,4.5540851e-04,2.0825619e-03,2.5137088e-04,1.0980796e-02,1.7301382e-02,-4.7328336e-03
1.0699999e+00,-2.9185469e-04,-4.0112889e-04,-1.5442155e-04,9.9993105e-04,1.0474654e-02,9.7711396e-04,2.4125236e-04,1.8574501e-03,-4.1874081e-04,-2.1415635e-02,-2.2511208e-02,-6.7011233e-02
1.0799999e+00,-2.2415064e-04,-3.3340775e-04,-6.3429503e-05,6.7708169e-03,6.7847235e-03,6.7573774e-03,-5.9123206e-05,1.8041247e-03,-1.1893220e-04,-3.0037585e-02,-5.3325358e-03,2.9980890e-02
1.0899999e+00,-2.2208324e-04,-3.8199366e-04,1.0066544e-05,2.0526948e-04,-4.8583314e-03,2.1428713e-04,3.1448436e-04,1.5652403e-03,-2.7920803e-04,3.7360792e-02,-2.3888463e-02,-1.6027599e-02
1.0999999e+00,-3.4692078e-04,-3.1805558e-04,-2.4754955e-05,-1.2488100e-02,6.3875346e-03,-1.2482645e-02,5.3634051e-04,1.0397097e-03,-6.2223507e-04,2.2185636e-02,-5.2553113e-02,-3.4302736e-02
1.1099999e+00,-2.9239174e-04,-2.8784136e-04,-3.8792909e-05,5.4583401e-03,3.0240142e-03,5.4460350e-03,2.4268078e-04,7.1832161e-04,-8.6197264e-04,-2.9366000e-02,-3.2138842e-02,-2.3973780e-02
1.1200001e+00,-2.5050437e-04,-3.2714545e-04,-6.9251518e-05,4.1913371e-03,-3.9266854e-03,4.1893536e-03,1.1760474e-04,9.8540176e-04,-7.5412292e-04,-1.2507318e-02,2.6707404e-02,1.0784726e-02
1.1300001e+00,-1.0595243e-04,-3.0455433e-04,9.0956097e-05,1.4448192e-02,2.2484296e-03,1.4463884e-02,8.3508430e-04,9.5929483e-05,6.1526884e-04,7.1748025e-02,-8.8947312e-02,1.3693931e-01
1.1400001e+00,-4.3195247e-05,-2.4337802e-04,1.2521532e-04,6.2760198e-03,6.1097517e-03,6.2831059e-03,7.3789969e-04,-5.1773616e-04,6.7175798e-04,-9.7184709e-03,-6.1366623e-02,5.6489196e-03
1.1500001e+00,-1.4449624e-04,-2.5128668e-04,6.3426975e-05,-1.0128636e-02,-7.7819828e-04,-1.0132563e-02,5.9892466e-04,-6.5144329e-04,1.9199301e-04,-1.3897516e-02,-1.3370726e-02,-4.7976544e-02
1.1600001e+00,-1.9043326e-04,-3.2095762e-04,4.4093174e-05,-4.5988093e-03,-6.9624505e-03,-4.5956502e-03,8.6052979e-04,-1.5126509e-04,1.9377251e-04,2.6160538e-02,5.0017868e-02,1.7795092e-04
1.1700001e+00,-1.1282636e-04,-1.8494897e-04,2.5206253e-05,7.7678403e-03,1.3584929e-02,7.7814585e-03,8.7632239e-04,-1.1762402e-03,6.1476938e-04,1.5792619e-03,-1.0249761e-01,4.2099727e-02
1.1800001e+00,-2.0770443e-04,-4.5775736e-04,-8.9009219e-05,-9.4980648e-03,-2.7286064e-02,-9.4625778e-03,4.6758097e-04,1.0170685e-03,2.6410205e-04,-4.0874181e-02,2.1933108e-01,-3.5066767e-02
1.1900001e+00,-3.4414344e-04,-5.8357799e-04,-1.7223701e-04,-1.3658530e-02,-1.2615348e-02,-1.3598492e-02,5.0814578e-04,2.9526756e-03,-6.0294345e-04,4.0564856e-03,1.9356089e-01,-8.6704632e-02
1.2000000e+00,-2.9209793e-04,-3.9336196e-04,-1.2430323e-04,5.2084852e-03,1.9030652e-02,5.1674808e-03,9.2592689e-05,1.8346615e-03,-4.1658893e-04,-4.1555349e-02,-1.1180151e-01,1.8635469e-02
1.2100000e+00,-2.4826135e-04,-5.0905041e-04,-6.0024334e-05,4.3829990e-03,-1.1558336e-02,4.4119854e-03,1.7392451e-04,2.5660096e-03,-3.0792145e-04,8.1331898e-03,7.3134878e-02,1.0866758e-02
1.2200000e+00,-2.7282597e-04,-4.2096549e-04,-1.1508919e-04,-2.4566584e-03,8.8043096e-03,-2.4712500e-03,1.2378967e-04,1.8249078e-03,-5.2322664e-04,-5.0134884e-03,-7.4110247e-02,-2.1530539e-02
1.2300000e+00,-3.2990029e-04,-5.2305041e-04,-1.4805708e-04,-5.7132136e-03,-1.0222554e-02,-5.6764223e-03,1.7022023e-04,2.6405657e-03,-7.0775204e-04,4.6430605e-03,8.1565871e-02,-1.8452558e-02
1.2400000e+00,-3.1128047e-04,-4.4065995e-04,-1.6234795e-04,1.8641149e-03,8.2422883e-03,1.8454629e-03,1.3424105e-04,1.8804616e-03,-5.5032810e-04,-3.5979219e-03,-7.6010491e-02,1.5742409e-02
1.2500000e+00,-2.0329535e-04,-2.9664519e-04,1.9677910e-05,1.0809098e-02,1.4382074e-02,1.0813807e-02,1.1281779e-03,-6.6830646e-04,5.2443055e-04,9.9393779e-02,-2.5487704e-01,1.0747597e-01
1.2600000e+00,-1.3644816e-04,-2.9525338e-04,9.5386818e-05,6.6797616e-03,1.3038922e-04,6.6898610e-03,1.0766983e-03,-2.3827700e-04,7.6398215e-04,-5.1479629e-03,4.3002987e-02,2.3955183e-02
1.2700000e+00,-1.7372673e-04,-2.7723467e-04,4.4355603e-05,-3.7236179e-03,1.8083875e-03,-3.7289462e-03,1.1833760e-03,-5.6417836e-04,5.6523066e-04,1.0667783e-02,-3.2590167e-02,-1.9875168e-02
1.2800000e+00,-2.6280917e-04,-4.6113754e-04,-9.0201540e-05,-8.9147104e-03,-1.8406225e-02,-8.8688234e-03,1.3021590e-05,1.8047853e-03,-6.9837188e-04,-1.1703556e-01,2.3689660e-01,-1.2636038e-01
1.2900000e+00,-1.7158353e-04,-1.6017335e-04,-1.7624093e-05,9.1344496e-03,3.0089336e-02,9.1341420e-03,2.6559599e-04,-5.1370833e-04,-4.2583090e-04,2.5257464e-02,-2.3184959e-01,2.7254125e-02
1.3000000e+00,-2.1770320e-04,-2.4883751e-04,-3.9681331e-05,-4.6189743e-03,-8.8637843e-03,-4.6100376e-03,5.1887111e-04,-5.3290918e-05,-5.2111282e-04,2.5327536e-02,4.6041785e-02,-9.5282013e-03
1.3099999e+00,-1.8674638e-04,-3.3709979e-04,-1.0196830e-04,3.1039965e-03,-8.8219083e-03,3.0996973e-03,-6.0272531e-04,7.9471740e-04,-9.6695477e-04,-1.1215975e-01,8.4800912e-02,-4.4584238e-02
1.3199999e+00,-2.3600724e-04,-4.9138557e-04,-7.0696800e-05,-4.9293889e-03,-1.5437935e-02,-4.8934165e-03,-3.6190488e-05,1.8670568e-03,-7.8320754e-04,5.6653536e-02,1.0723404e-01,1.8374741e-02
1.3299181e+00,-2.2594445e-04,-3.8409580e-04,7.5211531e-06,1.0204079e-03,1.0817793e-02,1.0050287e-03,4.6587853e-04,8.0900213e-04,-7.8083824e-04,5.0620916e-02,-1.0667795e-01,2.3888319e-04
1.3399181e+00,-2.3735695e-04,-4.7810372e-04,-9.4301514e-05,-1.1400802e-03,-9.4033295e-03,-1.1214240e-03,-2.4869200e-04,1.9847941e-03,-1.0230675e-03,-7.1457122e-02,1.1757931e-01,-2.4222950e-02
1.3499181e+00,-2.4706674e-04,-3.3839943e-04,-1.5669932e-04,-9.7295573e-04,1.3969590e-02,-9.8121564e-04,-1.1956854e-04,7.5466805e-04,-3.1506061e-04,1.2912358e-02,-1.2301272e-01,7.0800758e-02
1.3599181e+00,-1.5774977e-04,-2.7568107e-04,-6.0902430e-05,8.9317509e-03,6.2645752e-03,8.9367573e-03,5.9840759e-04,-2.1488612e-04,4.1481496e-04,7.1797682e-02,-9.6955510e-02,7.2987627e-02
1.3699183e+00,-2.8426779e-04,-3.1787868e-04,-1.2072081e-04,-1.2658919e-02,-4.2369857e-03,-1.2638309e-02,-9.5541145e-05,1.2746740e-03,-6.1744323e-04,-6.9393285e-02,1.4895260e-01,-1.0322346e-01
1.3799183e+00,-2.2565072e-04,-3.3995508e-04,-8.2983342e-05,5.8578450e-03,-2.2044847e-03,5.8667664e-03,2.1185701e-04,7.5006206e-04,5.7991869e-04,3.0739844e-02,-5.2461242e-02,1.1973631e-01
1.3899183e+00,-2.6811022e-04,-4.5559502e-04,-1.0329659e-04,-4.2494818e-03,-1.1571207e-02,-4.2227392e-03,6.1436847e-05,1.7631772e-03,-6.6371778e-04,-1.5042030e-02,1.0131161e-01,-1.2436377e-01
1.3999183e+00,-1.8380388e-04,-2.7066725e-04,-6.0009394e-05,8.4378297e-03,1.8493752e-02,8.4213448e-03,2.2719000e-04,3.4108605e-04,-3.5434964e-04,1.6575332e-02,-1.4220925e-01,3.0936844e-02
1.4099183e+00,-1.9703840e-04,-1.4282932e-04,-1.3438539e-05,-1.3202350e-03,1.2784938e-02,-1.3157108e-03,3.0012387e-04,-5.5730129e-04,-4.6767801e-04,7.2933933e-03,-8.9838820e-02,-1.1332848e-02
1.4199183e+00,-2.1437020e-04,-1.3365125e-04,-8.7207194e-06,-1.7336125e-03,9.1945328e-04,-1.7318782e-03,3.2170215e-04,-6.2803568e-04,-4.1907459e-04,2.1578306e-03,-7.0734451e-03,4.8603473e-03
1.4299183e+00,-2.9188858e-04,-3.8759412e-04,-7.2382027e-05,-7.7546503e-03,-2.5406481e-02,-7.7090479e-03,-9.9897174e-05,1.4745333e-03,-6.8930068e-04,-4.2159973e-02,2.1025710e-01,-2.7022635e-02
1.4399183e+00,-2.5229010e-04,-4.7537768e-04,-5.9029868e-05,3.9568182e-03,-8.7742014e-03,3.9720916e-03,2.7956796e-04,1.3284957e-03,1.4640599e-04,3.7946549e-02,-1.4603774e-02,8.3570746e-02
1.4499183e+00,-1.0171668e-04,-2.2674217e-04,-1.8133608e-05,1.5058086e-02,2.4852011e-02,1.5075703e-02,3.8871198e-04,-3.7872468e-04,5.9310672e-04,1.0914412e-02,-1.7072220e-01,4.4670116e-02
1.4599183e+00,-9.8959248e-05,-2.0412175e-04,4.9792616e-05,2.7705847e-04,2.2616568e-03,2.7760405e-04,6.3093858e-04,-7.7269204e-04,4.0709527e-04,2.4222684e-02,-3.9396773e-02,-1.8601163e-02
1.4699183e+00,-1.6487800e-04,-1.1925291e-04,-3.8052648e-05,-6.5941504e-03,8.4953041e-03,-6.5787640e-03,1.4944289e-04,-1.1281299e-03,-5.3671032e-04,-4.8149615e-02,-3.5543820e-02,-9.4380649e-02
1.4799182e+00,-2.3059141e-04,-1.3118165e-04,-1.0556232e-04,-6.5803646e-03,-1.1926051e-03,-6.5623666e-03,-1.7886228e-04,-2.2027936e-04,-1.4056992e-03,-3.2830548e-02,9.0785140e-02,-8.6898968e-02
1.4899182e+00,-1.7744387e-04,2.4645848e-05,-1.2262849e-04,5.3143428e-03,1.5576430e-02,5.3337110e-03,-3.6660918e-04,-1.5563476e-03,-9.9716372e-04,-1.8774709e-02,-1.3360695e-01,4.0853584e-02
1.4999182e+00,-2.1654511e-04,-3.5524803e-04,-8.7340134e-05,-3.8934015e-03,-3.7997383e-02,-3.8490092e-03,-5.4265410e-04,1.5066803e-03,-9.9523030e-04,-1.7604508e-02,3.0630308e-01,1.9334272e-04
1.5099182e+00,-1.9235111e-04,-3.4150487e-04,-1.4029279e-04,2.4205808e-03,1.3764254e-03,2.4170244e-03,-1.5849209e-05,8.5609024e-04,-4.9613322e-04,5.2680539e-02,-6.5059069e-02,4.9909755e-02
1.5199182e+00,-1.7399313e-04,-2.9680031e-04,-8.5696383e-05,1.8362568e-03,4.4715758e-03,1.8326232e-03,1.7762116e-05,6.2603660e-04,-2.0568745e-04,3.3611357e-03,-2.3005386e-02,2.9044605e-02
1.5299182e+00,-1.5635349e-04,-1.6470508e-04,-8.0815399e-06,1.7713276e-03,1.3207360e-02,1.7728562e-03,5.3609914e-04,-6.9446457e-04,-1.5913017e-04,5.1833752e-02,-1.3205024e-01,4.6557321e-03
1.5399182e+00,-2.6493628e-04,-3.7088203e-04,-1.2540520e-04,-1.0864375e-02,-2.0629358e-02,-1.0830050e-02,-5.4872589e-05,1.0191045e-03,-6.6489035e-04,-5.9097229e-02,1.7135707e-01,-5.0576066e-02
1.5499182e+00,-2.4647314e-04,-3.6973126e-04,-8.6697413e-05,1.8455040e-03,1.1564119e-04,1.8470916e-03,4.0936033e-04,7.1451919e-04,4.6489654e-04,4.6423337e-02,-3.0458563e-02,1.1297880e-01
1.5599182e+00,-2.4871271e-04,-3.7975234e-04,-9.4818568e-05,-2.2424187e-04,-1.0022223e-03,-2.2316399e-04,3.8664876e-04,8.9366464e-04,4.5757464e-04,-2.2711594e-03,1.7914561e-02,-7.3219021e-04
1.5699182e+00,-2.1627439e-04,-3.8767252e-04,-8.4030462e-05,3.2418261e-03,-7.8972971e-04,3.2464009e-03,3.2522005e-04,1.0303472e-03,5.3976594e-04,-6.1428770e-03,1.3668266e-02,8.2191376e-03
1.5799181e+00,-1.7136889e-04,-3.2209697e-04,-3.2418239e-05,4.4884200e-03,6.5597999e-03,4.4894186e-03,-5.5842601e-05,4.4260427e-04,3.9366018e-04,-3.8106302e-02,-5.8774346e-02,-1.4610590e-02
1.5899181e+00,-1.7087992e-04,-1.8881557e-04,5.0746486e-06,5.4988764e-05,1.3328109e-02,5.4310058e-05,4.5541325e-04,-4.0804115e-04,-4.5556389e-04,5.1125634e-02,-8.5064624e-02,-8.4922488e-02
1.5999181e+00,-1.5312778e-04,-1.8854743e-04,-5.4692053e-06,1.7759970e-03,2.5106440e-05,1.7744598e-03,4.9722561e-04,-4.6476007e-04,-4.3260503e-04,4.1812398e-03,-5.6718965e-03,2.2958887e-03
1.6099181e+00,-1.9784438e-04,-2.9661306e-04,-2.0074701e-05,-4.4799566e-03,-1.0806861e-02,-4.4626600e-03,4.7484017e-04,5.4027824e-04,-7.0711921e-04,-2.2385457e-03,1.0050393e-01,-2.7451445e-02
1.6199183e+00,-2.5686831e-04,-3.7978243e-04,-9.3060493e-05,-5.9051842e-03,-8.3255277e-03,-5.8869326e-03,-2.0104642e-04,1.2888093e-03,-7.7935839e-04,-6.7587112e-02,7.4851388e-02,-7.2237527e-03
1.6299183e+00,-2.3474850e-04,-2.5232679e-04,-1.6595713e-05,2.2167550e-03,1.2745117e-02,2.2098583e-03,2.4612526e-04,3.8240398e-05,-7.3916823e-04,4.4717210e-02,-1.2505700e-01,4.0190198e-03
1.6399183e+00,-1.4762822e-04,-2.7038692e-04,4.1998824e-05,8.7064226e-03,-1.8222672e-03,8.7142640e-03,1.1276860e-03,-7.3766589e-04,4.0988625e-04,8.8156153e-02,-7.7590702e-02,1.1490556e-01
1.6499183e+00,-1.1478115e-04,-4.2763181e-04,-2.4912996e-05,3.2756663e-03,-1.5723375e-02,3.2991115e-03,4.7263696e-04,8.1372029e-04,4.9030976e-04,-6.5504962e-02,1.5513877e-01,8.0423585e-03
1.6599183e+00,-1.7337296e-04,-4.4600534e-04,-5.8599081e-05,-5.8583000e-03,-1.8406772e-03,-5.8590302e-03,4.3965344e-04,1.0064856e-03,2.8902074e-04,-3.2983550e-03,1.9276547e-02,-2.0128922e-02
1.6699183e+00,-1.3824941e-04,-1.5553588e-04,-3.7289513e-06,3.5350022e-03,2.9039350e-02,3.5524574e-03,8.3636268e-04,-1.3235496e-03,4.6951870e-04,3.9670962e-02,-2.3300374e-01,1.8049814e-02
1.6799183e+00,-1.9918308e-04,-3.1214209e-04,-5.5574852e-05,-6.0939749e-03,-1.5660235e-02,-6.0938028e-03,1.5241672e-04,8.6526385e-05,2.9286102e-04,-6.8394661e-02,1.4100774e-01,-1.7665785e-02
1.6899183e+00,-2.9781037e-04,-4.6822260e-04,-1.2443536e-04,-9.8704023e-03,-1.5625921e-02,-9.8267333e-03,-4.9908378e-05,1.7645126e-03,-8.5634725e-04,-2.0232529e-02,1.6779878e-01,-1.1492094e-01
1.6999183e+00,-2.9627578e-04,-5.1093414e-04,-1.2190283e-04,1.5183311e-04,-4.2708340e-03,1.6376530e-04,4.0225960e-04,2.4343803e-03,-6.0041034e-04,4.5216841e-02,6.6986834e-02,2.5593715e-02
1.7099183e+00,-1.7706557e-04,-1.6452701e-04,-6.2625707e-06,1.1935493e-02,3.4633161e-02,1.1928601e-02,2.5060728e-04,-3.8560823e-04,-4.8496585e-04,-1.5165247e-02,-2.8199912e-01,1.1544460e-02
1.7199183e+00,-2.0728573e-04,-2.7734520e-04,-7.7126525e-05,-3.0206980e-03,-1.1284564e-02,-3.0131188e-03,-2.4253638e-04,6.6343922e-04,-4.6837054e-04,-4.9314413e-02,1.0490484e-01,1.6595320e-03
1.7299182e+00,-3.2873592e-04,-5.1148281e-04,-1.3501804e-04,-1.2159756e-02,-2.3436404e-02,-1.2086524e-02,3.8823732e-04,2.2568935e-03,-4.6422643e-04,6.3077430e-02,1.5934558e-01,4.1441204e-04
1.7399182e+00,-3.2368733e-04,-5.0445093e-04,-1.1224190e-04,5.0529097e-04,7.0366002e-04,5.0377041e-04,8.2827604e-04,1.7643925e-03,2.9935706e-04,4.4003914e-02,-4.9250142e-02,7.6358422e-02
1.7499182e+00,-2.7390121e-04,-2.5558510e-04,-8.1927108e-05,4.9778705e-03,2.4891250e-02,4.9560995e-03,-1.0194422e-04,8.3277024e-04,-3.5974519e-04,-9.3022114e-02,-9.3162316e-02,-6.5910288e-02
1.7599182e+00,-1.3265334e-04,-1.8383458e-04,3.1273287e-06,1.4118685e-02,7.1613556e-03,1.4137863e-02,5.4666111e-04,-4.2306075e-04,7.1026145e-04,6.4860594e-02,-1.2558322e-01,1.0700077e-01
1.7699182e+00,-2.4935070e-04,-5.2532041e-04,-6.0944340e-05,-1.1687259e-02,-3.4161279e-02,-1.1615029e-02,6.5277338e-04,1.7423208e-03,4.0924779e-04,1.0611238e-02,2.1653836e-01,-3.0101394e-02
1.7799182e+00,-2.1995106e-04,-5.0774703e-04,-3.8808738e-05,2.9395169e-03,1.7599311e-03,2.9388653e-03,4.1202269e-04,1.2937081e-03,3.9903637e-04,-2.4075092e-02,-4.4861315e-02,-1.0211436e-03
1.7899182e+00,-2.0309764e-04,-2.8057983e-04,1.6201519e-05,1.6956590e-03,2.2716376e-02,1.6799261e-03,4.1781162e-04,2.0197580e-04,-4.8922100e-04,5.7889363e-04,-1.0917333e-01,-8.8825821e-02
1.7999182e+00,-2.1918949e-04,-3.6355196e-04,-7.8095544e-05,-1.6124390e-03,-8.2981774e-03,-1.6009794e-03,2.2591429e-04,8.2267853e-04,-8.5676446e-04,-1.9189751e-02,6.2070332e-02,-3.6754381e-02
1.8099182e+00,4.8594564e-06,-3.3187702e-04,1.6715626e-04,2.2410811e-02,3.1691655e-03,2.2398784e-02,5.9781717e-04,6.7245275e-04,-1.7877070e-04,3.7190323e-02,-1.5022593e-02,6.7799441e-02
1.8199182e+00,-7.3761590e-05,-7.8032151e-05,-7.1632334e-05,-7.8712411e-03,2.5393510e-02,-7.8238244e-03,7.5351083e-06,-1.1405214e-03,-1.1861634e-03,-5.9028262e-02,-1.8129759e-01,-1.0073936e-01
1.8299181e+00,-1.6531792e-04,-2.9554388e-04,-5.6207015e-05,-9.1514245e-03,-2.1762500e-02,-9.1329615e-03,-5.6902876e-04,6.6744635e-04,-8.9176068e-04,-5.7656441e-02,1.8079695e-01,2.9440298e-02
1.8399181e+00,-2.2680400e-04,-1.5809059e-04,-1.2343389e-04,-6.1722999e-03,1.3738048e-02,-6.1411790e-03,-1.1904187e-03,-5.7338893e-06,-1.1924867e-03,-6.2139049e-02,-6.7318089e-02,-3.0072630e-02
1.8499181e+00,-2.2449889e-04,-4.1236984e-04,-6.8336703e-05,2.2600762e-04,-2.5427700e-02,2.6058169e-04,1.7382562e-04,1.1793419e-03,3.6336673e-04,1.3642456e-01,1.1850770e-01,1.5558549e-01
1.8599181e+00,-2.2289530e-04,-4.7526985e-04,-5.8875605e-07,1.5318295e-04,-6.2899968e-03,1.6760666e-04,1.1299037e-03,1.1417818e-03,4.2916484e-04,9.5607900e-02,-3.7560151e-03,6.5798169e-03
1.8699183e+00,-2.7774092e-04,-4.7556238e-04,-1.0307103e-04,-5.4834361e-03,-3.8235675e-05,-5.4853815e-03,3.2981748e-04,1.9674517e-03,1.8409869e-04,-8.0006791e-02,8.2565096e-02,-2.4506054e-02
1.8799183e+00,-3.0357526e-04,-3.1362717e-04,-1.7983001e-04,-2.5864806e-03,1.6190270e-02,-2.6008070e-03,-1.1208449e-04,1.1488110e-03,-4.7591885e-04,-4.4190239e-02,-8.1864151e-02,-6.6001817e-02
1.8899183e+00,-3.3452039e-04,-4.6165505e-04,-1.6015568e-04,-3.1056762e-03,-1.4805945e-02,-3.0681899e-03,6.5670960e-04,1.6807218e-03,-4.6549614e-04,7.6879483e-02,5.3191132e-02,1.0422713e-03
1.8999183e+00,-2.6607585e-04,-3.7291018e-04,-5.2638679e-05,6.8550390e-03,8.8772489e-03,6.8302887e-03,9.4072624e-04,1.3451627e-03,-3.2632286e-04,2.8401690e-02,-3.3555940e-02,1.3917342e-02
1.9099183e+00,-2.6815681e-04,-4.8612344e-04,-1.0229692e-04,-2.1543894e-04,-1.1321614e-02,-1.8423383e-04,6.4580596e-04,2.1048429e-03,-1.5106883e-04,-2.9492055e-02,7.5968089e-02,1.7525419e-02
1.9199183e+00,-2.6385594e-04,-4.2293578e-04,-4.7090099e-05,4.3019868e-04,6.3194188e-03,4.2037243e-04,-2.3281020e-05,1.4963364e-03,-6.0213563e-04,-6.6908762e-02,-6.0850708e-02,-4.5106723e-02
1.9299183e+00,-2.0852453e-04,-2.5558451e-04,-3.0415689e-05,5.5496815e-03,1.6727082e-02,5.5409557e-03,8.3163010e-04,-6.2384990e-04,-4.7350048e-04,8.5491193e-02,-2.1201883e-01,1.2863527e-02
1.9399183e+00,-6.1532201e-05,-3.8643682e-04,1.9070750e-04,1.4681535e-02,-1.3087291e-02,1.4715117e-02,6.3270642e-04,4.9280657e-04,6.4133679e-04,-1.9892387e-02,1.1166575e-01,1.1148383e-01
1.9499183e+00,-1.1118688e-04,1.4806723e-05,-1.0554537e-04,-4.9587577e-03,4.0137428e-02,-4.8658322e-03,2.4801975e-04,-2.4022947e-03,-6.5209815e-04,-3.8468704e-02,-2.8951040e-01,-1.2934362e-01
1.9599183e+00,-1.2917167e-04,-6.5154230e-05,-3.0631351e-05,-1.8030782e-03,-7.9920228e-03,-1.8119623e-03,4.2762997e-04,-1.8343411e-03,-6.5545802e-04,1.7961039e-02,5.6795410e-02,-3.3598735e-04
1.9699183e+00,-1.1442763e-04,8.5263610e-05,-9.1675872e-05,1.4710816e-03,1.5039035e-02,1.5055803e-03,-3.6533873e-04,-2.2168157e-03,-1.4742615e-03,-7.9296945e-02,-3.8247500e-02,-8.1880428e-02
1.9799182e+00,-1.5348549e-04,-2.2015473e-04,-2.1354530e-05,-3.9159371e-03,-3.0539727e-02,-3.9123279e-03,2.1353215e-04,-3.3311079e-04,-9.2873504e-04,5.7887143e-02,1.8837067e-01,5.4552700e-02
1.9899182e+00,-1.3633666e-04,-3.4481861e-04,-1.0482647e-04,1.7095254e-03,-1.2466417e-02,1.7201052e-03,4.3191770e-04,4.2074553e-04,-1.4673159e-05,2.1838576e-02,7.5385704e-02,9.1406275e-02
1.9999182e+00,-2.9251401e-04,-4.5578639e-04,-1.4535581e-04,-1.5629107e-02,-1.1127416e-02,-1.5584561e-02,1.3025443e-04,2.0942611e-03,-6.3486875e-04,-3.0166356e-02,1.6735172e-01,-6.2019619e-02
2.0099182e+00,-3.1122170e-04,-3.4187626e-04,-1.5805735e-04,-1.8736161e-03,1.1388106e-02,-1.8856316e-03,-1.5297135e-04,1.4017457e-03,-5.8960562e-04,-2.8322605e-02,-6.9251606e-02,4.5263180e-03
2.0199182e+00,-3.6727947e-04,-5.4990009e-04,-1.3972748e-04,-5.6205240e-03,-2.0811735e-02,-5.5561698e-03,5.6983130e-04,2.2454449e-03,-5.1531644e-04,7.2280334e-02,8.4369997e-02,7.4289247e-03
2.0299182e+00,-3.4100277e-04,-5.8181669e-04,-1.3927449e-04,2.6285649e-03,-3.1847741e-03,2.6351282e-03,2.4168333e-04,2.8598604e-03,-6.3314542e-04,-3.2814828e-02,6.1441610e-02,-1.1782909e-02
2.0399182e+00,-2.6306905e-04,-5.2509293e-04,-1.2486248e-04,7.7988358e-03,5.6879408e-03,7.7765623e-03,4.5379426e-04,2.4534494e-03,-3.7003312e-04,2.1211113e-02,-4.0641140e-02,2.6311255e-02
2.0499182e+00,-2.4842053e-04,-3.5420857e-04,-1.0059936e-04,1.4663814e-03,1.7090610e-02,1.4378980e-03,5.3836637e-05,1.5416413e-03,-4.1548478e-04,-3.9995800e-02,-9.1180889e-02,-4.5451701e-03
2.0599182e+00,-2.0615620e-04,-6.5391706e-05,1.0847251e-05,4.2280611e-03,2.8878081e-02,4.2495712e-03,-1.7999757e-05,-8.7526467e-04,-5.0723634e-04,-7.1836463e-03,-2.4169083e-01,-9.1751648e-03
2.0699182e+00,-2.8980336e-04,-2.9540321e-04,-3.9885510e-05,-8.3813207e-03,-2.3000466e-02,-8.3500412e-03,4.1217023e-04,3.2839009e-04,-8.5114070e-04,4.3017040e-02,1.2036559e-01,-3.4390469e-02
2.0799181e+00,-2.0288339e-04,-2.7214368e-04,-4.8271394e-05,8.6963050e-03,2.3212874e-03,8.6889528e-03,4.1469514e-04,-1.2227006e-04,-3.8379807e-04,2.5249125e-04,-4.5066058e-02,4.6734307e-02
2.0899181e+00,-1.9008738e-04,-3.4654012e-04,6.5369643e-07,1.2754742e-03,-7.4398229e-03,1.2827215e-03,6.5130557e-04,5.1537379e-04,-5.6097731e-04,2.3661065e-02,6.3764446e-02,-1.7717940e-02
2.0999181e+00,-8.1031095e-05,-1.0161573e-04,-2.7285126e-06,1.0923240e-02,2.4473740e-02,1.0930029e-02,3.2959484e-04,-1.3861521e-03,-8.7416603e-04,-3.2171104e-02,-1.9015277e-01,-3.1318902e-02
2.1099181e+00,-1.0685169e-04,-1.6136517e-04,1.7306411e-05,-2.5873367e-03,-5.9712320e-03,-2.5853802e-03,4.4704865e-04,-9.9246187e-04,-1.0089608e-03,1.1745392e-02,3.9369065e-02,-1.3479491e-02
2.1199183e+00,-5.5772433e-05,-1.4235598e-04,1.7264034e-05,5.1082362e-03,1.8851936e-03,5.1131905e-03,9.2024165e-04,-2.1484119e-03,2.5832495e-04,4.7318218e-02,-1.1559236e-01,1.2672568e-01
2.1299183e+00,-1.8558642e-04,-4.4048334e-04,-7.7733837e-05,-1.2987482e-02,-2.9819422e-02,-1.2960031e-02,2.9527087e-04,8.0876354e-04,2.1037395e-04,-6.2497138e-02,2.9571783e-01,-4.7951049e-03
2.1399183e+00,-1.7464192e-04,-3.2343198e-04,-7.1553272e-05,1.0955498e-03,1.1705214e-02,1.0926334e-03,1.3681144e-04,1.9816484e-04,4.5854342e-04,-1.5845958e-02,-6.1059929e-02,2.4816970e-02
2.1499183e+00,-2.8208685e-04,-3.9265515e-04,-1.4308520e-04,-1.0751432e-02,-6.9351842e-03,-1.0729267e-02,4.0056396e-04,1.5990039e-03,-3.8700040e-04,2.6375277e-02,1.4008404e-01,-8.4554462e-02
2.1599183e+00,-2.7340242e-04,-4.8884274e-04,-1.7933346e-04,8.6221910e-04,-9.6175273e-03,8.8816639e-04,6.7103731e-04,2.0743320e-03,-2.6542257e-04,2.7047362e-02,4.7532857e-02,1.2157795e-02
2.1699183e+00,-3.5533039e-04,-6.1928130e-04,-1.6064966e-04,-8.2019633e-03,-1.3067275e-02,-8.1462085e-03,2.4881982e-04,3.1158530e-03,-7.2204095e-04,-4.2221789e-02,1.0415220e-01,-4.5661882e-02
2.1799183e+00,-3.7310972e-04,-5.0009924e-04,-1.1902097e-04,-1.7798862e-03,1.1913494e-02,-1.8073955e-03,-4.8965243e-05,2.5872891e-03,-7.6951549e-04,-2.9778535e-02,-5.2856441e-02,-4.7474583e-03
2.1899183e+00,-3.0632604e-04,-3.6884244e-04,-1.1564480e-04,6.6824695e-03,1.3135383e-02,6.6551847e-03,4.7572461e-05,1.5016629e-03,-5.1978423e-04,9.6537796e-03,-1.0856272e-01,2.4973150e-02
2.1999183e+00,-2.6895033e-04,-3.3977534e-04,-1.0974935e-04,3.7393352e-03,2.9107152e-03,3.7326963e-03,8.2639485e-05,1.1544042e-03,-4.0680907e-04,3.5067058e-03,-3.4725907e-02,1.1297526e-02
2.2099183e+00,-2.7380977e-04,-4.1923731e-04,-1.2957888e-04,-4.8724754e-04,-7.9467947e-03,-4.7486507e-04,1.2684598e-04,1.3571824e-03,-6.0614813e-04,4.4206541e-03,2.0277845e-02,-1.9933924e-02
2.2199183e+00,-2.4634713e-04,-4.7333843e-04,-6.1134139e-05,2.7438163e-03,-5.4078820e-03,2.7531107e-03,3.3808162e-04,1.1504171e-03,2.2621809e-04,2.1123584e-02,-2.0676557e-02,8.3236701e-02
2.2299182e+00,-2.4059949e-04,-3.7709412e-04,-9.7616450e-05,5.7527880e-04,9.6250413e-03,5.6409100e-04,1.9402614e-05,1.0748723e-03,-5.7031331e-04,-3.1867931e-02,-7.5544795e-03,-7.9653216e-02
2.2399182e+00,-2.3509732e-04,-3.3834081e-04,4.4121933e-06,5.5331284e-04,3.8752358e-03,5.4779876e-04,7.1241378e-04,5.3732425e-04,-6.0841348e-04,6.9301183e-02,-5.3754861e-02,-3.8100207e-03
2.2499182e+00,-2.3951076e-04,-4.3105153e-04,-1.1806243e-04,-4.4234736e-04,-9.2716559e-03,-4.2805806e-04,7.8486701e-05,1.4031666e-03,-6.2529268e-04,-6.3392768e-02,8.6584315e-02,-1.6879215e-03
2.2599182e+00,-1.9153960e-04,-6.1682187e-04,1.6952312e-05,4.7968025e-03,-1.8562799e-02,4.8522906e-03,4.8816210e-05,3.0026040e-03,-1.2271325e-04,-2.9670519e-03,1.5994389e-01,5.0257990e-02
2.2699182e+00,-1.5097794e-04,-1.2573656e-04,-4.8650110e-05,4.0533948e-03,4.9105476e-02,4.0962880e-03,-1.7351870e-04,-9.3388993e-04,-1.4177284e-03,-2.2233512e-02,-3.9364977e-01,-1.2950163e-01
2.2799182e+00,-1.2648897e-05,-2.1112331e-04,5.8239364e-05,1.3848498e-02,-8.5367810e-03,1.3818495e-02,-9.8922804e-05,3.8585711e-05,-1.0658210e-03,7.4595970e-03,9.7247657e-02,3.5190768e-02
2.2899182e+00,6.5321570e-05,-4.0010126e-04,6.1193933e-05,7.7921050e-03,-1.8890819e-02,7.8189188e-03,3.2509129e-04,1.2203256e-03,-1.5325202e-04,4.2401450e-02,1.1817410e-01,9.1256985e-02
2.2999182e+00,5.4690811e-05,-5.6200708e-04,-3.0047047e-05,-1.0622120e-03,-1.6193260e-02,-1.0226194e-03,-6.5743223e-05,2.4863062e-03,-1.8769798e-04,-3.9083489e-02,1.2659818e-01,-3.4445984e-03
2.3098738e+00,1.3490460e-05,-2.7519651e-04,-1.7200981e-04,-4.1461213e-03,2.8806222e-02,-4.1488574e-03,-3.1804997e-04,3.1352112e-04,3.4600428e-04,-2.5343085e-02,-2.1824655e-01,5.3608006e-02
2.3198738e+00,-3.9779851e-05,-4.6078834e-04,-1.7150704e-04,-5.3250983e-03,-1.8568115e-02,-5.2978295e-03,-1.0478940e-04,1.5729237e-03,-1.3126840e-06,2.1326078e-02,1.2594038e-01,-3.4731730e-02
2.3298738e+00,-2.3566376e-04,-2.9014568e-04,-2.6582804e-04,-1.9593743e-02,1.7059146e-02,-1.9587550e-02,-7.4532792e-05,1.8774674e-04,-2.0737737e-04,3.0256633e-03,-1.3851783e-01,-2.0606488e-02
2.3398738e+00,-6.3133699e-04,-6.8244255e-04,-1.5501128e-04,-3.9601932e-02,-3.9279017e-02,-3.9483784e-02,1.0525652e-03,2.3011326e-03,1.6928256e-04,1.1270990e-01,2.1133879e-01,3.7666029e-02
2.3498738e+00,-1.1030568e-03,-7.1650548e-04,-2.5307579e-05,-4.7183369e-02,-3.4347294e-03,-4.7158610e-02,8.8505848e-04,1.4881890e-03,-1.7703850e-04,-1.6750686e-02,-8.1294439e-02,-3.4632140e-02
2.3598738e+00,-1.4108041e-03,-8.8425070e-04,1.3620608e-04,-3.0783979e-02,-1.6769961e-02,-3.0768039e-02,1.5346616e-03,1.3863386e-03,5.3569722e-04,6.4960369e-02,-1.0185055e-02,7.1273640e-02
2.3698740e+00,-1.7183636e-03,-1.1352568e-03,1.3561680e-04,-3.0785442e-02,-2.5118433e-02,-3.0709983e-02,1.9459231e-03,2.5466046e-03,6.0417133e-04,4.1125217e-02,1.1602395e-01,6.8472549e-03
2.3798740e+00,-1.7397440e-03,-8.8439852e-04,3.6966176e-04,-2.0436025e-03,2.5093570e-02,-2.1398867e-03,3.5443204e-03,-1.3680865e-04,2.5773931e-03,1.5983988e-01,-2.6834159e-01,1.9732237e-01
2.3898740e+00,-2.3382742e-03,-1.1776664e-03,-4.0856151e-05,-5.9852268e-02,-2.9520344e-02,-5.9758676e-02,1.4099855e-03,4.6459500e-03,7.0317623e-04,-2.1343370e-01,4.7827632e-01,-1.8742187e-01
2.3998740e+00,-2.9846292e-03,-9.5368603e-04,-7.8812222e-05,-6.4546437e-02,2.2457191e-02,-6.4704054e-02,2.2216528e-03,1.3047845e-03,6.0625041e-04,8.1166801e-02,-3.3411686e-01,-9.6925910e-03
2.4098740e+00,-3.6366745e-03,-1.1425256e-03,5.0328880e-05,-6.5209323e-02,-1.8832405e-02,-6.5214787e-02,2.4925614e-03,1.7018980e-03,6.4609728e-04,2.7090895e-02,3.9711390e-02,3.9846904e-03
2.4198740e+00,-3.9820588e-03,-1.2854541e-03,1.1016420e-04,-3.4546976e-02,-1.4282930e-02,-3.4534062e-02,2.0556647e-03,1.7685205e-03,6.0196460e-04,-4.3689711e-02,6.6622531e-03,-4.4132719e-03
2.4298739e+00,-4.1778302e-03,-1.2175145e-03,5.2591070e-04,-1.9519698e-02,6.7505895e-03,-1.9649400e-02,1.2576990e-03,3.4622536e-03,2.4945809e-03,-7.9796654e-02,1.6937347e-01,1.8926181e-01
2.4398739e+00,-4.5733862e-03,-9.6897545e-04,9.5080335e-05,-3.9515489e-02,2.4897944e-02,-3.9568074e-02,1.9423072e-03,8.2835636e-04,-2.0744114e-04,6.8460884e-02,-2.6338998e-01,-2.7020246e-01
2.4498739e+00,-4.7606634e-03,-1.0976696e-03,1.8678246e-04,-1.8731720e-02,-1.2875566e-02,-1.8719536e-02,2.0053009e-03,2.3334110e-03,1.1626539e-03,6.2993831e-03,1.5050561e-01,1.3700964e-01
2.4598739e+00,-5.4493263e-03,-1.6626501e-03,-3.3254149e-05,-6.8925253e-02,-5.6750373e-02,-6.8599489e-02,2.7245989e-03,6.3988916e-03,1.3753903e-03,7.1929868e-02,4.0654845e-01,2.1273653e-02
2.4698739e+00,-6.2493818e-03,-1.7143709e-03,-8.9845234e-05,-7.9981158e-02,-5.3119022e-03,-8.0020925e-02,3.2269391e-03,4.9730389e-03,5.0907643e-04,5.0234062e-02,-1.4258541e-01,-8.6631467e-02
2.4798739e+00,-6.8727137e-03,-1.5336850e-03,1.5264415e-04,-6.2218403e-02,1.8189584e-02,-6.2412755e-02,3.9651927e-03,2.0201383e-03,6.8497199e-04,7.3825429e-02,-2.9529034e-01,1.7589573e-02
2.4898739e+00,-7.5513840e-03,-1.6900132e-03,2.7340254e-04,-6.7894273e-02,-1.5487759e-02,-6.7873190e-02,3.9920775e-03,1.8556873e-03,5.1111109e-04,2.6884899e-03,-1.6445118e-02,-1.7386107e-02
2.4998739e+00,-7.9117004e-03,-1.8751742e-03,2.3621055e-04,-3.6056858e-02,-1.8490292e-02,-3.6019724e-02,3.4693970e-03,2.7547774e-03,1.0771033e-03,-5.2268098e-02,8.9909099e-02,5.6599275e-02
2.5098739e+00,-8.1945933e-03,-1.8521430e-03,8.1983823e-05,-2.8254670e-02,2.3387191e-03,-2.8321018e-02,3.8183519e-03,2.5569610e-03,9.0640184e-04,3.4895518e-02,-1.9781658e-02,-1.7070163e-02
2.5198739e+00,-8.6183541e-03,-1.9984902e-03,1.0132166e-04,-4.2369984e-02,-1.4665513e-02,-4.2371608e-02,3.3542318e-03,4.0800548e-03,1.2966495e-03,-4.6412056e-02,1.5230952e-01,3.9024804e-02
2.5298738e+00,-9.4649697e-03,-2.2048868e-03,6.4461359e-05,-8.4681177e-02,-2.0724024e-02,-8.4621488e-02,3.4800183e-03,4.4773706e-03,6.1138615e-04,1.2578663e-02,3.9731614e-02,-6.8526401e-02
2.5398738e+00,-1.0318402e-02,-1.8341212e-03,3.0237775e-04,-8.5093244e-02,3.7630870e-02,-8.5350490e-02,5.6631996e-03,-8.3817429e-04,4.5412457e-04,2.1831834e-01,-5.3155499e-01,-1.5726173e-02
2.5498738e+00,-1.1364631e-02,-2.3750003e-03,2.3438151e-04,-1.0493377e-01,-5.3838451e-02,-1.0444015e-01,4.9299070e-03,2.5540675e-03,-4.3469780e-04,-7.3329333e-02,3.3922450e-01,-8.8882322e-02
2.5598738e+00,-1.2049509e-02,-2.2845555e-03,3.0372347e-04,-6.8492391e-02,9.2483392e-03,-6.8456163e-02,4.6016162e-03,1.6246407e-03,-6.8418695e-04,-3.2829109e-02,-9.2942766e-02,-2.4948939e-02
2.5698738e+00,-1.2297051e-02,-2.5992416e-03,3.7108551e-04,-2.4881225e-02,-3.1472014e-02,-2.4622334e-02,4.0742863e-03,4.2323132e-03,4.2184408e-05,-5.2733047e-02,2.6076750e-01,7.2637205e-02
2.5798738e+00,-1.2545687e-02,-2.3091597e-03,-9.6658658e-08,-2.4760355e-02,2.9053381e-02,-2.4913921e-02,3.9661814e-03,2.1388969e-03,-4.8135197e-04,-1.0810495e-02,-2.0934183e-01,-5.2353687e-02
2.5898738e+00,-1.2703198e-02,-2.8251603e-03,1.4635830e-04,-1.5913208e-02,-5.1690089e-02,-1.5286114e-02,3.4069221e-03,9.2717242e-03,8.5876653e-04,-5.5925990e-02,7.1328342e-01,1.3401198e-01
2.5998738e+00,-1.3659152e-02,-2.4433720e-03,-2.6104693e-05,-9.5472184e-02,3.8381865e-02,-9.5637509e-02,4.4419028e-03,2.3144927e-03,-4.9363896e-04,1.0349818e-01,-6.9572382e-01,-1.3524068e-01
2.6098738e+00,-1.4629014e-02,-2.4512455e-03,2.3518394e-04,-9.7048832e-02,-2.3453512e-04,-9.6926657e-02,6.2335917e-03,5.3408536e-04,-6.1368662e-04,1.7916905e-01,-1.7804091e-01,-1.2004778e-02
2.6198740e+00,-1.5683588e-02,-2.8774122e-03,2.2678841e-04,-1.0593943e-01,-4.2115048e-02,-1.0517024e-01,6.4993558e-03,1.7645365e-03,-1.9901529e-03,2.6575801e-02,1.2304229e-01,-1.3764347e-01
2.6298740e+00,-1.6360064e-02,-3.0264788e-03,2.6553067e-04,-6.7816541e-02,-1.4603315e-02,-6.7544665e-02,6.4594734e-03,1.9821327e-03,-1.0945083e-03,-3.9882453e-03,2.1759646e-02,8.9564545e-02
2.6398740e+00,-1.6861322e-02,-3.0458937e-03,2.2656647e-04,-5.0162136e-02,-1.6596289e-03,-5.0099593e-02,7.2257770e-03,1.6043929e-03,-4.7099991e-04,7.6630435e-02,-3.7774014e-02,6.2350895e-02
2.6498740e+00,-1.7276588e-02,-3.5461792e-03,1.9996498e-04,-4.1864577e-02,-4.9994375e-02,-4.1227486e-02,6.7172645e-03,5.9420259e-03,-6.7597325e-05,-5.0851294e-02,4.3376371e-01,4.0340297e-02
2.6598740e+00,-1.7891918e-02,-3.0654364e-03,3.5883819e-04,-6.1150191e-02,4.8594268e-02,-6.1506249e-02,8.2700278e-03,-2.0676613e-04,-2.7368075e-04,1.5527647e-01,-6.1487979e-01,-2.0608362e-02
2.6698740e+00,-1.8858710e-02,-3.7409816e-03,1.9008530e-04,-9.7333284e-02,-6.7183188e-02,-9.6281048e-02,8.1994668e-03,4.3927376e-03,-1.0695351e-03,-7.0560990e-03,4.5995081e-01,-7.9585513e-02
2.6798739e+00,-1.9685008e-02,-3.8821436e-03,3.3828602e-04,-8.2813354e-02,-1.3699757e-02,-8.2516320e-02,8.8271694e-03,3.7977608e-03,-7.5108253e-04,6.2770321e-02,-5.9497739e-02,3.1845289e-02
2.6898739e+00,-2.0340363e-02,-3.8150610e-03,4.7888675e-04,-6.5524654e-02,7.0520312e-03,-6.5510353e-02,8.2028004e-03,2.9553786e-03,-7.0724305e-04,-6.2436965e-02,-8.4238294e-02,4.3839516e-03
2.6998739e+00,-2.0773075e-02,-3.1142700e-03,6.2208969e-04,-4.2704594e-02,7.0578063e-02,-4.3022591e-02,8.5245338e-03,-3.0739539e-03,-7.4711865e-04,3.2173368e-02,-6.0293383e-01,-3.9875632e-03
2.7098739e+00,-2.1395446e-02,-3.3551458e-03,4.4378536e-04,-6.2461206e-02,-2.3466426e-02,-6.2250003e-02,8.7286612e-03,-1.2374583e-03,-2.5994216e-04,2.0412765e-02,1.8364974e-01,4.8717696e-02
2.7198739e+00,-2.2006629e-02,-3.5393273e-03,3.1266626e-04,-6.1321665e-02,-1.7833583e-02,-6.1088028e-02,9.4561765e-03,-9.5432350e-05,-5.2209024e-04,7.2751597e-02,1.1420270e-01,-2.6214833e-02
2.7298739e+00,-2.2658022e-02,-3.6104735e-03,5.2586746e-04,-6.5163651e-02,-6.2682324e-03,-6.5201966e-02,1.1613785e-02,-1.3714467e-03,8.2764879e-04,2.1576105e-01,-1.2760156e-01,1.3497403e-01
2.7398739e+00,-2.3665208e-02,-3.9964438e-03,5.9199184e-04,-1.0112950e-01,-3.7566673e-02,-1.0069668e-01,1.0804630e-02,5.9650678e-04,3.5062289e-06,-8.0915561e-02,1.9679554e-01,-8.2414335e-02
2.7498739e+00,-2.4853291e-02,-4.2279312e-03,5.1235628e-04,-1.1908677e-01,-2.2077880e-02,-1.1873363e-01,1.0698090e-02,1.6962907e-03,-3.1539895e-04,-1.0654003e-02,1.0997849e-01,-3.1890548e-02
2.7598739e+00,-2.5692171e-02,-4.6093045e-03,9.1427049e-04,-8.4112856e-02,-3.7894439e-02,-8.3773024e-02,9.2561811e-03,6.3792723e-03,1.4846555e-03,-1.4419105e-01,4.6829861e-01,1.8000561e-01
2.7698739e+00,-2.6434085e-02,-4.5887745e-03,1.0225063e-03,-7.4020305e-02,2.3626510e-03,-7.4352920e-02,9.5948969e-03,5.4085328e-03,1.9926948e-03,3.3871615e-02,-9.7074043e-02,5.0803983e-02
2.7798738e+00,-2.7685674e-02,-4.1864991e-03,4.7241531e-04,-1.2479854e-01,4.1910279e-02,-1.2496664e-01,1.2124608e-02,-1.3455741e-03,-1.0909886e-03,2.5297133e-01,-6.7541133e-01,-3.0836864e-01
2.7898738e+00,-2.8762909e-02,-4.3795439e-03,5.7471529e-04,-1.0806747e-01,-1.7641312e-02,-1.0766447e-01,1.3266684e-02,-2.1589435e-03,-9.0275760e-04,1.1420776e-01,-8.1337023e-02,1.8823117e-02
2.7998738e+00,-2.9867205e-02,-4.7703211e-03,4.8625877e-04,-1.1103728e-01,-3.7763044e-02,-1.1027775e-01,1.1896565e-02,1.5976089e-05,-1.3639331e-03,-1.3701208e-01,2.1749217e-01,-4.6117593e-02
2.8098738e+00,-3.0831548e-02,-4.9913062e-03,5.3072262e-04,-9.6803619e-02,-2.0851216e-02,-9.6342123e-02,1.2683962e-02,-2.3253410e-04,-1.0034910e-03,7.8739757e-02,-2.4851043e-02,3.6044249e-02
2.8198738e+00,-3.1851856e-02,-5.1054589e-03,7.7359567e-04,-1.0224691e-01,-9.6933415e-03,-1.0199286e-01,1.4551931e-02,-2.3145392e-03,-5.9473817e-04,1.8679713e-01,-2.0820071e-01,4.0875317e-02
2.8298738e+00,-3.2649666e-02,-5.0701389e-03,6.9491536e-04,-7.9746992e-02,4.9242293e-03,-7.9741404e-02,1.4714809e-02,-2.7421430e-03,-3.3224504e-04,1.6287764e-02,-4.2760415e-02,2.6249338e-02
2.8398738e+00,-3.3643563e-02,-5.2633669e-03,6.6655560e-04,-9.9715055e-02,-1.7618721e-02,-9.9380647e-02,1.4856141e-02,-2.2692502e-03,-4.9514551e-04,1.4133203e-02,4.7289320e-02,-1.6290063e-02
2.8498738e+00,-3.4821313e-02,-5.6984890e-03,4.8948409e-04,-1.1848198e-01,-4.2012397e-02,-1.1761047e-01,1.3668490e-02,9.6888906e-04,-1.0466081e-03,-1.1876512e-01,3.2381424e-01,-5.5146307e-02
2.8598738e+00,-3.5901629e-02,-5.8752383e-03,8.2320251e-04,-1.0815817e-01,-1.5564758e-02,-1.0822979e-01,1.7911539e-02,-1.5934892e-03,1.5987982e-03,4.2430525e-01,-2.5623807e-01,2.6454088e-01
2.8698740e+00,-3.7465379e-02,-6.1827401e-03,8.8643566e-04,-1.5685947e-01,-2.7761090e-02,-1.5644162e-01,1.7914405e-02,-1.1654613e-03,2.4079783e-04,2.8657661e-04,4.2801808e-02,-1.3579693e-01
2.8798740e+00,-3.8727586e-02,-6.4195108e-03,1.0919317e-03,-1.2654722e-01,-2.1425376e-02,-1.2629635e-01,1.7158270e-02,-6.5410448e-04,4.8550507e-04,-7.5613598e-02,5.1135733e-02,2.4470748e-02
2.8898740e+00,-4.0223969e-02,-6.6945134e-03,5.8960620e-04,-1.5034691e-01,-2.5274365e-02,-1.4932046e-01,1.6009634e-02,1.1595417e-03,-1.9224953e-03,-1.1486368e-01,1.8136479e-01,-2.4080027e-01
2.8998740e+00,-4.1239669e-02,-6.7494599e-03,7.0992353e-04,-1.0177355e-01,-3.7514732e-03,-1.0144572e-01,1.6899920e-02,-2.5584381e-04,-1.2324143e-03,8.9028741e-02,-1.4153868e-01,6.9008168e-02
2.9098740e+00,-4.2042603e-02,-6.7712345e-03,8.7736469e-04,-8.0334306e-02,-6.2548547e-04,-8.0279654e-02,1.7749656e-02,-1.5761206e-03,-1.8515176e-04,8.4973607e-02,-1.3202780e-01,1.0472635e-01
2.9198740e+00,-4.2884164e-02,-6.5895949e-03,8.7024827e-04,-8.3858582e-02,1.9966591e-02,-8.4044806e-02,1.7630515e-02,-3.8271187e-03,-4.2433844e-04,-1.1914119e-02,-2.2510003e-01,-2.3918690e-02
2.9298739e+00,-4.4180896e-02,-6.9023119e-03,9.6089694e-04,-1.3025518e-01,-2.8328894e-02,-1.2976648e-01,1.9249148e-02,-3.4003852e-03,-3.0328946e-05,1.6186350e-01,4.2673392e-02,3.9400987e-02
2.9398739e+00,-4.5709902e-02,-7.0542304e-03,1.0169314e-03,-1.5327112e-01,-1.1605273e-02,-1.5284407e-01,1.9438662e-02,-4.0028794e-03,-6.8062990e-04,1.8951442e-02,-6.0249474e-02,-6.5030158e-02
2.9498739e+00,-4.7452474e-02,-7.4094822e-03,1.0698671e-03,-1.7517213e-01,-3.1786371e-02,-1.7406230e-01,1.9102688e-02,-2.3202409e-03,-1.5387141e-03,-3.3597493e-02,1.6826400e-01,-8.5808499e-02
2.9598739e+00,-4.8910744e-02,-7.8239629e-03,1.1595833e-03,-1.4686270e-01,-3.8014628e-02,-1.4572331e-01,2.0738883e-02,-2.7492891e-03,-1.4232892e-03,1.6361971e-01,-4.2904856e-02,1.1542499e-02
2.9698739e+00,-5.0044795e-02,-8.1803553e-03,1.1207449e-03,-1.1419912e-01,-3.3184758e-02,-1.1335333e-01,2.0697987e-02,-8.8047888e-04,-7.1085675e-04,-4.0896722e-03,1.8688120e-01,7.1243313e-02
2.9798739e+00,-5.0931500e-02,-8.4915203e-03,1.2488251e-03,-8.9256476e-02,-2.9122738e-02,-8.8759990e-02,2.1868710e-02,-5.3405382e-04,8.2679278e-04,1.1707242e-01,3.4642539e-02,1.5376510e-01
2.9898739e+00,-5.2144372e-02,-8.7001396e-03,1.3647295e-03,-1.2152256e-01,-1.7824478e-02,-1.2153588e-01,2.3803229e-02,-1.1915861e-03,1.8687472e-03,1.9345215e-01,-6.5753291e-02,1.0419555e-01
2.9998739e+00,-5.3804440e-02,-8.5846543e-03,1.2536871e-03,-1.6554824e-01,1.6225846e-02,-1.6607382e-01,2.3768035e-02,-4.4264215e-03,8.2735089e-04,-3.5194647e-03,-3.2348385e-01,-1.0413973e-01
3.0098739e+00,-5.5666701e-02,-9.1287244e-03,1.2620411e-03,-1.8749079e-01,-5.0144362e-02,-1.8615403e-01,2.2505442e-02,-3.1254242e-04,-4.6904605e-04,-1.2625938e-01,4.1138830e-01,-1.2963982e-01
3.0198739e+00,-5.7205588e-02,-9.8495620e-03,1.5960492e-03,-1.5543479e-01,-6.8818770e-02,-1.5382994e-01,2.3507222e-02,2.4171323e-03,6.8793636e-04,1.0017808e-01,2.7296773e-01,1.1569835e-01
3.0298738e+00,-5.8810341e-02,-9.7355653e-03,1.4817154e-03,-1.6017964e-01,1.5646870e-02,-1.6041299e-01,2.4745387e-02,-1.7457267e-03,-2.2075381e-04,1.2381663e-01,-4.1628629e-01,-9.0869104e-02
3.0398738e+00,-6.0314383e-02,-9.8985040e-03,1.4734454e-03,-1.5082964e-01,-1.2206737e-02,-1.5036578e-01,2.5156087e-02,-1.9873625e-03,-4.1891529e-04,4.1070024e-02,-2.4163600e-02,-1.9816167e-02
3.0498738e+00,-6.1775087e-02,-1.0171484e-02,1.5329207e-03,-1.4682020e-01,-2.3362896e-02,-1.4600130e-01,2.5294506e-02,-1.5891839e-03,-7.2586473e-04,1.3841970e-02,3.9817891e-02,-3.0694973e-02
3.0598738e+00,-6.3500180e-02,-1.0866940e-02,1.3080450e-03,-1.7428179e-01,-6.5312439e-02,-1.7238257e-01,2.6262336e-02,1.8601132e-03,-3.2585662e-05,9.6783043e-02,3.4493004e-01,6.9327973e-02
3.0698738e+00,-6.4862027e-02,-1.0518670e-02,1.7502389e-03,-1.3523093e-01,3.9063930e-02,-1.3598588e-01,2.6946088e-02,-4.2655748e-03,-2.4847495e-04,6.8375252e-02,-6.1256938e-01,-2.1588950e-02
3.0798738e+00,-6.6773104e-02,-1.1172377e-02,1.9060046e-03,-1.9283747e-01,-6.0246207e-02,-1.9105474e-01,2.6866775e-02,1.7205247e-04,-2.2205265e-04,-7.9312773e-03,4.4376315e-01,2.6422328e-03
3.0898738e+00,-6.8576002e-02,-1.1600146e-02,1.8148338e-03,-1.8155543e-01,-3.7219188e-02,-1.8025292e-01,2.9133069e-02,-1.5973918e-03,-5.3255318e-04,2.2662965e-01,-1.7694460e-01,-3.1050083e-02
3.0998738e+00,-6.9944242e-02,-1.1982832e-02,1.7564749e-03,-1.3795604e-01,-3.4125438e-02,-1.3678361e-01,2.9479188e-02,-6.8500984e-04,-4.6345912e-04,3.4611859e-02,9.1238284e-02,6.9094127e-03
3.1098738e+00,-7.1311101e-02,-1.2279569e-02,1.7888998e-03,-1.3745988e-01,-2.5466224e-02,-1.3675866e-01,3.0200349e-02,-4.8714744e-04,4.3779791e-04,7.2116179e-02,1.9786258e-02,9.0125789e-02
3.1198740e+00,-7.2825640e-02,-1.2357611e-02,1.8989598e-03,-1.5148628e-01,-2.8226688e-03,-1.5158935e-01,3.1041937e-02,-1.8275690e-03,8.8069945e-04,8.4156842e-02,-1.3403908e-01,4.4289140e-02
3.1298740e+00,-7.4493387e-02,-1.2543427e-02,2.1171219e-03,-1.6699685e-01,-1.2731347e-02,-1.6710163e-01,3.2151545e-02,-2.8702246e-03,1.7322601e-03,1.1096096e-01,-1.0426566e-01,8.5156151e-02
3.1398740e+00,-7.6666177e-02,-1.2951414e-02,2.0692999e-03,-2.1851076e-01,-3.3234128e-02,-2.1733295e-01,3.2221422e-02,-2.5018694e-03,-1.3779623e-04,6.9877324e-03,3.6835553e-02,-1.8700582e-01
3.1498740e+00,-7.8669314e-02,-1.3636731e-02,1.8941097e-03,-2.0270674e-01,-6.2409606e-02,-1.9990717e-01,3.1952403e-02,1.5619452e-03,-1.5276511e-03,-2.6901932e-02,4.0638185e-01,-1.3898562e-01
