time, x, y, z, vx, vy, vz, yaw, pitch, roll, yaw_rate, pitch_rate, roll_rate
0.0000000e+00,0.0000000e+00,0.0000000e+00,0.0000000e+00,0.0000000e+00,0.0000000e+00,0.0000000e+00,0.0000000e+00,0.0000000e+00,0.0000000e+00,0.0000000e+00,0.0000000e+00,0.0000000e+00
9.9999905e-03,-4.1492817e-05,1.1053639e-04,2.8063709e-05,-4.1681802e-03,1.1048397e-02,-4.1443342e-03,-1.3766340e-03,-1.1342383e-04,-8.8768224e-04,-1.3766354e-01,-1.1342394e-02,-8.8768309e-02
1.9999981e-02,-4.5187729e-05,6.2362764e-05,5.2530309e-05,-3.6311502e-04,-4.8180804e-03,-3.6649946e-04,-1.4123353e-03,5.3378415e-04,-1.1580406e-03,-3.5701308e-03,6.4720860e-02,-2.7035859e-02
2.9999971e-02,-8.5845338e-05,1.8498016e-04,2.9838635e-05,-4.0839220e-03,1.2261345e-02,-4.0487558e-03,-1.2314871e-03,-1.1367295e-03,-7.5293292e-04,1.8084840e-02,-1.6705152e-01,4.0510804e-02
3.9999962e-02,-1.1177583e-04,2.9130334e-04,1.2397400e-05,-2.6039260e-03,1.0637528e-02,-2.5606259e-03,-9.0849158e-04,-2.9345183e-03,-4.6900831e-04,3.2299581e-02,-1.7977906e-01,2.8392488e-02
4.9999952e-02,-1.7161358e-04,2.8981412e-04,2.2888284e-05,-5.9864651e-03,-1.4306494e-04,-5.9812380e-03,-1.0835925e-03,-2.0633089e-03,-4.7628523e-04,-1.7510106e-02,8.7121029e-02,-7.2769301e-04
5.9999943e-02,-1.4979165e-04,1.5482354e-05,5.5236369e-05,2.1904466e-03,-2.7429784e-02,2.2166328e-03,-2.9156048e-04,1.2646930e-03,-1.1605779e-04,7.9203274e-02,3.3280050e-01,3.6022779e-02
6.9999933e-02,-1.4406271e-04,4.1866625e-05,4.7628737e-05,5.7251542e-04,2.6390614e-03,5.7035821e-04,-1.5977239e-04,9.4516253e-04,-7.3934360e-05,1.3178822e-02,-3.1953073e-02,4.2123467e-03
7.9999924e-02,-1.8598148e-04,-1.1608766e-04,-3.2409115e-05,-4.1970556e-03,-1.5799580e-02,-4.1710639e-03,2.1444365e-04,1.2044250e-03,-4.2662828e-04,3.7421640e-02,2.5926272e-02,-3.5269425e-02
8.9999914e-02,-2.1576226e-05,2.3975111e-04,3.6497269e-05,1.6403890e-02,3.5585248e-02,1.6474223e-02,-1.3197739e-03,-1.2357050e-03,-6.2829957e-04,-1.5342190e-01,-2.4401324e-01,-2.0167148e-02
1.0000014e-01,9.7571889e-06,1.4595194e-04,7.1263136e-05,3.1487033e-03,-9.3760464e-03,3.1287356e-03,-1.3493071e-03,-1.8560810e-04,-8.8772558e-04,-2.9532535e-03,1.0500729e-01,-2.5942007e-02
1.1000013e-01,3.7541361e-06,1.1232981e-04,5.5273534e-05,-5.9642039e-04,-3.3630619e-03,-5.9944519e-04,-1.3422589e-03,7.0380888e-05,-1.0467481e-03,7.0482695e-04,2.5598923e-02,-1.5902268e-02
1.2000012e-01,-2.6372060e-05,1.5005412e-04,5.7763544e-05,-3.0207259e-03,3.7691155e-03,-3.0086610e-03,-1.3823417e-03,-2.8187162e-04,-9.6024081e-04,-4.0082919e-03,-3.5225284e-02,8.6507379e-03
1.3000011e-01,2.5410578e-05,1.5598637e-04,6.9142375e-05,5.1819458e-03,5.9918014e-04,5.1739028e-03,-1.4676205e-03,-3.1772701e-04,-8.7969524e-04,-8.5278818e-03,-3.5855421e-03,8.0545644e-03
1.4000010e-01,4.3152566e-05,6.4356972e-05,3.3144226e-05,1.7884351e-03,-9.1605006e-03,1.7725481e-03,-1.3682122e-03,6.6192369e-06,-9.5827512e-04,9.9408390e-03,3.2434655e-02,-7.8579958e-03
1.5000010e-01,7.5295009e-05,2.7328992e-05,2.4343579e-05,3.2227476e-03,-3.6966376e-03,3.2128304e-03,-1.4276387e-03,4.8921628e-04,-1.0014371e-03,-5.9426618e-03,4.8259751e-02,-4.3162046e-03
1.6000009e-01,9.8699306e-05,1.0433124e-04,2.7130034e-05,2.3316133e-03,7.7022676e-03,2.3425347e-03,-1.3823273e-03,-5.0938242e-04,-7.8129749e-04,4.5311448e-03,-9.9859966e-02,2.2013984e-02
1.7000008e-01,1.1289948e-04,1.9234493e-04,5.9661386e-05,1.4076316e-03,8.8024873e-03,1.4254612e-03,-1.5240204e-03,-7.3391981e-04,-7.2389458e-04,-1.4169318e-02,-2.2453760e-02,5.7402970e-03
1.8000007e-01,-2.7555175e-06,-2.1362416e-05,1.2960950e-04,-1.1550287e-02,-2.1395274e-02,-1.1535354e-02,-1.0917914e-03,1.0310281e-03,-7.0190552e-04,4.3222935e-02,1.7649496e-01,2.1989083e-03
1.9000006e-01,1.0016830e-04,-5.6348073e-05,8.9921016e-05,1.0298033e-02,-3.4798844e-03,1.0293083e-02,-4.5303404e-04,1.3625349e-03,-3.9428829e-04,6.3875801e-02,3.3150709e-02,3.0761752e-02
2.0000005e-01,5.2986214e-05,2.4525080e-04,6.0527683e-06,-4.7350087e-03,3.0164521e-02,-4.6717163e-03,-5.0721397e-04,-1.4917360e-03,-3.1774164e-04,-5.4179981e-03,-2.8542736e-01,7.6546718e-03
2.1000004e-01,-2.5499973e-04,2.7081418e-04,-1.1449739e-04,-3.0809069e-02,2.5747297e-03,-3.0786643e-02,-4.9753957e-04,-1.0950035e-03,-2.9801868e-04,9.6744111e-04,3.9673284e-02,1.9722984e-03
2.2000003e-01,-5.9253065e-05,3.0794543e-04,-2.0187290e-05,1.9574011e-02,3.7048871e-03,1.9576922e-02,-6.3820734e-04,-1.0592017e-03,-8.6794136e-05,-1.4066790e-02,3.5801924e-03,2.1122474e-02
2.3000002e-01,5.3204474e-05,1.6227144e-04,-3.1784128e-06,1.1257440e-02,-1.4563987e-02,1.1238518e-02,-5.8327587e-04,-2.7898029e-04,-2.8288129e-04,5.4931520e-03,7.8022211e-02,-1.9608734e-02
2.4000001e-01,3.5748313e-05,1.8250410e-04,-2.2599202e-05,-1.7471126e-03,2.0239390e-03,-1.7433435e-03,-5.0207251e-04,-8.8706125e-04,-2.7455428e-04,8.1203441e-03,-6.0808154e-02,8.3270149e-04
2.5000000e-01,-1.4095198e-05,3.6350861e-04,1.6064059e-06,-5.0090008e-03,1.8106227e-02,-4.9385244e-03,-1.2273041e-03,-2.3969532e-03,-4.8842539e-04,-7.2523233e-02,-1.5098934e-01,-2.1387131e-02
2.5999999e-01,9.0457612e-05,2.0132326e-04,7.0006700e-05,1.0489031e-02,-1.6205499e-02,1.0441725e-02,-1.5271471e-03,-2.8097590e-04,-8.5966029e-04,-2.9984323e-02,2.1159793e-01,-3.7123526e-02
2.6999998e-01,1.4929045e-04,3.2763365e-05,1.1300509e-04,5.9170433e-03,-1.6839781e-02,5.8958867e-03,-1.5816080e-03,1.1720200e-03,-1.2078899e-03,-5.4460945e-03,1.4529972e-01,-3.4822992e-02
2.7999997e-01,1.4090492e-04,8.7650248e-05,1.0369885e-04,-8.4785146e-04,5.4872173e-03,-8.3886423e-04,-1.5384696e-03,2.1423121e-04,-1.0201956e-03,4.3138455e-03,-9.5778967e-02,1.8769445e-02
2.8999996e-01,1.3994027e-04,2.1935839e-04,6.3929953e-05,-1.1575414e-04,1.3170794e-02,-7.8011023e-05,-1.4596409e-03,-1.3953217e-03,-6.6525964e-04,7.8828749e-03,-1.6095545e-01,3.5493630e-02
2.9999995e-01,5.8079972e-05,1.3824728e-04,5.6110266e-05,-8.1807270e-03,-8.1231583e-03,-8.1794050e-03,-1.5849729e-03,-1.1307946e-04,-9.2344286e-04,-1.2533218e-02,1.2822435e-01,-2.5818346e-02
3.0999994e-01,7.9915892e-06,-1.3670868e-04,1.4493708e-04,-4.9817158e-03,-2.7511967e-02,-4.9457523e-03,-1.1667605e-03,2.1144206e-03,-9.9011628e-04,4.1821283e-02,2.2275022e-01,-6.6673488e-03
3.1999993e-01,5.8607957e-05,5.0908502e-06,7.7817779e-05,5.0452615e-03,1.4192321e-02,5.0433362e-03,-1.5205851e-03,9.2561566e-04,-1.0254203e-03,-3.5382490e-02,-1.1888061e-01,-3.5304045e-03
3.2999992e-01,3.4357195e-05,1.4044821e-04,-3.0775256e-05,-2.4375646e-03,1.3534014e-02,-2.4222395e-03,-8.3805052e-04,-1.2484665e-04,-4.7158595e-04,6.8253520e-02,-1.0504633e-01,5.5383487e-02
3.3999991e-01,-3.0024763e-05,2.5686278e-04,-1.1655194e-05,-6.4545734e-03,1.1647643e-02,-6.4105827e-03,-1.1062696e-03,-2.0714274e-03,-5.4328867e-04,-2.6821933e-02,-1.9465826e-01,-7.1702787e-03
3.5000014e-01,-2.7410565e-05,1.9058351e-04,9.8711868e-06,2.6959918e-04,-6.6277888e-03,2.5262495e-04,-1.2095237e-03,-1.2997679e-03,-6.4727218e-04,-1.0325174e-02,7.7164192e-02,-1.0398113e-02
3.6000013e-01,-1.1870229e-04,6.5217958e-05,6.9817453e-05,-9.1299414e-03,-1.2539034e-02,-9.1250330e-03,1.2399263e-05,2.8266853e-04,-6.6210696e-05,1.2219241e-01,1.5824379e-01,5.8106204e-02
3.7000012e-01,8.1073201e-06,2.4396311e-04,3.8463724e-06,1.2672970e-02,1.7871536e-02,1.2693191e-02,-5.7365214e-04,-8.0935417e-04,-1.7764745e-04,-5.8605197e-02,-1.0920237e-01,-1.1143686e-02
3.8000011e-01,-1.9066127e-05,2.5862587e-04,-1.4850852e-05,-2.7181328e-03,1.4679827e-03,-2.7156406e-03,-5.0684725e-04,-1.1347486e-03,-1.5686827e-05,6.6804952e-03,-3.2539474e-02,1.6196078e-02
3.9000010e-01,-7.1368766e-05,2.5830307e-04,1.5909969e-05,-5.2325531e-03,-2.8920792e-05,-5.2280032e-03,-1.1868583e-03,-1.8298960e-03,-4.4486431e-04,-6.8001173e-02,-6.9514804e-02,-4.2917789e-02
4.0000010e-01,-1.3153563e-05,2.8008249e-04,-1.6785057e-05,5.8205230e-03,2.1739498e-03,5.8240209e-03,-5.7836784e-04,-1.2641570e-03,-4.4287668e-05,6.0849109e-02,5.6573947e-02,4.0057702e-02
4.1000009e-01,1.7833717e-05,1.8385554e-04,-7.0295350e-06,3.1077423e-03,-9.6213581e-03,3.0938808e-03,-8.0929279e-04,-3.7644859e-04,-3.9534702e-04,-2.3092517e-02,8.8770930e-02,-3.5105969e-02
4.2000008e-01,5.8519811e-06,1.8051222e-04,4.9910767e-05,-1.1985752e-03,-3.3455359e-04,-1.1977124e-03,-1.1809376e-03,-9.9694628e-04,-6.6469556e-04,-3.7164520e-02,-6.2049828e-02,-2.6934879e-02
4.3000007e-01,6.4500775e-05,2.0520711e-04,7.9571959e-05,5.8657971e-03,2.4708668e-03,5.8633933e-03,-1.3338818e-03,-1.0995386e-03,-7.1832352e-04,-1.5294431e-02,-1.0259238e-02,-5.3628013e-03
4.4000006e-01,6.5850537e-05,1.7445431e-04,8.2608586e-05,1.3963096e-04,-3.0751355e-03,1.3359762e-04,-1.4751368e-03,-4.0851110e-04,-8.7731490e-04,-1.4125509e-02,6.9102812e-02,-1.5899153e-02
4.5000005e-01,6.2520846e-05,1.1060207e-04,8.0639412e-05,-3.2387152e-04,-6.3858061e-03,-3.3088183e-04,-1.4799995e-03,2.7317906e-04,-1.0597626e-03,-4.8627525e-04,6.8169081e-02,-1.8244791e-02
4.6000004e-01,6.7901668e-05,5.2155380e-05,5.0567739e-05,5.4753690e-04,-5.8435325e-03,5.4094484e-04,-1.5192127e-03,5.9002458e-04,-1.0702805e-03,-3.9213270e-03,3.1684583e-02,-1.0517839e-03
4.7000003e-01,4.4348206e-05,2.6268408e-05,-5.0246383e-05,-2.3543589e-03,-2.5927039e-03,-2.3519308e-03,-9.1280179e-04,7.8851585e-04,-5.8372022e-04,6.0641152e-02,1.9849146e-02,4.8656071e-02
4.8000002e-01,5.3976099e-05,8.1079621e-05,-5.9501428e-05,9.5851885e-04,5.4822887e-03,9.6043250e-04,-8.7449919e-04,3.3523492e-04,-5.4256922e-04,3.8302637e-03,-4.5328137e-02,4.1151039e-03
4.9000001e-01,8.8276825e-05,1.0139713e-04,-1.2394888e-05,3.4299143e-03,2.0363882e-03,3.4274875e-03,-1.0360602e-03,3.1591458e-04,-5.6729227e-04,-1.6156117e-02,-1.9320360e-03,-2.4723070e-03
5.0000000e-01,1.0303525e-04,1.0145884e-04,2.9571504e-05,1.4768057e-03,8.2159171e-06,1.4748709e-03,-1.0356844e-03,3.4980256e-04,-6.5696185e-04,3.7582754e-05,3.3888017e-03,-8.9669662e-03
5.0999999e-01,-5.2649687e-05,2.4427234e-04,4.1745024e-05,-1.5598929e-02,1.4279254e-02,-1.5539965e-02,-1.3352069e-03,-1.2021386e-03,-7.3035641e-04,-2.9952276e-02,-1.5519427e-01,-7.3394632e-03
5.1999998e-01,-3.3964544e-05,3.4081072e-04,1.5752134e-07,1.8624439e-03,9.6518792e-03,1.8846767e-03,-6.4586171e-04,-1.6909370e-03,-8.7384671e-05,6.8934580e-02,-4.8879880e-02,6.4297235e-02
5.2999997e-01,6.4147902e-05,3.0418483e-04,1.8878784e-05,9.8122246e-03,-3.6781727e-03,9.8044524e-03,-3.3180626e-04,-1.9204297e-03,2.4877215e-05,3.1405575e-02,-2.2949294e-02,1.1226199e-02
5.3999996e-01,3.0501360e-05,1.7524187e-04,-5.8705806e-06,-3.3582355e-03,-1.2893726e-02,-3.3732916e-03,-5.9067573e-04,-7.6208085e-04,-3.5524529e-04,-2.5886972e-02,1.1583499e-01,-3.8012286e-02
5.4999995e-01,-5.3250394e-05,2.5158198e-04,9.7375404e-06,-8.3886495e-03,7.6384208e-03,-8.3576742e-03,-1.2297937e-03,-1.7584064e-03,-4.8776266e-04,-6.3911856e-02,-9.9632646e-02,-1.3251750e-02
5.5999994e-01,-3.5270046e-05,2.4228338e-04,4.3923831e-06,1.8002920e-03,-9.3015614e-04,1.7956253e-03,-1.2679887e-03,-1.4339907e-03,-5.9966086e-04,-3.8195034e-03,3.2441593e-02,-1.1189830e-02
5.6999993e-01,1.7467873e-05,1.3402160e-04,4.5586464e-05,5.2920659e-03,-1.0820993e-02,5.2661539e-03,-1.2864812e-03,-3.0335936e-04,-8.2433451e-04,-1.8492528e-03,1.1306325e-01,-2.2467386e-02
5.7999992e-01,5.2659317e-05,1.4087459e-04,6.9030400e-05,3.5211275e-03,6.8889372e-04,3.5164646e-03,-1.3543659e-03,-3.3301167e-04,-8.2755841e-04,-6.7884757e-03,-2.9652336e-03,-3.2239067e-04
5.8999991e-01,6.3355841e-05,2.1823189e-04,5.2031696e-05,1.0602696e-03,7.7355134e-03,1.0805641e-03,-1.3032803e-03,-1.4998703e-03,-6.5363022e-04,5.1085660e-03,-1.1668597e-01,1.7392835e-02
6.0000014e-01,-1.1469414e-05,2.6664623e-04,4.0522146e-05,-7.4938496e-03,4.8431830e-03,-7.4696354e-03,-1.3368065e-03,-1.5878809e-03,-6.7249147e-04,-3.3525473e-03,-8.8008536e-03,-1.8860821e-03
6.1000013e-01,1.1407631e-04,-5.9809924e-05,1.3036541e-04,1.2600202e-02,-3.2619647e-02,1.2576442e-02,-1.1613502e-03,9.0725906e-04,-6.1460620e-04,1.7545648e-02,2.4951423e-01,5.7885332e-03
6.2000012e-01,9.4577746e-05,-7.7857542e-05,-3.4045274e-06,-1.9495860e-03,-1.8122107e-03,-1.9432114e-03,-1.2493703e-03,2.5763746e-03,-1.0182133e-03,-8.8020182e-03,1.6691172e-01,-4.0360752e-02
6.3000011e-01,8.3726507e-05,8.9235089e-05,4.9104795e-05,-1.1117986e-03,1.6707075e-02,-1.0920440e-03,-1.5346333e-03,4.7743738e-04,-9.5176772e-04,-2.8526326e-02,-2.0989392e-01,6.6445671e-03
6.4000010e-01,1.0647978e-05,1.5922685e-04,5.4637550e-05,-7.3235096e-03,6.9908658e-03,-7.3001499e-03,-1.4080863e-03,-2.7123368e-04,-7.9420103e-04,1.2654715e-02,-7.4867178e-02,1.5756685e-02
6.5000010e-01,1.2703589e-05,1.5520355e-04,6.5596808e-05,2.0622367e-04,-4.0222177e-04,2.0510990e-04,-1.2756081e-03,-7.4988211e-04,-7.2676200e-04,1.3247823e-02,-4.7864889e-02,6.7439093e-03
6.6000009e-01,4.7311660e-08,1.0432697e-04,4.4352139e-05,-1.2598329e-03,-5.0890791e-03,-1.2657167e-03,-1.3522839e-03,-2.2946476e-04,-8.5767189e-04,-7.6675861e-03,5.2041785e-02,-1.3091001e-02
6.7000008e-01,6.0701983e-05,1.2948243e-04,-2.4283605e-06,6.0671340e-03,2.5189633e-03,6.0623934e-03,-6.4016877e-04,-7.7051509e-05,-5.3970864e-04,7.1211584e-02,1.5241339e-02,3.1796355e-02
6.8000007e-01,4.6990366e-05,3.1233311e-04,-4.3893586e-05,-1.3837056e-03,1.8286352e-02,-1.3413524e-03,-6.8006417e-04,-1.6243558e-03,-7.8666469e-05,-3.9895429e-03,-1.5473058e-01,4.6104261e-02
6.9000006e-01,5.8115466e-05,3.1622491e-04,-2.9946203e-05,1.1122415e-03,3.8706730e-04,1.1135176e-03,-5.3319678e-04,-2.4316038e-03,5.5716843e-05,1.4686753e-02,-8.0724869e-02,1.3438344e-02
7.0000005e-01,2.4383165e-05,2.6369346e-04,-4.4385938e-05,-3.3705615e-03,-5.2488674e-03,-3.3825589e-03,-4.8180398e-04,-1.7489419e-03,4.1654280e-05,5.1392847e-03,6.8266248e-02,-1.4062577e-03
7.1000004e-01,-1.1464641e-04,8.9871412e-05,2.8336069e-05,-1.3898278e-02,-1.7386207e-02,-1.3902678e-02,-7.3367618e-05,2.1335050e-04,2.4576704e-04,4.0843675e-02,1.9622943e-01,2.0411296e-02
7.2000003e-01,-8.9264077e-05,6.0965098e-05,1.3564730e-05,2.5388085e-03,-2.8883402e-03,2.5402731e-03,-2.4861885e-04,6.5480976e-04,5.7373429e-05,-1.7525139e-02,4.4145968e-02,-1.8839379e-02
7.3000002e-01,-4.1684819e-05,2.0012785e-04,4.0864210e-05,4.7466630e-03,1.3913302e-02,4.7778774e-03,-1.0106803e-03,-1.6339678e-03,-5.8864577e-04,-7.6206220e-02,-2.2887797e-01,-6.4601981e-02
7.4000001e-01,-4.0396921e-05,1.6851602e-04,5.6416566e-05,1.3136024e-04,-3.1612919e-03,1.2348714e-04,-7.9022375e-04,-1.6541415e-03,-5.6156514e-04,2.2045678e-02,-2.0173696e-03,2.7080653e-03
7.5000000e-01,1.3893872e-05,1.2160090e-04,1.2042599e-04,5.4374641e-03,-4.6913798e-03,5.4208102e-03,-8.9184349e-04,-8.6800281e-04,-7.7348639e-04,-1.0161984e-02,7.8613940e-02,-2.1192146e-02
7.5999999e-01,5.6545697e-05,4.4813861e-05,1.1517628e-04,4.2792685e-03,-7.6721613e-03,4.2628672e-03,-1.2203895e-03,3.1414526e-04,-1.1058760e-03,-3.2854628e-02,1.1821492e-01,-3.3238994e-02
7.6999998e-01,5.8366286e-05,7.9276285e-05,9.3963296e-05,1.7777516e-04,3.4464795e-03,1.8186704e-04,-1.2939924e-03,5.9493147e-06,-9.6530242e-04,-7.3602973e-03,-3.0819624e-02,1.4057373e-02
7.7999997e-01,8.8101884e-05,6.3349103e-05,7.3551403e-05,2.9784168e-03,-1.5883062e-03,2.9710643e-03,-1.4448688e-03,3.8867823e-05,-8.5992485e-04,-1.5087655e-02,3.2918539e-03,1.0537767e-02
7.8999996e-01,2.2164653e-05,2.4883234e-06,4.0365624e-05,-6.5919503e-03,-6.1008863e-03,-6.5818181e-03,-1.4858180e-03,7.6124739e-04,-1.1033134e-03,-4.0949235e-03,7.2238025e-02,-2.4338882e-02
7.9999995e-01,2.5534836e-05,-2.8461578e-04,2.1389114e-05,3.5797396e-04,-2.8708904e-02,4.3253588e-04,-7.2106158e-04,3.3363936e-03,-7.5224219e-04,7.6475711e-02,2.5751487e-01,3.5107158e-02
8.0999994e-01,3.2143634e-06,-2.6485985e-06,-5.5097053e-05,-2.2549630e-03,2.8192939e-02,-2.2569525e-03,-7.6103778e-04,9.3543487e-04,-6.5231494e-04,-3.9976242e-03,-2.4009610e-01,9.9927347e-03
8.1999993e-01,-1.3630289e-04,1.0213118e-04,3.3318448e-05,-1.3947318e-02,1.0485244e-02,-1.3950707e-02,5.2314222e-05,-4.6778771e-04,2.7757277e-04,8.1335278e-02,-1.4032239e-01,9.2988860e-02
8.2999992e-01,-1.5388529e-04,1.2220711e-04,6.1168825e-05,-1.7577273e-03,2.0087082e-03,-1.7574856e-03,1.2355667e-04,-5.0930970e-04,1.5160130e-04,7.1242521e-03,-4.1522024e-03,-1.2597160e-02
8.3999991e-01,-7.0801914e-06,9.7210616e-05,4.7453362e-05,1.4688914e-02,-2.4977932e-03,1.4672446e-02,-2.5633217e-04,-1.2978001e-04,-5.2802049e-04,-3.7988921e-02,3.7953005e-02,-6.7962244e-02
8.5000014e-01,2.1049716e-06,1.7174284e-04,1.7647068e-05,9.1700536e-04,7.4524607e-03,9.2476073e-04,-2.2481359e-04,-8.6554772e-04,-2.0214733e-04,3.1517864e-03,-7.3575087e-02,3.2586570e-02
8.6000013e-01,-1.5334231e-04,2.9683654e-04,-4.6185864e-05,-1.5542186e-02,1.2540148e-02,-1.5522495e-02,-1.0907440e-04,-2.0895156e-03,2.5222626e-04,1.1573930e-02,-1.2239691e-01,4.5437402e-02
8.7000012e-01,-1.9594044e-04,1.0443356e-04,9.8725371e-06,-4.2579940e-03,-1.9238448e-02,-4.2700707e-03,8.2006614e-06,-4.3007579e-04,4.6481453e-04,1.1727517e-02,1.6594414e-01,2.1258848e-02
8.8000011e-01,-4.4268780e-05,1.0001706e-04,4.5496438e-05,1.5178836e-02,-4.2308193e-04,1.5156046e-02,-1.3535133e-03,-1.2942765e-04,-7.3024827e-04,-1.3617152e-01,3.0064842e-02,-1.1950639e-01
8.9000010e-01,1.9388773e-05,8.6042594e-05,6.2534991e-05,6.3730523e-03,-1.3896081e-03,6.3601800e-03,-1.3172583e-03,-8.5908135e-05,-8.5740866e-04,3.6255001e-03,4.3519561e-03,-1.2716051e-02
9.0000010e-01,-3.3784117e-06,1.8222214e-04,4.2695821e-05,-2.2886566e-03,9.6185293e-03,-2.2623167e-03,-1.0870835e-03,-1.3428665e-03,-6.5105122e-04,2.3017496e-02,-1.2569596e-01,2.0635763e-02
9.1000009e-01,9.7969554e-07,2.2446222e-04,5.4294147e-05,4.3155337e-04,4.2237287e-03,4.4274149e-04,-1.0792315e-03,-1.7112704e-03,-6.9131190e-04,7.8520070e-04,-3.6840429e-02,-4.0260721e-03
9.2000008e-01,7.1987773e-05,6.6497856e-05,8.4366681e-05,7.1284593e-03,-1.5786542e-02,7.0951498e-03,-1.2979192e-03,9.5738971e-05,-1.0071926e-03,-2.1868787e-02,1.8070111e-01,-3.1588103e-02
9.3000007e-01,6.3416884e-05,8.7698139e-07,7.6493529e-05,-8.4985856e-04,-6.5637785e-03,-8.5136982e-04,-1.2647064e-03,7.1001381e-04,-1.2476772e-03,3.3212883e-03,6.1427543e-02,-2.4048482e-02
9.4000006e-01,1.8967931e-05,8.3024731e-05,3.6897605e-05,-4.4580240e-03,8.2118092e-03,-4.4372439e-03,-1.1358287e-03,-4.6861996e-04,-8.5454204e-04,1.2887783e-02,-1.1786349e-01,3.9313556e-02
9.5000005e-01,-1.1688153e-04,4.4802951e-05,4.9249093e-05,-1.3587189e-02,-3.8238506e-03,-1.3582259e-02,-6.6399170e-04,-5.4123087e-04,-3.5125143e-04,4.7183740e-02,-7.2610984e-03,5.0329109e-02
9.6000004e-01,-1.6365743e-04,-6.3403887e-05,8.0255570e-05,-4.6730988e-03,-1.0827801e-02,-4.6656257e-03,-7.1634757e-04,8.0496491e-04,-6.9657655e-04,-5.2355914e-03,1.3461971e-01,-3.4532545e-02
9.7000003e-01,-2.0864145e-04,4.6073371e-05,1.1800744e-06,-4.5034543e-03,1.0945101e-02,-4.4997669e-03,-1.5971811e-04,4.2614068e-04,-7.3383561e-04,5.5662999e-02,-3.7882459e-02,-3.7259093e-03
9.8000002e-01,-3.0309470e-05,-1.8114744e-04,6.5546566e-05,1.7842033e-02,-2.2694444e-02,1.7859594e-02,-4.1341253e-05,1.5088616e-03,-4.4193627e-04,1.1837697e-02,1.0827219e-01,2.9189962e-02
9.9000001e-01,2.4716195e-05,2.4661236e-04,-1.8131542e-05,5.4998282e-03,4.2761307e-02,5.6184594e-03,-4.2269122e-05,-2.6877694e-03,1.6998979e-04,-9.2786936e-05,-4.1966350e-01,6.1192664e-02
1.0000000e+00,-1.9515231e-04,4.5224110e-04,-5.7215804e-05,-2.2045117e-02,2.0570764e-02,-2.1921089e-02,-1.9002354e-03,-2.2642555e-03,-8.7410735e-04,-1.8579680e-01,4.2351431e-02,-1.0440981e-01
1.0100000e+00,-8.2071403e-05,3.1265677e-04,2.0041861e-05,1.1351048e-02,-1.3940619e-02,1.1287044e-02,-2.0749076e-03,-5.0192205e-04,-1.2395860e-03,-1.7467237e-02,1.7623351e-01,-3.6547902e-02
1.0200000e+00,-1.6367573e-04,4.1196513e-04,8.5217733e-06,-8.1904584e-03,9.9218097e-03,-8.1413354e-03,-2.1267254e-03,-1.0240290e-03,-1.0932208e-03,-5.1817801e-03,-5.2210742e-02,1.4636532e-02
1.0300000e+00,-1.0041056e-04,2.3267558e-04,3.1073112e-05,6.3466430e-03,-1.7934114e-02,6.2916999e-03,-9.7021757e-04,-1.7896987e-03,-4.3128254e-04,1.1565089e-01,-7.6567050e-02,6.6193893e-02
1.0400000e+00,-2.0862987e-05,2.4419094e-04,8.9645454e-06,7.9575479e-03,1.1395887e-03,7.9537017e-03,-8.5481970e-04,-2.3574721e-03,-4.7408768e-04,1.1539797e-02,-5.6777392e-02,-4.2805179e-03
1.0500000e+00,2.9838655e-05,1.3141150e-04,3.7589932e-05,5.0856895e-03,-1.1276670e-02,5.0574676e-03,-1.0315752e-03,-7.8056035e-04,-7.6732943e-04,-1.7675562e-02,1.5769133e-01,-2.9324203e-02
1.0599999e+00,4.8921522e-05,-1.5500640e-04,5.4430732e-05,1.9158971e-03,-2.8637750e-02,1.9609678e-03,-2.3481709e-04,1.8703453e-03,-4.6286053e-04,7.9675882e-02,2.6509081e-01,3.0446920e-02
1.0699999e+00,3.8398529e-05,-9.5906143e-05,5.0946895e-05,-1.0529659e-03,5.9090346e-03,-1.0572182e-03,-6.4440036e-05,8.8039132e-04,-2.7058198e-04,1.7037722e-02,-9.8995489e-02,1.9227873e-02
1.0799999e+00,4.9543034e-06,1.7465471e-04,3.1124365e-05,-3.3718580e-03,2.7057666e-02,-3.3040588e-03,-9.3373677e-04,-1.4111315e-03,-6.4918089e-04,-8.6929756e-02,-2.2915250e-01,-3.7859927e-02
1.0899999e+00,3.4655806e-05,9.5734250e-05,8.4589271e-05,2.9820209e-03,-7.8895685e-03,2.9648586e-03,-1.1222808e-03,-2.8770825e-04,-1.0148117e-03,-1.8854416e-02,1.1234243e-01,-3.6563113e-02
1.1000001e+00,-2.4575681e-04,5.1961292e-04,-8.6565785e-05,-2.8177413e-02,4.2387906e-02,-2.7901622e-02,-2.1023331e-03,-2.1488349e-03,-1.7041483e-03,-9.8002996e-02,-1.8610840e-01,-6.8932084e-02
1.1100001e+00,-4.0851150e-06,-6.6188820e-05,2.0355520e-05,2.4211047e-02,-5.8551574e-02,2.4192728e-02,-4.5436994e-04,7.3098747e-04,-7.1361803e-04,1.6479648e-01,2.8798251e-01,9.9053120e-02
1.1200001e+00,-4.3801921e-05,6.0002788e-05,3.8825127e-05,-3.9857874e-03,1.2620120e-02,-3.9545088e-03,-9.1284212e-04,-1.1555881e-03,-6.5116746e-04,-4.5847261e-02,-1.8865774e-01,6.2450628e-03
1.1300001e+00,1.8275597e-05,8.4766759e-05,5.6046556e-05,6.2098523e-03,2.4775904e-03,6.2051869e-03,-1.1016381e-03,-9.1008675e-04,-7.7779697e-04,-1.8879621e-02,2.4550159e-02,-1.2662963e-02
1.1400001e+00,-1.4280132e-04,-5.6567747e-05,1.2047316e-04,-1.6110064e-02,-1.4156610e-02,-1.6085009e-02,-7.0786368e-04,7.3012318e-04,-7.6795650e-04,3.9377484e-02,1.6402115e-01,9.8404857e-04
1.1500001e+00,2.5793839e-05,-1.1388349e-04,7.1571782e-05,1.6863872e-02,-5.7130853e-03,1.6861470e-02,-1.0911394e-04,9.8791550e-04,-2.2030674e-04,5.9875031e-02,2.5779257e-02,5.4765028e-02
1.1600001e+00,-2.6624189e-04,-6.0721302e-06,-2.7694588e-05,-2.9190115e-02,1.0823712e-02,-2.9201338e-02,7.6784218e-04,-6.8979345e-04,1.7801284e-04,8.7695696e-02,-1.6777105e-01,3.9831996e-02
1.1700001e+00,-3.8420210e-06,2.4141506e-04,1.3655635e-07,2.6231942e-02,2.4701857e-02,2.6292207e-02,-8.1486297e-04,-2.5993750e-03,-4.6147649e-04,-1.5827067e-01,-1.9095833e-01,-6.3948994e-02
1.1800001e+00,1.3687307e-05,1.7055167e-04,2.7875581e-05,1.7615046e-03,-7.0864496e-03,1.7438986e-03,-1.0165611e-03,-1.0813549e-03,-7.8031406e-04,-2.0169832e-02,1.5180215e-01,-3.1883787e-02
1.1900001e+00,-1.0655940e-04,2.8719182e-04,-9.4171651e-05,-1.2052616e-02,1.1647011e-02,-1.2013203e-02,-1.4082616e-03,5.7464387e-06,-9.5843143e-04,-3.9170083e-02,1.0871024e-01,-1.7811754e-02
1.2000000e+00,-2.2968970e-04,4.5436908e-04,-9.6462806e-05,-1.2333748e-02,1.6728613e-02,-1.2277502e-02,-1.0503850e-03,-1.9370150e-03,-2.5613129e-04,3.5787691e-02,-1.9427633e-01,7.0230080e-02
1.2100000e+00,-2.2863222e-04,5.3143179e-04,-5.8029082e-05,9.8980460e-05,7.7060418e-03,1.2731431e-04,-8.8057078e-04,-2.8009885e-03,-1.8132844e-04,1.6981437e-02,-8.6397432e-02,7.4802920e-03
1.2200000e+00,-2.3054366e-05,9.8673049e-05,4.2434847e-05,2.0579635e-02,-4.3277832e-02,2.0531913e-02,-2.9354149e-04,-3.8720650e-04,-4.4408342e-04,5.8702985e-02,2.4137843e-01,-2.6275523e-02
1.2300000e+00,-1.0519354e-04,-9.0839360e-05,1.1501401e-04,-8.2181392e-03,-1.8961952e-02,-8.1849821e-03,5.0352517e-05,1.3548095e-03,-3.9689856e-04,3.4389434e-02,1.7420177e-01,4.7184913e-03
1.2400000e+00,-2.4491234e-05,-1.4129754e-04,9.6730515e-05,8.0736019e-03,-5.0352076e-03,8.0735041e-03,-1.0631210e-04,1.2090161e-03,-3.5034848e-04,-1.5666477e-02,-1.4579355e-02,4.6550122e-03
1.2500000e+00,-2.3926515e-05,1.3670392e-04,4.4246013e-05,3.0610857e-05,2.7800084e-02,1.0188114e-04,-9.3154670e-04,-1.6341202e-03,-6.3971651e-04,-8.2523538e-02,-2.8431391e-01,-2.8936831e-02
1.2600000e+00,1.5241749e-04,4.1895215e-05,6.3106063e-05,1.7662166e-02,-9.4569315e-03,1.7619499e-02,-1.2331858e-03,1.2455257e-04,-9.1171849e-04,-3.0163935e-02,1.7586745e-01,-2.7200224e-02
1.2700000e+00,5.8548361e-06,2.8488730e-04,-1.7891323e-05,-1.4692662e-02,2.4322851e-02,-1.4580477e-02,-1.1074594e-03,-2.7279415e-03,-6.4711944e-04,1.2572648e-02,-2.8524968e-01,2.6459930e-02
1.2800000e+00,1.0054201e-04,2.1811207e-06,7.8316419e-05,9.5095792e-03,-2.8260460e-02,9.4581845e-03,-1.1271696e-03,-5.3450249e-05,-9.5018494e-04,-1.9710173e-03,2.6744938e-01,-3.0306579e-02
1.2900000e+00,-3.4342609e-05,1.7923755e-04,5.5042564e-06,-1.3509909e-02,1.7726882e-02,-1.3439060e-02,-8.2150808e-04,-2.4002906e-03,-5.1114631e-04,3.0566177e-02,-2.3468426e-01,4.3903905e-02
1.3000000e+00,-2.1194908e-05,1.5802463e-04,6.1782256e-05,1.3175638e-03,-2.1225306e-03,1.3099718e-03,-9.1114393e-04,-1.8561876e-03,-6.5446713e-04,-8.9635937e-03,5.4410349e-02,-1.4332096e-02
1.3099999e+00,-5.7714847e-05,2.9185729e-04,5.1618978e-06,-3.6865297e-03,1.3375685e-02,-3.6451161e-03,-2.1930495e-03,-1.2269125e-04,-1.4224341e-03,-1.2819068e-01,1.7334980e-01,-7.6796772e-02
1.3199999e+00,-1.0317628e-04,-3.0638671e-05,7.5587671e-05,-4.5496216e-03,-3.2251539e-02,-4.5290768e-03,8.1910374e-05,5.0351506e-04,-1.8303457e-04,2.2749620e-01,6.2620691e-02,1.2394007e-01
1.3299999e+00,-3.3726340e-04,7.5221924e-05,3.5441402e-06,-2.3388162e-02,1.0648219e-02,-2.3401107e-02,9.0720688e-04,-1.7478052e-03,4.6800742e-04,8.2529730e-02,-2.2513224e-01,6.5104261e-02
1.3399999e+00,-3.4776573e-04,-5.3912060e-05,-2.6253157e-05,-1.0612538e-03,-1.2911919e-02,-1.0574782e-03,8.7460719e-04,-5.3953173e-04,2.6117180e-04,-3.2599723e-03,1.2082746e-01,-2.0683581e-02
1.3500001e+00,3.1913606e-05,-1.8656007e-04,8.2125332e-05,3.7979124e-02,-1.3206420e-02,3.7975248e-02,2.9941896e-05,1.5597220e-03,-3.2814384e-04,-8.4464596e-02,2.0992056e-01,-5.8930216e-02
1.3600001e+00,-2.9356348e-05,-2.1318910e-04,6.3874371e-05,-6.1295693e-03,-2.6747549e-03,-6.1192660e-03,-1.0567738e-05,1.9251280e-03,-4.2382046e-04,-4.0509673e-03,3.6540637e-02,-9.5676703e-03
1.3700001e+00,-3.3833578e-04,-5.1915668e-05,-5.8042084e-05,-3.0881084e-02,1.6167782e-02,-3.0893732e-02,7.7968909e-04,-5.2875408e-04,1.3934441e-04,7.9025759e-02,-2.4538844e-01,5.6316541e-02
1.3800001e+00,-5.9735066e-05,2.0343846e-04,3.3433092e-05,2.7855257e-02,2.5463401e-02,2.7930782e-02,-5.7952694e-04,-3.1615731e-03,-3.5762462e-04,-1.3592173e-01,-2.6328215e-01,-4.9696950e-02
1.3900001e+00,-4.8089422e-05,2.7008935e-04,3.6027187e-05,1.1531979e-03,6.6662557e-03,1.1692276e-03,-1.9239964e-03,-9.1587212e-04,-1.2528510e-03,-1.3444707e-01,2.2457031e-01,-8.9522724e-02
1.4000001e+00,-5.1772629e-05,2.2122416e-04,3.4918856e-05,-3.5897543e-04,-4.8872541e-03,-3.6786266e-04,-2.0188540e-03,-9.9622342e-06,-1.4136107e-03,-9.4857734e-03,9.0591075e-02,-1.6075986e-02
1.4100001e+00,-4.3622740e-05,7.3455820e-05,4.4413192e-05,8.2680343e-04,-1.4777367e-02,7.9339888e-04,-7.6848705e-04,-1.4296649e-03,-5.6241607e-04,1.2503682e-01,-1.4197041e-01,8.5119545e-02
1.4200001e+00,-4.1350670e-05,1.4377797e-04,1.6165756e-05,2.2233373e-04,7.0318436e-03,2.4316509e-04,-7.0936529e-04,-2.2852845e-03,-5.0617524e-04,5.9121817e-03,-8.5562034e-02,5.6240888e-03
1.4300001e+00,7.6467241e-05,-1.6548672e-05,8.2654370e-05,1.1812722e-02,-1.6015404e-02,1.1774336e-02,-1.1386433e-03,3.2705987e-04,-1.0761409e-03,-4.2927845e-02,2.6123468e-01,-5.6996620e-02
1.4400001e+00,-2.1096600e-05,2.8275732e-04,-4.5199102e-06,-9.7874791e-03,2.9951184e-02,-9.6617130e-03,-8.4719966e-04,-2.9705916e-03,-5.8768874e-04,2.9144395e-02,-3.2976547e-01,4.8845262e-02
1.4500000e+00,1.8330230e-05,-2.2125457e-04,6.0679577e-05,3.9416312e-03,-5.0394138e-02,4.0334365e-03,4.8948615e-05,1.8286696e-03,-3.5807239e-04,8.9614913e-02,4.7992658e-01,2.2961656e-02
1.4600000e+00,-3.7243985e-04,-1.5184194e-04,-1.5565437e-05,-3.9065414e-02,6.9793640e-03,-3.9081889e-02,1.0341218e-03,5.9179725e-05,1.1341590e-04,9.8517412e-02,-1.7694916e-01,4.7148874e-02
1.4700000e+00,-2.0901983e-04,-2.5992216e-04,5.4905441e-06,1.6340668e-02,-1.0809661e-02,1.6342289e-02,7.9202712e-04,6.9233825e-04,-4.4169202e-04,-2.4209491e-02,6.3315913e-02,-5.5510845e-02
1.4800000e+00,-5.8064730e-05,1.5273603e-05,7.9376317e-05,1.5084259e-02,2.7531855e-02,1.5084442e-02,-9.1586560e-04,-1.0355252e-04,-9.2417639e-04,-1.7078944e-01,-7.9589153e-02,-4.8248483e-02
1.4900000e+00,-2.9887833e-06,6.2704355e-05,2.1503683e-05,5.5088524e-03,4.7408048e-03,5.5083059e-03,-1.4906729e-04,-5.6217740e-04,-3.5586243e-04,7.6679905e-02,-4.5862532e-02,5.6831450e-02
1.5000000e+00,-2.5362697e-04,8.6233328e-05,-1.3679085e-04,-2.5066374e-02,2.4207151e-03,-2.5054851e-02,4.2603946e-04,-2.2802493e-03,-1.4109463e-04,5.7510730e-02,-1.7180736e-01,2.1476800e-02
1.5100000e+00,-1.9119921e-04,4.5959688e-04,-1.2870949e-04,6.2222317e-03,3.7316451e-02,6.3809903e-03,-5.3930920e-04,-3.6915053e-03,6.6172339e-05,-9.6534958e-02,-1.4112573e-01,2.0726717e-02
1.5200000e+00,-1.6890317e-04,3.1063692e-04,-1.8530556e-05,2.2567149e-03,-1.4895109e-02,2.2082557e-03,-1.6688245e-03,-1.2803966e-03,-1.0110532e-03,-1.1295163e-01,2.4111110e-01,-1.0772266e-01
1.5300000e+00,-5.9661109e-05,-6.1917057e-05,6.2467600e-05,1.0968426e-02,-3.7241029e-02,1.0929028e-02,-8.8313988e-04,4.3414092e-04,-1.0360106e-03,7.8568533e-02,1.7145392e-01,-2.4957409e-03
1.5400000e+00,2.9427303e-05,4.9301392e-05,2.5883060e-06,8.9104541e-03,1.1117031e-02,8.9132658e-03,-1.8114784e-04,-7.2265963e-04,-4.0634837e-04,7.0199271e-02,-1.1568016e-01,6.2966281e-02
1.5500000e+00,9.8567875e-06,2.6013438e-04,3.5682852e-05,-1.9706331e-03,2.1087849e-02,-1.8935933e-03,-6.0975028e-04,-2.9751260e-03,-3.7026535e-04,-4.2860284e-02,-2.2524685e-01,3.6083060e-03
1.5599999e+00,7.1154802e-05,9.1368049e-05,7.8114379e-05,6.1525401e-03,-1.6872621e-02,6.1181112e-03,-1.0176727e-03,-3.6240714e-04,-9.0763234e-04,-4.0792281e-02,2.6127213e-01,-5.3736751e-02
1.5699999e+00,-1.5153264e-04,1.3726915e-04,7.4425904e-05,-2.2295297e-02,4.6028505e-03,-2.2239569e-02,-5.8520243e-04,-1.1585592e-03,-1.0715548e-03,4.3247068e-02,-7.9615287e-02,-1.6392262e-02
1.5799999e+00,7.5882277e-05,-2.5838382e-04,9.8932394e-05,2.2747368e-02,-3.9530304e-02,2.2796508e-02,5.6754202e-05,1.5954429e-03,-3.5626602e-04,6.4195724e-02,2.7540047e-01,7.1528948e-02
1.5899801e+00,-3.0399418e-05,1.5242808e-04,1.6682486e-06,-1.0684223e-02,4.1177691e-02,-1.0555800e-02,-7.2467204e-04,-2.1447874e-03,-4.8308183e-04,-7.8297640e-02,-3.7476500e-01,-1.2706738e-02
1.5999804e+00,1.1439063e-05,5.6848626e-05,4.2590316e-05,4.1962587e-03,-9.5560236e-03,4.1751088e-03,-9.2743660e-04,-5.2209674e-04,-8.7136786e-04,-2.0275991e-02,1.6226536e-01,-3.8827715e-02
1.6099803e+00,-9.5362071e-05,2.1961867e-04,-2.2830237e-05,-1.0698306e-02,1.6301276e-02,-1.0624787e-02,-7.3530912e-04,-3.0155899e-03,-5.8223351e-04,1.9212766e-02,-2.4934956e-01,2.8913462e-02
1.6199803e+00,1.7865583e-06,-8.5229697e-05,2.9368996e-05,9.7252341e-03,-3.0480937e-02,9.7168336e-03,-1.6450283e-04,2.3995161e-04,-5.5056445e-04,5.7080683e-02,3.2555447e-01,3.1669093e-03
1.6299803e+00,-1.9255437e-04,1.4174524e-04,-1.1605319e-04,-1.9421621e-02,2.2765488e-02,-1.9366977e-02,5.7526072e-04,-2.9275806e-03,-2.9329660e-05,7.3976426e-02,-3.1675352e-01,5.2123529e-02
1.6399803e+00,-3.0522233e-04,1.1659016e-05,-2.4243267e-05,-1.1272633e-02,-1.2986150e-02,-1.1286902e-02,7.6082708e-04,-1.2332490e-03,3.6105830e-04,1.8556653e-02,1.6943332e-01,3.9038833e-02
1.6499803e+00,-1.8217076e-05,-1.4163413e-04,1.2386550e-04,2.8724123e-02,-1.5299161e-02,2.8693070e-02,-4.9192029e-04,5.5938077e-04,-5.5876338e-04,-1.2527486e-01,1.7926314e-01,-9.1982256e-02
1.6599803e+00,4.9261982e-05,-1.5250476e-04,1.2465507e-04,6.7484969e-03,-1.0830592e-03,6.7479715e-03,1.4907568e-04,7.4254410e-04,-1.1067242e-04,6.4099658e-02,1.8316350e-02,4.4809139e-02
1.6699803e+00,-1.9134239e-04,1.3193879e-04,-1.2793416e-04,-2.4052043e-02,2.8508123e-02,-2.3993343e-02,4.2511392e-04,-2.2274855e-03,-1.5282443e-04,2.7603850e-02,-2.9700325e-01,-4.2152045e-03
1.6799803e+00,-2.1144226e-04,2.7957019e-04,-5.5054106e-05,-2.0164262e-03,1.4769130e-02,-1.9589962e-03,-4.3165035e-04,-3.4490475e-03,-3.2294699e-05,-8.5676509e-02,-1.2215631e-01,1.2052984e-02
1.6899803e+00,-3.7915756e-05,3.5063717e-04,1.9081378e-06,1.7358652e-02,7.1232015e-03,1.7339913e-02,-1.9767701e-03,-1.0262595e-03,-1.1570787e-03,-1.5451212e-01,2.4227903e-01,-1.1247851e-01
1.6999803e+00,5.5460464e-06,-4.4678669e-05,8.9311838e-05,4.3880059e-03,-3.9525470e-02,4.3600847e-03,-9.5164898e-04,4.5903495e-04,-9.6758636e-04,1.0251221e-01,1.4852959e-01,1.8949250e-02
1.7099802e+00,-2.1601551e-05,8.8891641e-05,2.8464738e-05,-2.7135147e-03,1.3360762e-02,-2.6976565e-03,1.3199355e-04,-1.2419014e-03,-1.8987046e-04,1.0836436e-01,-1.7009380e-01,7.7771664e-02
1.7199802e+00,-5.7145662e-05,2.1460533e-04,4.9147630e-05,-3.5631440e-03,1.2579269e-02,-3.5175751e-03,-5.8087717e-04,-2.8159176e-03,-4.0173996e-04,-7.1287140e-02,-1.5740177e-01,-2.1186970e-02
1.7299802e+00,4.3277417e-05,2.7549007e-05,8.3623657e-05,1.0067503e-02,-1.8701499e-02,1.0024817e-02,-8.7188528e-04,-4.5984342e-04,-8.8463958e-04,-2.9100838e-02,2.3560764e-01,-4.8290008e-02
1.7399802e+00,-1.7369082e-04,2.3400593e-04,-3.8357981e-06,-2.1737842e-02,2.0680611e-02,-2.1622445e-02,-6.5789589e-04,-2.2718878e-03,-1.2645446e-03,2.1398959e-02,-1.8120461e-01,-3.7990542e-02
1.7499802e+00,2.9841211e-05,-2.4691144e-04,9.3386410e-05,2.0358655e-02,-4.8058521e-02,2.0426225e-02,1.0517064e-05,1.6420706e-03,-2.9180879e-04,6.6841359e-02,3.9139621e-01,9.7273678e-02
1.7599802e+00,-1.5068547e-04,-1.0866201e-04,2.1257468e-05,-1.8050204e-02,1.3827943e-02,-1.8052879e-02,2.5361496e-04,8.8106215e-05,-5.6791373e-05,2.4309812e-02,-1.5539658e-01,2.3501764e-02
1.7699802e+00,4.1740318e-06,6.2228612e-05,3.2592584e-05,1.5482227e-02,1.7086469e-02,1.5492582e-02,-8.9628740e-04,-1.0645716e-03,-7.4837249e-04,-1.1499035e-01,-1.1526789e-01,-6.9158178e-02
1.7799802e+00,4.0833933e-05,-2.4613370e-04,1.4633891e-04,3.6895953e-03,-3.0827325e-02,3.7171051e-03,-6.5569552e-04,1.7682639e-03,-9.2332167e-04,2.4059211e-02,2.8328382e-01,-1.7494934e-02
1.7899802e+00,3.8081762e-05,-2.1308395e-04,9.6384769e-05,-2.7557162e-04,3.3044783e-03,-2.8080087e-04,-7.5067841e-05,1.7217227e-03,-3.8580822e-04,5.8062823e-02,-4.6541234e-03,5.3751396e-02
1.7999802e+00,-2.0377756e-04,8.0198450e-05,-8.1021225e-05,-2.4191350e-02,2.9362742e-02,-2.4138687e-02,9.8307618e-05,-1.3285716e-03,-3.4231210e-04,1.7337562e-02,-3.0502973e-01,4.3496167e-03
1.8099802e+00,-2.0341119e-04,3.6551623e-04,2.7079675e-05,2.7690612e-05,2.8531437e-02,1.5127272e-04,-3.1322265e-04,-4.0175990e-03,2.5672059e-04,-4.1153066e-02,-2.6890300e-01,5.9903326e-02
1.8199801e+00,-1.1354299e-04,1.5673942e-04,3.9909767e-05,9.0015399e-03,-2.0891638e-02,8.9395896e-03,-4.9804598e-04,-2.0552129e-03,-4.8017986e-04,-1.8482350e-02,1.9623880e-01,-7.3690115e-02
1.8299801e+00,-1.2492884e-04,-6.0776286e-05,8.5103818e-05,-1.1470623e-03,-2.1751587e-02,-1.1301325e-03,3.9655874e-04,3.9552867e-04,1.3089293e-04,8.9460557e-02,2.4507439e-01,6.1107338e-02
1.8399801e+00,-3.2807524e-04,-5.8270572e-05,1.4595422e-05,-2.0308970e-02,2.8004355e-04,-2.0319962e-02,9.1822365e-04,-5.3241497e-04,2.6825934e-04,5.2166541e-02,-9.2794452e-02,1.3736654e-02
1.8499804e+00,-2.1223853e-04,2.2413485e-04,-1.1147775e-04,1.1592282e-02,2.8202103e-02,1.1666304e-02,3.3644052e-04,-2.9155435e-03,5.3844967e-05,-5.8176981e-02,-2.3830740e-01,-2.1440947e-02
1.8599803e+00,-1.9278422e-05,1.4202958e-04,3.3687461e-05,1.9313519e-02,-8.2288478e-03,1.9270714e-02,-8.0979830e-04,-1.7606363e-03,-5.6229972e-04,-1.1462399e-01,1.1549084e-01,-6.1614527e-02
1.8699803e+00,-1.0500053e-05,-2.2778980e-04,1.2526276e-04,9.0242744e-04,-3.6979860e-02,9.3972959e-04,-6.4453748e-04,1.6945758e-03,-8.5881736e-04,1.6526098e-02,3.4552154e-01,-2.9651792e-02
1.8799803e+00,-6.0917755e-05,-1.2666314e-04,7.7131189e-05,-5.0429318e-03,1.0106780e-02,-5.0524273e-03,-1.2953145e-05,1.1551593e-03,-2.0347851e-04,6.3158494e-02,-5.3941704e-02,6.5533948e-02
1.8899803e+00,-2.6826095e-05,1.9007354e-04,3.8385447e-05,3.3891400e-03,3.1667280e-02,3.4878609e-03,-6.8189804e-04,-2.5338812e-03,-4.6056856e-04,-6.6894553e-02,-3.6890440e-01,-2.5709030e-02
1.8999803e+00,3.4128635e-05,1.0415157e-04,6.9633001e-05,6.1073365e-03,-8.5957079e-03,6.0786481e-03,-8.4495653e-04,-1.4225853e-03,-7.5491081e-04,-1.6305864e-02,1.1112970e-01,-2.9434252e-02
1.9099803e+00,-1.2883468e-04,2.7075921e-04,-2.3919500e-05,-1.6329516e-02,1.6688506e-02,-1.6234659e-02,-7.1770763e-04,-2.4255067e-03,-1.3026923e-03,1.2724902e-02,-1.0029224e-01,-5.4778205e-02
1.9199803e+00,2.0503620e-05,-6.9993092e-05,5.8315627e-05,1.4979852e-02,-3.4054412e-02,1.4935327e-02,-8.8415705e-04,5.1139823e-04,-1.0643137e-03,-1.6644958e-02,2.9369077e-01,2.3837887e-02
1.9299803e+00,-5.0218414e-05,1.0767133e-04,2.4045758e-05,-7.0881626e-03,1.7773650e-02,-7.0380906e-03,-6.8347978e-04,-1.7053358e-03,-5.3903322e-04,2.0067747e-02,-2.2167361e-01,5.2528097e-02
1.9399803e+00,-1.7002588e-04,-1.0523584e-05,7.1991074e-05,-1.1978644e-02,-1.1815298e-02,-1.1987017e-02,-3.8746817e-04,-7.3825971e-04,-2.0594169e-04,2.9601189e-02,9.6707698e-02,3.3309185e-02
1.9499803e+00,-1.3183045e-04,-8.6161640e-05,1.0316065e-04,3.8250167e-03,-7.5607420e-03,3.8201521e-03,-4.5025727e-04,3.5359938e-04,-5.4079883e-04,-6.2789166e-03,1.0918601e-01,-3.3485746e-02
1.9599802e+00,7.9177620e-05,-1.4076431e-04,5.9361525e-05,2.1102835e-02,-5.4465322e-03,2.1102370e-02,1.9669273e-04,8.4788022e-04,-1.4607580e-04,6.4695062e-02,4.9428132e-02,3.9472340e-02
1.9699802e+00,-2.9457282e-04,-4.3376450e-05,-3.2221679e-05,-3.7356372e-02,9.7994272e-03,-3.7377934e-02,8.4680185e-04,-7.7540609e-04,2.7948827e-04,6.5010974e-02,-1.6232879e-01,4.2556447e-02
1.9799802e+00,-3.3347015e-04,-2.9325342e-05,-2.9052335e-05,-3.8874122e-03,1.4119961e-03,-3.8895677e-03,7.9394488e-04,-9.7580527e-04,3.1042949e-04,-5.2857021e-03,-2.0039938e-02,3.0941249e-03
1.9899802e+00,-3.1995590e-04,-1.9931616e-04,8.3595188e-07,1.3391640e-03,-1.6999083e-02,1.3637725e-03,7.4032467e-04,7.4517956e-04,-2.3955271e-04,-5.3620266e-03,1.7209865e-01,-5.4998272e-02
1.9999802e+00,2.6685557e-05,2.9710735e-05,3.0242034e-05,3.4674388e-02,2.2889102e-02,3.4662958e-02,-1.6293057e-04,-5.5566849e-04,-4.0224635e-04,-9.0325610e-02,-1.3008493e-01,-1.6269379e-02
2.0099802e+00,-4.6158538e-06,7.8458486e-05,2.2948797e-05,-3.1309648e-03,4.8784108e-03,-3.1236595e-03,1.4127763e-05,-1.1472390e-03,-2.8425031e-04,1.7705850e-02,-5.9157104e-02,1.1799615e-02
2.0199802e+00,-3.6535573e-05,1.7647884e-04,6.6620651e-05,-3.1980645e-03,9.8093046e-03,-3.1634488e-03,-4.7101103e-04,-2.7588442e-03,-4.6159702e-04,-4.8513926e-02,-1.6116068e-01,-1.7734688e-02
2.0299802e+00,-7.8411563e-05,3.6867001e-04,2.3559582e-05,-4.2208208e-03,1.9222013e-02,-4.1407851e-03,-1.5256042e-03,-2.2315783e-03,-9.3220924e-04,-1.0545942e-01,5.2726643e-02,-4.7061267e-02
2.0399802e+00,1.3167957e-05,-5.2900146e-06,9.4125166e-05,9.1895027e-03,-3.7395284e-02,9.1293989e-03,-6.3648334e-04,-5.5607807e-04,-8.4573083e-04,8.8912173e-02,1.6755018e-01,8.6478494e-03
2.0499802e+00,1.9011412e-05,-2.3608825e-04,1.2920057e-04,5.9161205e-04,-2.3079401e-02,5.9450111e-04,-3.0220382e-04,4.5278247e-04,-4.9857342e-04,3.3427983e-02,1.0088615e-01,3.4715774e-02
2.0599802e+00,-3.9961535e-06,3.7964059e-05,3.1027291e-05,-2.3209069e-03,2.7407086e-02,-2.2583475e-03,-6.8199652e-04,-1.4938680e-03,-6.3407446e-04,-3.7979305e-02,-1.9466524e-01,-1.3550117e-02
2.0699801e+00,-4.6070879e-05,2.2872311e-05,5.2165840e-05,-4.2096528e-03,-1.5091436e-03,-4.2053109e-03,-8.0195043e-04,-8.1013087e-04,-8.0553206e-04,-1.1995402e-02,6.8373783e-02,-1.7145777e-02
2.0799801e+00,-1.9906746e-04,-1.4834774e-04,9.7197579e-05,-1.5304593e-02,-1.7138016e-02,-1.5276825e-02,-3.1376625e-04,7.3254900e-04,-6.7303065e-04,4.8818464e-02,1.5426813e-01,1.3250154e-02
2.0899801e+00,2.2222554e-05,-2.3047019e-04,1.0268502e-04,2.2128374e-02,-8.2064746e-03,2.2131814e-02,3.4457205e-04,6.0567047e-04,-9.8624897e-05,6.5833892e-02,-1.2687865e-02,5.7440630e-02
2.0999804e+00,1.5076988e-06,-6.8087538e-05,3.9744085e-05,-2.0604810e-03,1.6241797e-02,-2.0516708e-03,6.2155753e-04,-1.2700811e-03,4.1698814e-04,2.7697915e-02,-1.8757087e-01,5.1560124e-02
2.1099803e+00,-6.7896908e-05,1.7498928e-04,3.5966260e-05,-6.9563073e-03,2.4322908e-02,-6.8709987e-03,-5.2703489e-04,-2.7322964e-03,-4.3666784e-04,-1.1485935e-01,-1.4622167e-01,-8.5365680e-02
2.1199803e+00,-4.5936957e-05,3.7984438e-05,8.1454896e-05,2.2074131e-03,-1.3700142e-02,2.1867484e-03,-6.9438759e-04,-5.3547608e-04,-8.6698053e-04,-1.6735286e-02,2.1968224e-01,-4.3031310e-02
2.1299803e+00,-1.9591473e-05,-7.4704916e-05,5.7142584e-05,2.6370410e-03,-1.1267661e-02,2.6375543e-03,-7.2824097e-05,4.1482546e-04,-6.3384892e-04,6.2156408e-02,9.5030245e-02,2.3313183e-02
2.1399803e+00,-1.5192640e-04,1.6927517e-04,5.5734217e-06,-1.3217542e-02,2.4434962e-02,-1.3181220e-02,4.9941961e-04,-2.2956219e-03,2.8540189e-04,5.7224426e-02,-2.7104499e-01,9.1925168e-02
2.1499803e+00,-2.7575673e-04,1.4844753e-04,-1.5070488e-04,-1.2384930e-02,-2.0407346e-03,-1.2388156e-02,5.9891756e-04,-2.7948751e-03,-5.1747474e-05,9.9498040e-03,-4.9925372e-02,-3.3714968e-02
2.1599803e+00,-8.4509909e-05,1.6198879e-04,1.6897193e-05,1.9132738e-02,1.3136005e-03,1.9119487e-02,-4.9749204e-04,-2.6175108e-03,-4.5571140e-04,-1.0964106e-01,1.7736442e-02,-4.0396431e-02
2.1699803e+00,-1.5221749e-04,-1.2334846e-04,7.0611401e-05,-6.7793565e-03,-2.8535920e-02,-6.7530090e-03,2.6202787e-04,5.8312590e-04,-1.6474996e-04,7.5952063e-02,3.2006398e-01,2.9096172e-02
2.1799803e+00,-1.1358122e-04,-6.4337384e-05,7.1036158e-05,3.8656883e-03,5.8992628e-03,3.8643994e-03,4.2239921e-04,-5.6469016e-05,1.1258370e-04,1.6037150e-02,-6.3959552e-02,2.7733392e-02
2.1899803e+00,2.0681424e-05,1.1995979e-04,-1.9796925e-06,1.3430540e-02,1.8400921e-02,1.3461489e-02,1.1539311e-04,-2.0282525e-03,-1.5915702e-04,-3.0700639e-02,-1.9717853e-01,-2.7174098e-02
2.1999803e+00,2.7915738e-05,1.6152010e-04,6.3826147e-05,7.2136365e-04,4.1547837e-03,7.3262599e-04,-5.9130489e-04,-2.3057708e-03,-5.3806165e-04,-7.0669868e-02,-2.7751863e-02,-3.7890499e-02
2.2099802e+00,2.6528237e-05,-1.9284671e-04,1.5605414e-04,-1.2499463e-04,-3.5436865e-02,-1.1055719e-04,-3.9105547e-04,7.9299172e-04,-7.3611184e-04,2.0024961e-02,3.0987655e-01,-1.9805038e-02
2.2199802e+00,-1.1593951e-04,-2.2425646e-04,5.8350824e-05,-1.4252877e-02,-3.1595697e-03,-1.4236584e-02,2.3280506e-04,1.5386079e-03,-3.7614794e-04,6.2386112e-02,7.4561685e-02,3.5996424e-02
2.2299802e+00,1.2031997e-05,3.9116560e-05,-1.2437974e-05,1.2800448e-02,2.6321778e-02,1.2825837e-02,-1.1034072e-06,-1.2149441e-03,-2.5901640e-04,-2.3390869e-02,-2.7535546e-01,1.1713165e-02
2.2399802e+00,3.0682309e-05,8.2411574e-05,3.8960053e-05,1.8637748e-03,4.3268038e-03,1.8725458e-03,-5.2127169e-04,-1.9661786e-03,-5.3569651e-04,-5.2016878e-02,-7.5123518e-02,-2.7668037e-02
2.2499802e+00,2.9782304e-05,-4.8192970e-05,5.3778902e-05,-8.0128989e-05,-1.3060512e-02,-9.2734904e-05,-7.6254043e-04,-2.1532581e-04,-9.7332404e-04,-2.4126897e-02,1.7508545e-01,-4.3762795e-02
2.2599802e+00,-1.7692311e-05,-6.5884542e-05,7.3483205e-05,-4.7506833e-03,-1.7729895e-03,-4.7428164e-03,-7.7717705e-04,2.9837639e-05,-9.6806551e-04,-1.4636639e-03,2.4516368e-02,5.2585307e-04
2.2699802e+00,-9.2592093e-05,-9.5512604e-05,1.0578557e-04,-7.4901870e-03,-2.9626801e-03,-7.4898347e-03,2.3446274e-04,2.1725152e-04,6.5794243e-05,1.0116408e-01,1.8741406e-02,1.0338607e-01
2.2799802e+00,-3.9928348e-04,-2.2604100e-04,9.5069457e-06,-3.0678130e-02,-1.3042468e-02,-3.0664622e-02,2.6941794e-04,-6.9159048e-05,-1.7760633e-04,3.4955229e-03,-2.8641084e-02,-2.4340081e-02
2.2899466e+00,-4.9168638e-04,-3.5118575e-04,1.2778887e-05,-9.2779827e-03,-1.2556417e-02,-9.2653292e-03,5.1659207e-04,4.8654912e-04,-3.2262948e-06,2.4800810e-02,5.5758313e-02,1.7496840e-02
2.2999465e+00,-3.4199890e-04,-2.9421245e-04,9.3226881e-05,1.4965762e-02,5.6806130e-03,1.4978115e-02,1.2918689e-03,1.7493358e-04,6.9106211e-04,7.7527762e-02,-3.1161584e-02,6.9428907e-02
2.3099465e+00,-7.8021265e-04,-2.2980032e-04,9.3298959e-05,-4.3777998e-02,6.5354843e-03,-4.3850846e-02,1.5621773e-03,-5.8871091e-04,7.5967345e-04,2.7030864e-02,-7.6364522e-02,6.8611410e-03
2.3199465e+00,-1.1626957e-03,-1.1377047e-04,2.8739355e-05,-3.8228821e-02,1.1703383e-02,-3.8237269e-02,1.3234566e-03,-1.3015207e-03,1.0798048e-04,-2.3872096e-02,-7.1281050e-02,-6.5169360e-02
2.3299465e+00,-1.8973958e-03,-5.9614166e-04,-2.9086656e-04,-7.3640290e-02,-4.8486106e-02,-7.3135040e-02,-2.0592110e-04,3.1936249e-03,-2.4549861e-03,-1.5293792e-01,4.4951499e-01,-2.5629690e-01
2.3399465e+00,-1.6549888e-03,-1.7762264e-04,8.7673944e-05,2.4303204e-02,4.1794791e-02,2.4276725e-02,1.1806102e-03,-1.1752669e-03,-5.4031802e-04,1.3865326e-01,-4.3688960e-01,1.9146699e-01
2.3499467e+00,-1.8390543e-03,-1.8246553e-04,9.8038772e-05,-1.8413058e-02,-4.7100463e-04,-1.8399538e-02,6.3690875e-04,-8.4237120e-05,-3.6006942e-04,-5.4368896e-02,1.0910049e-01,1.8024448e-02
2.3599467e+00,-1.9352441e-03,-6.2063341e-04,7.1183698e-05,-9.6252142e-03,-4.3836635e-02,-9.5220426e-03,9.4602206e-05,2.1646998e-03,-2.1596664e-04,-5.4230706e-02,2.2489391e-01,1.4410292e-02
2.3699467e+00,-2.0145186e-03,-4.3176329e-04,1.8844884e-05,-7.9565029e-03,1.8852450e-02,-7.9804871e-03,-1.3383548e-03,3.0121682e-03,-4.7658590e-04,-1.4329584e-01,8.4746922e-02,-2.6061951e-02
2.3799467e+00,-2.2704680e-03,-5.2424690e-04,5.5373703e-05,-2.5598746e-02,-9.3755488e-03,-2.5544865e-02,-1.1752546e-03,3.7987296e-03,-5.7322205e-04,1.6310035e-02,7.8656218e-02,-9.6636244e-03
2.3899467e+00,-2.5984793e-03,-6.0785318e-04,2.4838078e-04,-3.2799783e-02,-8.4220281e-03,-3.2786821e-02,1.1644219e-04,1.9884440e-03,7.1543052e-05,1.2916980e-01,-1.8102874e-01,6.4476572e-02
2.3999467e+00,-3.6264731e-03,-2.7684764e-04,-2.3926784e-04,-1.0315402e-01,3.2700521e-02,-1.0257212e-01,-2.3920266e-03,1.5024342e-03,-2.6850834e-03,-2.5084712e-01,-4.8601026e-02,-2.7566291e-01
2.4099467e+00,-3.9298324e-03,-7.6337849e-04,2.0160263e-04,-3.0378348e-02,-4.8657772e-02,-3.0286064e-02,2.2101550e-04,3.7451300e-04,-1.0433165e-03,2.6130446e-01,-1.1279222e-01,1.6417685e-01
2.4199467e+00,-4.3874462e-03,-9.6496386e-04,1.2546266e-04,-4.5850026e-02,-2.0224449e-02,-4.5643512e-02,5.1412066e-04,1.9583045e-03,-1.7112636e-03,2.9310544e-02,1.5837930e-01,-6.6794782e-02
2.4299467e+00,-4.9640084e-03,-6.2449099e-04,-2.7593656e-04,-5.7899346e-02,3.3841154e-02,-5.7533941e-02,-1.5751192e-03,2.0053643e-03,-3.2923706e-03,-2.0892419e-01,4.7059876e-03,-1.5811085e-01
2.4399467e+00,-5.3216239e-03,-6.0711183e-04,-2.9708553e-04,-3.5864097e-02,1.6675211e-03,-3.5662130e-02,-1.3656596e-03,6.0448144e-04,-2.8051767e-03,2.0945976e-02,-1.4008842e-01,4.8719442e-02
2.4499466e+00,-5.5330697e-03,-6.2496070e-04,-2.3564907e-04,-2.1183664e-02,-1.8220584e-03,-2.1102283e-02,-1.3244012e-03,4.3437270e-04,-1.9621712e-03,4.1258496e-03,-1.7010890e-02,8.4300621e-02
2.4599466e+00,-5.5586890e-03,-1.0053405e-03,1.5032660e-04,-2.5715435e-03,-3.8040718e-02,-2.5117361e-03,2.3610191e-04,1.3030065e-03,-2.4575969e-04,1.5605046e-01,8.6863464e-02,1.7164132e-01
2.4699466e+00,-6.1943101e-03,-8.1196117e-04,-1.7778989e-04,-6.3718240e-02,1.9034488e-02,-6.3497487e-02,-1.7927511e-03,2.9854656e-03,-1.9133353e-03,-2.0288549e-01,1.6824607e-01,-1.6675772e-01
2.4799466e+00,-6.7444399e-03,-7.8606801e-04,-2.0827604e-04,-5.5154285e-02,2.4372657e-03,-5.4878365e-02,-1.3199766e-03,1.4475068e-03,-2.5096541e-03,4.7277496e-02,-1.5379603e-01,-5.9631940e-02
2.4899466e+00,-6.8838519e-03,-8.9920246e-04,2.4925990e-04,-1.3966347e-02,-1.1259583e-02,-1.3959665e-02,1.6208423e-03,-2.2414342e-03,-4.8870800e-04,2.9408217e-01,-3.6889445e-01,2.0209480e-01
2.4999466e+00,-7.3402519e-03,-1.0459087e-03,2.6628578e-04,-4.5708811e-02,-1.4587720e-02,-4.5597793e-02,1.2471048e-03,-5.7010553e-04,-1.1071586e-03,-3.7373785e-02,1.6713303e-01,-6.1845118e-02
2.5099466e+00,-7.4867066e-03,-1.2128076e-03,2.6535457e-04,-1.4681045e-02,-1.6696626e-02,-1.4602146e-02,9.8634913e-04,1.4494816e-03,-1.3054214e-03,-2.6075595e-02,2.0195891e-01,-1.9826302e-02
2.5199466e+00,-7.4655158e-03,-1.2825444e-03,3.2449734e-04,2.1144308e-03,-6.9718144e-03,2.1298890e-03,8.0128766e-04,1.6820543e-03,-4.3952407e-04,-1.8506165e-02,2.3257293e-02,8.6589818e-02
2.5299466e+00,-7.5022352e-03,-1.3037387e-03,3.5723375e-04,-3.6720288e-03,-2.1234252e-03,-3.6695632e-03,8.1503053e-04,1.9036887e-03,4.4873393e-04,1.3742883e-03,2.2163452e-02,8.8825885e-02
2.5399466e+00,-7.7952666e-03,-1.3428192e-03,3.4420259e-04,-2.9304923e-02,-3.9459748e-03,-2.9296313e-02,9.3755903e-04,2.2319386e-03,6.4415550e-05,1.2252862e-02,3.2825025e-02,-3.8431874e-02
2.5499465e+00,-8.2833264e-03,-1.4831571e-03,5.1291996e-04,-4.8860173e-02,-1.3958445e-02,-4.8773456e-02,2.3384751e-03,7.9566234e-04,-4.3977561e-04,1.4009174e-01,-1.4362776e-01,-5.0419164e-02
2.5599465e+00,-8.7026575e-03,-1.2385422e-03,4.5184178e-04,-4.1924279e-02,2.4624530e-02,-4.1846518e-02,2.0390769e-03,-1.8524906e-03,-9.8050154e-04,-2.9939852e-02,-2.6481555e-01,-5.4072644e-02
2.5699465e+00,-9.1597653e-03,-1.2342902e-03,4.9231836e-04,-4.5741315e-02,6.7142228e-04,-4.5677351e-02,1.9846988e-03,-3.4042324e-03,-6.8777632e-04,-5.4378094e-03,-1.5517433e-01,2.9272550e-02
2.5799465e+00,-9.1416461e-03,-1.2275583e-03,9.0220590e-04,1.8107351e-03,6.5906094e-04,1.8182788e-03,3.1931974e-03,-4.5858972e-03,1.8319400e-03,1.2084997e-01,-1.1816659e-01,2.5197187e-01
2.5899465e+00,-9.2983629e-03,-1.5167990e-03,6.8593421e-04,-1.5741226e-02,-2.8861489e-02,-1.5717352e-02,2.9984527e-03,-9.8571134e-04,1.0921625e-03,-1.9474491e-02,3.6001893e-01,-7.3977817e-02
2.5999467e+00,-9.7253861e-03,-1.7819752e-03,4.9064311e-04,-4.2758345e-02,-2.6439069e-02,-4.2692639e-02,3.5018996e-03,1.6798089e-03,8.3331185e-04,5.0343545e-02,2.6654592e-01,-2.5884471e-02
2.6099467e+00,-1.0390577e-02,-1.2587796e-03,-8.4278787e-05,-6.6597990e-02,5.2294933e-02,-6.6459596e-02,7.0116137e-04,1.0732345e-03,-1.7387578e-03,-2.8007409e-01,-6.0657501e-02,-2.5720721e-01
2.6199467e+00,-1.0930059e-02,-1.1685511e-03,3.9151406e-05,-5.4029579e-02,9.2046079e-03,-5.3836006e-02,1.2829705e-03,-2.0899878e-03,-1.7247430e-03,5.8180964e-02,-3.1632253e-01,1.4014868e-03
2.6299467e+00,-1.1082037e-02,-1.3507921e-03,4.7913389e-04,-1.5248040e-02,-1.8132308e-02,-1.5257205e-02,2.4898810e-03,-3.5413706e-03,-3.2241606e-04,1.2069117e-01,-1.4513842e-01,1.4023282e-01
2.6399467e+00,-1.1370546e-02,-1.5294135e-03,5.8168437e-04,-2.8904808e-02,-1.7704649e-02,-2.8894107e-02,2.8836345e-03,-2.5713910e-03,-8.5429866e-05,3.9375384e-02,9.6998055e-02,2.3698642e-02
2.6499467e+00,-1.1879647e-02,-1.6960972e-03,5.8368749e-04,-5.0887408e-02,-1.6350101e-02,-5.1035892e-02,3.5490828e-03,-2.6952520e-03,1.6006012e-03,6.6544896e-02,-1.2386116e-02,1.6860327e-01
2.6599467e+00,-1.2067672e-02,-1.5455201e-03,4.8501628e-04,-1.8717583e-02,1.5193324e-02,-1.8778232e-02,3.6443491e-03,-3.5723011e-03,1.5926288e-03,9.5266399e-03,-8.7704994e-02,-7.9724451e-04
2.6699467e+00,-1.2242624e-02,-1.9107457e-03,4.9691535e-04,-1.7600592e-02,-3.6454170e-02,-1.7532193e-02,3.1728154e-03,-7.2674319e-04,5.9519844e-04,-4.7153414e-02,2.8455607e-01,-9.9743130e-02
2.6799467e+00,-1.2460388e-02,-1.9690006e-03,7.6233072e-04,-2.1732444e-02,-5.6830295e-03,-2.1857896e-02,4.4156223e-03,-2.1163184e-03,3.1870720e-03,1.2428081e-01,-1.3895765e-01,2.5918760e-01
2.6899266e+00,-1.3012640e-02,-2.2960990e-03,6.6555517e-04,-5.5372215e-02,-3.2587334e-02,-5.5410871e-02,4.5232189e-03,1.1267038e-03,2.0124712e-03,1.0781257e-02,3.2495331e-01,-1.1769590e-01
2.6999266e+00,-1.3622911e-02,-2.2032433e-03,6.6457739e-04,-6.0911246e-02,9.5980610e-03,-6.1094721e-02,4.0979379e-03,-1.0225093e-03,1.2678170e-03,-4.2528141e-02,-2.1492151e-01,-7.4465495e-02
2.7099266e+00,-1.4171259e-02,-2.3549250e-03,7.0439037e-04,-5.4879564e-02,-1.4886447e-02,-5.4867253e-02,4.6942916e-03,-4.4044161e-04,4.7135326e-04,5.9635426e-02,5.8206822e-02,-7.9646450e-02
2.7199266e+00,-1.4833092e-02,-2.4874805e-03,6.9085430e-04,-6.6253909e-02,-1.2967454e-02,-6.6169836e-02,4.6024734e-03,2.5151727e-04,-1.5485047e-04,-9.1818240e-03,6.9195954e-02,-6.2620433e-02
2.7299266e+00,-1.5286389e-02,-2.4979660e-03,6.7618481e-04,-4.5340340e-02,-8.6570418e-04,-4.5323036e-02,4.3450104e-03,3.1154931e-04,-1.4237249e-04,-2.5746327e-02,6.0032097e-03,1.2477991e-03
2.7399266e+00,-1.5902373e-02,-2.4464866e-03,1.6442975e-04,-6.1706135e-02,5.1468071e-03,-6.1490642e-02,3.0204989e-03,3.0442099e-03,-2.0074199e-03,-1.3245127e-01,2.7326632e-01,-1.8650492e-01
2.7499266e+00,-1.5842201e-02,-2.7578056e-03,7.1419329e-04,5.8461184e-03,-3.1163511e-02,6.0224243e-03,5.3534720e-03,3.0857459e-05,7.2423629e-04,2.3329753e-01,-3.0133554e-01,2.7316588e-01
2.7599266e+00,-1.5960364e-02,-3.0328985e-03,8.4309161e-04,-1.1960861e-02,-2.7460553e-02,-1.1784447e-02,5.9924072e-03,1.9081844e-03,1.7059756e-03,6.3893577e-02,1.8773287e-01,9.8174029e-02
2.7699265e+00,-1.6572740e-02,-2.8904285e-03,7.6461009e-04,-6.0990515e-02,1.4607223e-02,-6.1399176e-02,6.5823013e-03,6.9337564e-04,2.4792767e-03,5.8989474e-02,-1.2148099e-01,7.7330177e-02
2.7799265e+00,-1.7238617e-02,-2.7265655e-03,7.9301066e-04,-6.6375311e-02,1.6842771e-02,-6.6685965e-02,6.0142106e-03,-8.4390646e-04,1.6914464e-03,-5.6809128e-02,-1.5372836e-01,-7.8783105e-02
2.7899265e+00,-1.7913248e-02,-3.0732627e-03,6.8798334e-04,-6.7622950e-02,-3.4305209e-02,-6.7489483e-02,6.2801539e-03,8.8608405e-04,8.3840132e-04,2.6594351e-02,1.7299922e-01,-8.5304586e-02
2.7999265e+00,-1.8360044e-02,-3.3337088e-03,7.1409713e-04,-4.4817854e-02,-2.5770473e-02,-4.4700213e-02,7.0259260e-03,9.0337103e-04,9.7725860e-04,7.4577285e-02,1.7286995e-03,1.3885741e-02
2.8099265e+00,-1.8640461e-02,-3.7936805e-03,7.5054282e-04,-2.8334509e-02,-4.5888834e-02,-2.7924731e-02,7.3933513e-03,3.5776518e-03,1.6574964e-03,3.6742569e-02,2.6742834e-01,6.8023843e-02
2.8199265e+00,-1.8990544e-02,-3.6328663e-03,6.7937008e-04,-3.4824816e-02,1.6190675e-02,-3.5140735e-02,6.6594813e-03,3.5185482e-03,2.1580143e-03,-7.3387072e-02,-5.9103656e-03,5.0051840e-02
2.8299265e+00,-1.9390231e-02,-3.7818592e-03,8.7059927e-04,-3.9951629e-02,-1.4734210e-02,-4.0046886e-02,7.3473830e-03,3.2185011e-03,3.1339933e-03,6.8790235e-02,-3.0004738e-02,9.7597990e-02
2.8399265e+00,-2.0017344e-02,-3.8043719e-03,8.2006841e-04,-6.2659995e-02,-2.0305211e-03,-6.2770304e-02,6.5993772e-03,3.0769964e-03,1.0343992e-03,-7.4800650e-02,-1.4150492e-02,-2.0995961e-01
2.8499267e+00,-2.0823304e-02,-4.1391366e-03,9.1537051e-04,-8.0792898e-02,-3.3231346e-02,-8.0496304e-02,7.3654426e-03,4.3461221e-03,5.6647304e-04,7.6604780e-02,1.2690967e-01,-4.6791547e-02
2.8599267e+00,-2.1498341e-02,-4.1901521e-03,1.0069495e-03,-6.7389962e-02,-4.7554436e-03,-6.7642563e-02,7.9917865e-03,2.8605707e-03,2.2550978e-03,6.2634459e-02,-1.4855528e-01,1.6886264e-01
2.8699267e+00,-2.2369178e-02,-4.4338999e-03,8.6723479e-04,-8.7223726e-02,-2.4325613e-02,-8.6957437e-02,6.6541735e-03,6.0992283e-03,2.3361081e-04,-1.3376143e-01,3.2386606e-01,-2.0214889e-01
2.8799267e+00,-2.3131974e-02,-4.6967661e-03,8.3130457e-04,-7.6479540e-02,-2.6241950e-02,-7.6094598e-02,7.5025697e-03,6.9348715e-03,-6.3630654e-05,8.4839704e-02,8.3564400e-02,-2.9724175e-02
2.8899267e+00,-2.3624469e-02,-4.3815499e-03,8.4446202e-04,-4.9030187e-02,3.1616844e-02,-4.9407067e-02,6.9742051e-03,5.0176771e-03,-3.4783206e-05,-5.2836511e-02,-1.9171962e-01,2.8847476e-03
2.8999267e+00,-2.4244740e-02,-4.4336524e-03,1.1240715e-03,-6.1880366e-02,-4.7376994e-03,-6.2211431e-02,9.0073938e-03,1.3879923e-03,3.0781525e-03,2.0331906e-01,-3.6296883e-01,3.1129386e-01
2.9099267e+00,-2.4999464e-02,-4.5498048e-03,7.0392270e-04,-7.5411922e-02,-1.1341865e-02,-7.5574630e-02,7.9222831e-03,4.2975371e-03,1.9889591e-03,-1.0851118e-01,2.9095476e-01,-1.0891944e-01
2.9199266e+00,-2.5681790e-02,-4.5567826e-03,5.9110299e-04,-6.8199700e-02,-6.1448130e-04,-6.8266349e-02,6.6449109e-03,5.4214819e-03,5.2838240e-04,-1.2773734e-01,1.1239458e-01,-1.4605781e-01
2.9299266e+00,-2.6345373e-02,-4.4344422e-03,1.1077412e-03,-6.6011271e-02,1.2943704e-02,-6.6569526e-02,9.8986802e-03,-8.0224267e-04,3.3506371e-03,3.2537723e-01,-6.2237305e-01,2.8222573e-01
2.9399266e+00,-2.7715166e-02,-4.6312114e-03,6.4386866e-04,-1.3718218e-01,-1.8894279e-02,-1.3688670e-01,9.0422540e-03,3.3358153e-03,-2.2212996e-04,-8.5642696e-02,4.1380619e-01,-3.5727704e-01
2.9499266e+00,-2.8812048e-02,-4.7737513e-03,7.9728347e-04,-1.0983270e-01,-1.3263824e-02,-1.0966814e-01,1.0268378e-02,1.2480070e-03,-3.4232864e-05,1.2261255e-01,-2.0878103e-01,1.8789727e-02
2.9599266e+00,-2.9641997e-02,-4.9114966e-03,1.1384013e-03,-8.3125368e-02,-1.2843443e-02,-8.3013806e-02,1.0631141e-02,-5.7835178e-04,1.3689609e-04,3.6276254e-02,-1.8263605e-01,1.7112911e-02
2.9699266e+00,-3.0629639e-02,-5.0805526e-03,1.2197131e-03,-9.8904373e-02,-1.5894665e-02,-9.8791994e-02,1.0435278e-02,2.0829707e-04,3.1342419e-04,-1.9586269e-02,7.8664960e-02,1.7652827e-02
2.9799266e+00,-3.1444485e-02,-5.2060248e-03,1.2758485e-03,-8.1548408e-02,-1.1738075e-02,-8.1541330e-02,1.0621105e-02,6.9895630e-04,7.9567646e-04,1.8582682e-02,4.9065970e-02,4.8225274e-02
2.9899266e+00,-3.2430362e-02,-5.7432944e-03,1.3254045e-03,-9.9126113e-02,-5.2710880e-02,-9.8596595e-02,1.2247281e-02,1.9797845e-03,1.1385953e-03,1.6261778e-01,1.2808294e-01,3.4291914e-02
2.9999266e+00,-3.3454490e-02,-5.8387617e-03,1.2189849e-03,-1.0247285e-01,-8.4690390e-03,-1.0244771e-01,1.2621841e-02,2.1049246e-03,5.1133708e-04,3.7456095e-02,1.2514025e-02,-6.2725880e-02
3.0099266e+00,-3.4401002e-02,-6.2264571e-03,1.3064366e-03,-9.5098067e-02,-3.7953228e-02,-9.4534328e-02,1.2471263e-02,3.8797649e-03,3.1052712e-04,-1.5057850e-02,1.7748419e-01,-2.0081015e-02
3.0199265e+00,-3.5415663e-02,-6.5661052e-03,1.4480164e-03,-1.0194224e-01,-3.3127568e-02,-1.0126555e-01,1.3124218e-02,4.9067107e-03,-3.8526506e-04,6.5295522e-02,1.0269468e-01,-6.9579284e-02
3.0299265e+00,-3.6375255e-02,-6.8876460e-03,1.4414333e-03,-9.6390254e-02,-3.1417303e-02,-9.5771316e-02,1.3766550e-02,6.1254226e-03,2.7306648e-05,6.4233292e-02,1.2187130e-01,4.1257210e-02
3.0399265e+00,-3.7306990e-02,-6.8945933e-03,1.4623981e-03,-9.3047617e-02,1.4997858e-04,-9.3301847e-02,1.4057809e-02,4.9852313e-03,1.3570500e-03,2.9125922e-02,-1.1401923e-01,1.3297447e-01
3.0499265e+00,-3.8373900e-02,-7.0517848e-03,1.5005343e-03,-1.0675603e-01,-1.4688446e-02,-1.0677289e-01,1.4203070e-02,4.5518218e-03,1.3815737e-03,1.4526091e-02,-4.3340990e-02,2.4523716e-03
3.0599265e+00,-3.9592365e-02,-7.1069179e-03,1.4246988e-03,-1.2181782e-01,-4.3502988e-03,-1.2192246e-01,1.4420026e-02,4.8758359e-03,7.8450906e-04,2.1695642e-02,3.2401443e-02,-5.9706524e-02
3.0699265e+00,-4.1258344e-02,-7.0487904e-03,1.0874719e-03,-1.6675584e-01,7.3058646e-03,-1.6638126e-01,1.3941810e-02,4.9826650e-03,-1.5319204e-03,-4.7821596e-02,1.0682918e-02,-2.3164317e-01
3.0799265e+00,-4.2326907e-02,-7.1154778e-03,1.3774330e-03,-1.0703428e-01,-5.1943847e-03,-1.0676018e-01,1.5978881e-02,2.1904482e-03,-7.9541441e-04,2.0370724e-01,-2.7922195e-01,7.3650673e-02
3.0898948e+00,-4.3475677e-02,-7.5022802e-03,1.6234982e-03,-1.1597104e-01,-3.6805117e-02,-1.1516724e-01,1.7959348e-02,6.7392532e-04,-4.3591268e-04,1.9867695e-01,-1.5213484e-01,3.6064567e-02
3.0998950e+00,-4.4633513e-02,-7.1355134e-03,2.1363795e-03,-1.1467839e-01,3.9637596e-02,-1.1590208e-01,1.8546668e-02,-7.0736112e-03,3.4699677e-03,5.8730626e-02,-7.7473592e-01,3.9057910e-01
3.1098950e+00,-4.5677954e-02,-7.8240523e-03,1.5801582e-03,-1.0546116e-01,-6.6841311e-02,-1.0472947e-01,1.9066566e-02,-8.4600289e-05,2.6472142e-03,5.1989846e-02,6.9890176e-01,-8.2275428e-02
3.1198950e+00,-4.7080145e-02,-7.8107146e-03,1.0680461e-03,-1.4003127e-01,3.3092746e-03,-1.4037425e-01,1.7449702e-02,3.3551121e-03,1.0216407e-03,-1.6168653e-01,3.4397156e-01,-1.6255751e-01
3.1298950e+00,-4.8100392e-02,-8.2069019e-03,1.6873258e-03,-1.0243109e-01,-3.7683502e-02,-1.0235030e-01,1.9492866e-02,5.9484474e-04,3.3908594e-03,2.0431659e-01,-2.7602699e-01,2.3692210e-01
3.1398950e+00,-4.9686141e-02,-8.9041633e-03,1.6379194e-03,-1.5951662e-01,-6.6987085e-02,-1.5881121e-01,2.0191997e-02,3.0005550e-03,2.7324696e-03,6.9913184e-02,2.4057126e-01,-6.5839047e-02
3.1498950e+00,-5.1848486e-02,-8.8651510e-03,1.5177062e-03,-2.1606031e-01,7.7897325e-03,-2.1630390e-01,1.9432764e-02,1.4449431e-03,2.6709666e-04,-7.5923385e-02,-1.5556134e-01,-2.4653753e-01
3.1598949e+00,-5.3620004e-02,-9.2404497e-03,1.5610337e-03,-1.7792985e-01,-3.4438540e-02,-1.7700027e-01,2.0003167e-02,2.5954140e-03,-3.5371002e-04,5.7040322e-02,1.1504719e-01,-6.2080727e-02
