time, x, y, z, vx, vy, vz, yaw, pitch, roll, yaw_rate, pitch_rate, roll_rate
0.0000000e+00,0.0000000e+00,0.0000000e+00,0.0000000e+00,0.0000000e+00,0.0000000e+00,0.0000000e+00,0.0000000e+00,0.0000000e+00,0.0000000e+00,0.0000000e+00,0.0000000e+00,0.0000000e+00
1.0000229e-02,1.2701282e-04,1.6396589e-04,2.1806142e-04,1.2679113e-02,1.6403702e-02,1.2713176e-02,-5.3124248e-04,5.8456742e-05,1.0360911e-03,-5.3123032e-02,5.8455404e-03,1.0360673e-01
2.0000219e-02,1.5814099e-04,3.7988936e-04,1.4169754e-04,3.0981279e-03,2.1586981e-02,3.1644075e-03,-5.4378782e-04,-2.2533825e-03,9.4719653e-04,-1.2545358e-03,-2.3118415e-01,-8.8894618e-03
3.0000210e-02,-7.0922299e-06,5.9415805e-05,5.6735683e-06,-1.6517359e-02,-3.2045362e-02,-1.6533237e-02,-1.1022697e-04,-2.3261221e-04,1.4800063e-04,4.3356126e-02,2.0207723e-01,-7.9919666e-02
4.0000200e-02,-2.3016547e-04,-4.6637337e-04,-2.1177378e-04,-2.2368855e-02,-5.2641275e-02,-2.2097820e-02,5.0579983e-04,3.3174252e-03,-1.5665354e-03,6.1602739e-02,3.5500408e-01,-1.7145376e-01
5.0000191e-02,2.8225515e-04,7.3597494e-04,5.2239796e-04,5.1059782e-02,1.1999449e-01,5.1982420e-02,-6.2357326e-04,-5.2721207e-03,2.0926613e-03,-1.1293742e-01,-8.5895541e-01,3.6592001e-01
6.0000181e-02,2.0929138e-04,5.1466540e-04,6.0937079e-04,-7.2565070e-03,-2.2118946e-02,-7.3722333e-03,-1.0587659e-03,-2.6886672e-03,2.2508702e-03,-4.3519310e-02,2.5834559e-01,1.5820907e-02
7.0000172e-02,1.5257407e-04,3.7654568e-04,5.2153737e-04,-5.6511593e-03,-1.3804348e-02,-5.7107366e-03,-6.7457567e-04,-2.0116819e-03,1.9831488e-03,3.8419064e-02,6.7698596e-02,-2.6772162e-02
8.0000162e-02,-7.0854783e-05,-1.4571100e-04,-5.6143160e-05,-2.2363295e-02,-5.2249409e-02,-2.2266988e-02,1.2681966e-04,1.1895877e-03,-6.1630270e-04,8.0139609e-02,3.2012727e-01,-2.5994540e-01
9.0000153e-02,-8.6753587e-05,-1.9224166e-04,-8.1875471e-05,-1.5922881e-03,-4.6550036e-03,-1.5817939e-03,2.4353433e-04,1.4639616e-03,-8.0104956e-04,1.1671479e-02,2.7437418e-02,-1.8474704e-02
1.0000014e-01,1.3614002e-04,2.9809174e-04,1.1891910e-04,2.2254822e-02,4.8999528e-02,2.2398109e-02,-4.1175928e-04,-1.9253093e-03,6.4441694e-04,-6.5529424e-02,-3.3892742e-01,1.4454679e-01
1.1000013e-01,-4.5159811e-05,-3.7529426e-05,-1.0950381e-05,-1.8126719e-02,-3.3554467e-02,-1.8147493e-02,7.7308345e-05,-3.4618288e-04,3.2407034e-04,4.8906809e-02,1.5791279e-01,-3.2034690e-02
1.2000012e-01,-4.1843702e-05,-1.0456342e-04,-5.0129541e-05,3.3027648e-04,-6.7033556e-03,3.3395642e-04,1.9541673e-04,3.4617591e-04,7.4664840e-05,1.1810850e-02,6.9235945e-02,-2.4940574e-02
1.3000011e-01,-1.0245259e-05,2.4221717e-05,-2.6387327e-06,3.1590521e-03,1.2878608e-02,3.1603090e-03,-6.3615928e-05,-3.7716802e-05,-7.6153542e-06,-2.5903291e-02,-3.8389308e-02,-8.2280273e-03
1.4000010e-01,4.1523742e-04,1.0871929e-03,5.3359989e-04,4.2243025e-02,1.0606949e-01,4.3412054e-02,-1.7069274e-03,-6.9746941e-03,2.9049459e-03,-1.6433130e-01,-6.9369839e-01,2.9125640e-01
1.5000010e-01,3.3648246e-04,9.6052159e-04,6.0175845e-04,-7.8239292e-03,-1.2643250e-02,-7.9647896e-03,-1.9751115e-03,-4.9688727e-03,3.3642079e-03,-2.6818439e-02,2.0058233e-01,4.5926244e-02
1.6000009e-01,3.3289967e-04,8.7057133e-04,6.0530270e-04,-3.4143888e-04,-8.9940278e-03,-3.9782492e-04,-1.7467598e-03,-4.2768731e-03,3.1441630e-03,2.2835191e-02,6.9200024e-02,-2.2004507e-02
1.7000008e-01,-1.6783448e-04,-4.5128285e-04,1.0146096e-04,-5.0125332e-02,-1.3234810e-01,-4.9589860e-02,4.2249694e-04,3.6866296e-03,7.9353950e-05,2.1692588e-01,7.9635103e-01,-3.0648120e-01
1.8000007e-01,2.1620402e-04,3.9373025e-04,3.0202239e-04,3.8245047e-02,8.4546399e-02,3.8463291e-02,-1.4418859e-03,-2.6728736e-04,9.6188727e-04,-1.8643847e-01,-3.9539207e-01,8.8253416e-02
1.9000006e-01,1.5924566e-04,3.9436077e-04,3.0216562e-04,-5.6881431e-03,6.2190602e-05,-5.7035391e-03,-1.1693027e-03,-1.0166626e-03,1.3629271e-03,2.7258351e-02,-7.4937596e-02,4.0104024e-02
2.0000005e-01,-1.8717793e-05,1.0470057e-04,3.2310774e-05,-1.7790930e-02,-2.8955729e-02,-1.7818570e-02,-8.9894859e-05,-6.6917999e-04,1.5889546e-04,1.0794089e-01,3.4748294e-02,-1.2040328e-01
2.1000004e-01,1.7872603e-05,-6.1233898e-05,-2.0235481e-05,3.6599192e-03,-1.6591714e-02,3.6660910e-03,5.9420309e-05,5.3700775e-04,-5.0902856e-04,1.4931531e-02,1.2061889e-01,-6.6792466e-02
2.2000003e-01,-1.6490895e-05,-1.7041024e-04,-2.7864528e-05,-3.4402768e-03,-1.0917839e-02,-3.4318091e-03,3.4063198e-04,3.9744134e-04,-5.9635109e-05,2.8121193e-02,-1.3956654e-02,4.4939388e-02
2.3000002e-01,1.4999778e-04,1.3236307e-04,1.0256212e-04,1.6632087e-02,3.0273698e-02,1.6672314e-02,-5.0101837e-04,-7.2018404e-04,9.7609675e-05,-8.4165115e-02,-1.1176265e-01,1.5724493e-02
2.4000001e-01,2.6671612e-04,4.8631778e-04,3.6362965e-04,1.1640410e-02,3.5350318e-02,1.1838987e-02,-2.9167029e-04,-4.1297200e-03,1.8070854e-03,2.0934828e-02,-3.4095392e-01,1.7094774e-01
2.5000000e-01,3.3175351e-05,-1.0746404e-04,-3.4355220e-06,-2.3370860e-02,-5.9390368e-02,-2.3306445e-02,1.0300524e-04,6.2311087e-04,-4.5589487e-04,3.9467590e-02,4.7528354e-01,-2.2629824e-01
2.5994992e-01,-5.6216629e-05,-2.4871298e-04,-5.4668803e-05,-8.9995445e-03,-1.4206515e-02,-8.9521147e-03,4.1979761e-04,1.5958770e-03,-1.0465354e-03,3.1838678e-02,9.7766200e-02,-5.9361324e-02
2.6994991e-01,2.8520748e-04,6.2670147e-04,5.9069222e-04,3.3940451e-02,8.7475077e-02,3.4512152e-02,-1.3809621e-03,-3.3030152e-03,2.3716179e-03,-1.8007614e-01,-4.8988968e-01,3.4181566e-01
2.7994990e-01,8.6385339e-05,1.6721695e-04,3.2525670e-04,-1.9844732e-02,-4.5935240e-02,-1.9950212e-02,-5.9174642e-05,-7.2401299e-04,1.7478746e-03,1.3217887e-01,2.5790047e-01,-6.2374387e-02
2.8994989e-01,3.4651427e-04,8.6893049e-04,6.3566000e-04,2.5804389e-02,7.0104486e-02,2.6398235e-02,-1.8187656e-03,-4.3485612e-03,3.1036961e-03,-1.7595926e-01,-3.6245517e-01,1.3558228e-01
2.9994988e-01,2.0759182e-04,6.1104105e-04,3.5296219e-04,-1.3802008e-02,-2.5829707e-02,-1.3906526e-02,-2.7094089e-03,2.2954801e-04,1.4621585e-03,-8.9064412e-02,4.5781136e-01,-1.6415392e-01
3.0994987e-01,2.4348379e-04,7.6821707e-04,3.0753987e-04,3.5316687e-03,1.5728365e-02,3.5991764e-03,-3.3474482e-03,-3.2785107e-04,1.3636567e-03,-6.3803990e-02,-5.5739960e-02,-9.8501842e-03
3.1994987e-01,3.6799613e-04,9.5489639e-04,5.6651836e-04,1.2371253e-02,1.8636564e-02,1.2577360e-02,-2.2163858e-03,-4.7023890e-03,3.0942420e-03,1.1310634e-01,-4.3745421e-01,1.7305869e-01
3.2994986e-01,4.1163546e-04,1.0212695e-03,4.9131067e-04,4.3414867e-03,6.6144191e-03,4.4207248e-03,-1.4603040e-03,-6.6521886e-03,2.9184063e-03,7.5608256e-02,-1.9498014e-01,-1.7583589e-02
3.3994985e-01,3.4632486e-04,8.1471235e-04,4.4678750e-04,-6.4936104e-03,-2.0627197e-02,-6.6573804e-03,-1.0957844e-03,-5.4047026e-03,2.2662941e-03,3.6451994e-02,1.2474871e-01,-6.5211288e-02
3.4994984e-01,3.2391093e-04,7.5121960e-04,4.5865125e-04,-2.2309403e-03,-6.3395384e-03,-2.2790857e-03,-8.9572098e-04,-5.1919007e-03,2.1247148e-03,2.0006359e-02,2.1280214e-02,-1.4157942e-02
3.5994983e-01,-3.8241647e-05,-1.5013617e-04,-3.9457835e-05,-3.6246078e-02,-9.0164355e-02,-3.6112923e-02,1.7281074e-04,9.6669919e-04,-4.2009295e-04,1.0685327e-01,6.1586058e-01,-2.5448101e-01
3.6994982e-01,-1.1581311e-05,-5.8305502e-05,-1.6094092e-05,2.6669319e-03,9.1839267e-03,2.6622040e-03,-1.2949593e-05,3.0674847e-04,-3.8067757e-04,-1.8576051e-02,-6.5995134e-02,3.9415423e-03
3.7994981e-01,2.7130707e-05,-3.6089447e-05,-2.2476318e-05,3.8732453e-03,2.2249487e-03,3.8672444e-03,-1.7935254e-04,6.8427384e-04,-6.3004010e-04,-1.6640310e-02,3.7752573e-02,-2.4936277e-02
3.8994980e-01,-4.3548354e-05,-1.7939925e-04,-3.7969693e-05,-7.0756511e-03,-1.4341376e-02,-7.0390534e-03,1.2490325e-04,1.5977216e-03,-8.4195413e-04,3.0425608e-02,9.1344863e-02,-2.1191423e-02
3.9994979e-01,-9.2611847e-05,-3.3272425e-04,1.0302260e-04,-4.9072350e-03,-1.5347107e-02,-4.8596270e-03,3.7984755e-05,3.0266757e-03,-6.0854894e-05,-8.6918577e-03,1.4289555e-01,7.8109998e-02
4.0994978e-01,4.0807631e-04,8.0264316e-04,6.0366771e-04,4.9710570e-02,1.1342201e-01,5.0682400e-02,-1.8682460e-03,-4.1266887e-03,2.9135961e-03,-1.9062326e-01,-7.1533712e-01,2.9744538e-01
4.1994977e-01,1.9690738e-04,3.8338091e-04,4.9034684e-04,-2.1041912e-02,-4.1898257e-02,-2.1246969e-02,-7.9144130e-04,-2.1085554e-03,1.9781000e-03,1.0768057e-01,2.0181352e-01,-9.3549698e-02
4.2994976e-01,2.6121074e-04,6.6565774e-04,4.5756540e-04,6.4064918e-03,2.8195264e-02,6.5944030e-03,-3.5094170e-04,-5.3227166e-03,2.1661249e-03,4.4050002e-02,-3.2141642e-01,1.8802512e-02
4.3994975e-01,4.6885782e-04,1.1292265e-03,5.4583548e-04,2.0614953e-02,4.6237870e-02,2.1175347e-02,-1.8378944e-03,-7.4820433e-03,3.1033870e-03,-1.4869541e-01,-2.1593288e-01,9.3726298e-02
4.4994974e-01,3.3004015e-04,9.2287564e-04,5.7065108e-04,-1.3797429e-02,-2.0586915e-02,-1.4036569e-02,-1.8456831e-03,-5.2767830e-03,3.3255673e-03,-7.7886988e-04,2.2052624e-01,2.2218045e-02
4.5994973e-01,9.6308240e-05,2.4651888e-04,2.5217813e-04,-2.3301318e-02,-6.7632560e-02,-2.3454062e-02,-5.3562168e-04,-6.6961469e-04,1.5247433e-03,1.3100627e-01,4.6071727e-01,-1.8008256e-01
4.6994972e-01,6.5454931e-05,2.2369951e-04,2.2466391e-04,-3.0808751e-03,-2.2841572e-03,-3.0881474e-03,-7.1282261e-04,6.0233772e-06,9.1726118e-04,-1.7720110e-02,6.7563871e-02,-6.0748273e-02
4.7994971e-01,-1.9226097e-05,1.1444030e-04,2.6284912e-04,-8.4551710e-03,-1.0927816e-02,-8.4786018e-03,-2.1742144e-04,5.2253966e-06,1.2467416e-03,4.9540164e-02,-7.9798142e-05,3.2948073e-02
4.8994970e-01,-1.0527855e-04,-5.5443750e-05,2.0982360e-04,-8.5952693e-03,-1.6997828e-02,-8.5966520e-03,-1.6724066e-04,9.2601569e-04,8.2974475e-04,5.0180827e-03,9.2079117e-02,-4.1699724e-02
4.9994969e-01,-6.3915389e-05,-2.0995868e-04,1.4442840e-04,4.1342122e-03,-1.5442372e-02,4.1723884e-03,7.4807860e-05,2.2733411e-03,2.3015817e-04,2.4204875e-02,1.3473267e-01,-5.9958715e-02
5.0994992e-01,-1.4377126e-04,-4.3027961e-04,-1.8837649e-04,-8.0055726e-03,-2.2053807e-02,-7.9034591e-03,4.0724545e-04,3.2085551e-03,-1.4031416e-03,3.3242998e-02,9.3519261e-02,-1.6332623e-01
5.1994991e-01,8.1617361e-05,5.2224772e-05,3.6375125e-04,2.2513808e-02,4.8261228e-02,2.2540943e-02,-1.1944257e-04,3.5705788e-04,8.5645233e-04,-5.2668852e-02,-2.8514999e-01,2.2595960e-01
5.2994990e-01,-1.9245950e-05,-6.6697699e-05,4.7409903e-05,-1.0089954e-02,-1.1898082e-02,-1.0075853e-02,3.1016240e-05,6.0882667e-04,-3.2173718e-04,1.5045895e-02,2.5176902e-02,-1.1781906e-01
5.3994989e-01,5.9677764e-05,3.3410588e-05,8.3928968e-05,7.8924031e-03,1.0009307e-02,7.8942965e-03,-7.0948220e-05,-2.6492961e-04,-9.3061944e-05,-1.0196456e-02,-8.7375711e-02,2.2867545e-02
5.4994988e-01,1.0817586e-04,6.5348351e-05,7.0308394e-05,4.8499541e-03,3.1909281e-03,4.8515502e-03,-4.4092227e-05,-6.3190146e-04,-5.7945054e-05,2.6856019e-03,-3.6697219e-02,3.5116923e-03
5.5994987e-01,-1.2052343e-04,-3.2378265e-04,-1.7747351e-04,-2.2911438e-02,-3.8934894e-02,-2.2791260e-02,4.9505224e-04,1.4497761e-03,-9.7234162e-04,5.3914498e-02,2.0816795e-01,-9.1439744e-02
5.6993318e-01,-6.1723470e-05,-6.2156212e-05,-5.2702252e-05,5.8892556e-03,2.6208043e-02,5.8831171e-03,-5.5059537e-05,2.2308600e-04,-1.4729335e-04,-5.5103194e-02,-1.2287419e-01,8.2642831e-02
5.7993317e-01,-8.5024950e-05,-6.9425245e-06,2.1860752e-05,-2.3297113e-03,5.5225263e-03,-2.3278573e-03,2.2449976e-06,-4.9247852e-04,1.8303089e-04,5.7304589e-03,-7.1556520e-02,3.3032455e-02
5.8993316e-01,-8.7990622e-05,-8.8188194e-05,2.2024390e-06,-2.9761423e-04,-8.1246809e-03,-2.9258145e-04,1.1657186e-04,4.7830109e-04,-3.3609580e-04,1.1432697e-02,9.7078054e-02,-5.1912718e-02
5.9993315e-01,-7.7263648e-05,-1.8320860e-04,1.2193108e-04,1.0729651e-03,-9.4996306e-03,1.0936508e-03,-3.8245477e-05,2.1951410e-03,9.0173607e-05,-1.5481748e-02,1.7168416e-01,4.2626982e-02
6.0993314e-01,3.9555380e-04,9.7080017e-04,6.1932106e-04,4.6860971e-02,1.1530725e-01,4.7925041e-02,-2.4220365e-03,-4.3611740e-03,2.9814026e-03,-2.3837933e-01,-6.5563213e-01,2.8912318e-01
6.1993313e-01,4.3937609e-04,1.0019722e-03,5.9425048e-04,4.3570596e-03,3.1231118e-03,4.4030843e-03,-3.1849837e-03,-1.8271825e-03,3.4679804e-03,-7.6294794e-02,2.5339939e-01,4.8657826e-02
6.2993312e-01,3.8795444e-04,9.7767590e-04,6.4656658e-04,-5.1167968e-03,-2.4322241e-03,-5.1662017e-03,-3.2377878e-03,-2.7212604e-03,3.3935458e-03,-5.2804120e-03,-8.9407876e-02,-7.4434658e-03
6.3993311e-01,1.7468928e-04,5.2246316e-04,5.8228264e-04,-2.1163887e-02,-4.5577233e-02,-2.1369100e-02,-2.6339226e-03,-4.6328794e-06,1.9991219e-03,6.0386579e-02,2.7166301e-01,-1.3944253e-01
6.4993310e-01,-3.5472601e-05,-2.0675273e-04,1.0271068e-04,-2.1011953e-02,-7.2972339e-02,-2.0843842e-02,-5.5147268e-06,2.4156871e-03,1.8328904e-04,2.6284104e-01,2.4203223e-01,-1.8158346e-01
6.5993309e-01,-3.8757294e-06,-8.7097911e-06,5.3196317e-06,3.1611094e-03,1.9803890e-02,3.1609190e-03,7.4764773e-05,-5.8946631e-05,1.9444329e-05,8.0279576e-03,-2.4746361e-01,-1.6384487e-02
6.6993308e-01,-3.0955330e-05,5.6046072e-05,1.3161865e-05,-2.7072800e-03,6.4778226e-03,-2.7033074e-03,8.9922772e-05,-7.3421940e-04,3.7021697e-05,1.5158014e-03,-6.7527341e-02,1.7577385e-03
6.7993307e-01,-2.1160285e-05,-8.1332662e-05,-5.8927004e-06,9.7420734e-04,-1.3738675e-02,9.7371854e-04,4.0511279e-04,-4.0185803e-04,-2.7303365e-04,3.1519031e-02,3.3236168e-02,-3.1005565e-02
6.8993306e-01,-7.6267294e-07,-1.0210607e-04,-2.1612158e-05,2.0401078e-03,-2.0780325e-03,2.0387160e-03,2.9911643e-04,-3.8885729e-05,-4.7375863e-04,-1.0599646e-02,3.6297265e-02,-2.0072517e-02
6.9993305e-01,-7.1135194e-05,-4.7363266e-04,5.8602534e-05,-7.0577152e-03,-3.7169658e-02,-6.9263188e-03,5.1651272e-04,2.9513076e-03,-1.8013725e-04,2.1739650e-02,2.9901961e-01,2.9362166e-02
7.0993304e-01,2.4806706e-04,3.9563597e-04,5.4285952e-04,3.1769320e-02,8.6874532e-02,3.2212194e-02,-8.9990064e-04,-2.5264182e-03,2.2748827e-03,-1.4164147e-01,-5.4777309e-01,2.4550223e-01
7.1993303e-01,-8.1610698e-05,-2.2231666e-04,4.6174475e-05,-3.3001111e-02,-6.1806869e-02,-3.2912793e-02,3.7714510e-04,7.2828488e-04,-3.0338128e-04,1.2770470e-01,3.2547062e-01,-2.5782665e-01
7.2993302e-01,1.8670211e-04,3.0729864e-04,5.4618287e-04,2.6732865e-02,5.2920110e-02,2.7010792e-02,-7.6848414e-04,-2.3033147e-03,2.1494205e-03,-1.1456303e-01,-3.0316025e-01,2.4528041e-01
7.3988390e-01,1.6932496e-04,3.5302102e-04,5.2171979e-04,-1.7467844e-03,4.5975958e-03,-1.7384524e-03,-8.9944930e-04,-2.4988683e-03,2.0829323e-03,-1.3161168e-02,-1.9651895e-02,-6.6816385e-03
7.4988389e-01,3.6647769e-04,7.6560819e-04,5.9005340e-04,1.9584545e-02,4.1203169e-02,1.9960333e-02,-1.7218640e-03,-4.5034886e-03,3.0223347e-03,-8.2241550e-02,-2.0046222e-01,9.3940331e-02
7.5988412e-01,1.1943742e-04,6.4807417e-04,2.4968595e-05,-2.4668460e-02,-1.1726230e-02,-2.4751177e-02,-1.8702858e-03,-2.9548388e-03,5.2514281e-04,-1.4841843e-02,1.5486144e-01,-2.4971347e-01
7.6988411e-01,-1.2132421e-04,-8.6351770e-06,5.6477361e-05,-2.4090048e-02,-6.5647166e-02,-2.4127259e-02,2.6239918e-04,-7.2653462e-04,1.3993315e-04,2.1326871e-01,2.2283063e-01,-3.8521004e-02
7.7988410e-01,-1.3977977e-04,1.1191469e-05,5.5023429e-05,-1.8445817e-03,1.9847346e-03,-1.8443109e-03,2.5158316e-04,-8.6923679e-04,2.5871910e-04,-1.0816031e-03,-1.4270231e-02,1.1878607e-02
7.8988409e-01,-9.2767095e-05,1.1698156e-04,2.4154169e-04,4.6967185e-03,1.0571489e-02,4.7227146e-03,3.4178252e-04,-1.2559545e-03,1.7361436e-03,9.0199454e-03,-3.8671812e-02,1.4774259e-01
7.9988408e-01,-4.8142909e-05,1.0865051e-04,2.5638142e-04,4.4547776e-03,-8.3939426e-04,4.4688784e-03,3.4288381e-04,-1.0647513e-03,1.6478184e-03,1.1012861e-04,1.9120339e-02,-8.8325281e-03
8.0988407e-01,2.7673801e-04,8.9260408e-04,5.0426178e-04,3.2322551e-02,7.8217618e-02,3.3076531e-02,-1.0422794e-03,-6.4474673e-03,2.5774726e-03,-1.3851645e-01,-5.3827211e-01,9.2965510e-02
8.1988406e-01,1.0442698e-04,3.3736558e-04,5.2739066e-04,-1.7172044e-02,-5.5487981e-02,-1.7404930e-02,-4.1029865e-04,-2.4796103e-03,2.1040105e-03,6.3198131e-02,3.9678608e-01,-4.7346260e-02
8.2988405e-01,2.5332680e-04,5.8292917e-04,5.7872290e-04,1.4813587e-02,2.4524982e-02,1.5017414e-02,-1.4410570e-03,-3.5282326e-03,2.7501241e-03,-1.0307594e-01,-1.0486233e-01,6.4611425e-02
8.3988404e-01,2.5854984e-04,7.5950473e-04,5.0016474e-04,5.0435321e-04,1.7654462e-02,6.3328122e-04,-9.4254945e-04,-6.2137418e-03,2.5029107e-03,4.9850807e-02,-2.6855117e-01,-2.4721364e-02
8.4988403e-01,-1.1545505e-04,-1.8221469e-04,-4.1915760e-06,-3.7446734e-02,-9.4180075e-02,-3.7333975e-02,3.4828900e-04,5.6411494e-04,-3.5865318e-04,1.2908397e-01,6.7778632e-01,-2.8615666e-01
8.5988402e-01,-1.0934245e-04,-1.7011400e-04,4.6362525e-06,6.1193676e-04,1.2103779e-03,6.0997558e-04,2.7088994e-04,7.7489282e-04,-5.6890042e-04,-7.7399137e-03,2.1077808e-02,-2.1024745e-02
8.6988401e-01,-1.2133202e-04,-1.9970621e-04,-3.0916950e-05,-1.2003910e-03,-2.9594748e-03,-1.1969041e-03,3.1113020e-04,5.2080261e-04,-4.2734582e-04,4.0240298e-03,-2.5409045e-02,1.4155474e-02
8.7988400e-01,2.3906237e-05,3.1585109e-04,5.7160841e-05,1.4401957e-02,5.1585769e-02,1.4538720e-02,-2.2722896e-03,-1.9821628e-04,3.2319241e-04,-2.5834223e-01,-7.1901958e-02,7.5053894e-02
8.8988400e-01,-2.1244749e-04,-3.1480912e-04,-1.0266249e-04,-2.3688629e-02,-6.3055352e-02,-2.3610717e-02,8.0290987e-04,3.4999470e-04,-1.1022956e-04,3.0752024e-01,5.4821150e-02,-4.3342238e-02
8.9988399e-01,2.0018762e-04,4.8862359e-04,2.6592397e-04,4.1174463e-02,8.0182749e-02,4.1662994e-02,-3.8930393e-04,-4.2575895e-03,1.3999222e-03,-1.1922149e-01,-4.6075886e-01,1.5101532e-01
9.0988398e-01,1.8136812e-04,5.4054400e-04,2.5449965e-04,-1.8821486e-03,5.1988274e-03,-1.8629383e-03,-5.8088957e-04,-4.2028969e-03,1.4969811e-03,-1.9158583e-02,5.4692658e-03,9.7058945e-03
9.1988397e-01,3.0335119e-04,8.4851004e-04,5.6336843e-04,1.2106010e-02,3.0753821e-02,1.2396678e-02,-1.6908667e-03,-5.1467254e-03,3.2915977e-03,-1.1099782e-01,-9.4382941e-02,1.7946184e-01
9.2988396e-01,3.1871341e-04,8.4846800e-04,5.8551891e-04,1.5308073e-03,-9.3414779e-06,1.5415982e-03,-1.7274805e-03,-5.0533789e-03,3.5227432e-03,-3.6613818e-03,9.3346544e-03,2.3114574e-02
9.3988395e-01,1.4066787e-04,3.1940648e-04,2.8798887e-04,-1.7722501e-02,-5.2906528e-02,-1.7885299e-02,-1.0161654e-03,-9.9328501e-04,1.5881357e-03,7.1131576e-02,4.0600978e-01,-1.9346094e-01
9.4988394e-01,1.7003090e-04,5.5406906e-04,3.5530695e-04,2.8728587e-03,2.3473440e-02,2.9418391e-03,-2.5249633e-03,-6.1233826e-05,1.4247148e-03,-1.5087994e-01,9.3205207e-02,-1.6342112e-02
9.5988393e-01,9.5569688e-05,4.1382599e-04,4.0812212e-04,-7.4077443e-03,-1.4036215e-02,-7.4619845e-03,-1.6831251e-03,-8.2864791e-05,1.9814844e-03,8.4183905e-02,-2.1630986e-03,5.5677021e-02
9.6988392e-01,5.5071640e-05,2.3208516e-04,3.6401728e-04,-4.0378978e-03,-1.8169001e-02,-4.0844328e-03,-1.8131196e-04,-1.4326439e-03,2.1251445e-03,1.5018146e-01,-1.3497804e-01,1.4366018e-02
9.7988391e-01,-4.5066348e-05,-7.1720365e-05,2.5050311e-04,-1.0004854e-02,-3.0387418e-02,-1.0002008e-02,2.4993675e-06,6.8530451e-04,9.0136910e-04,1.8381151e-02,2.1179505e-01,-1.2237766e-01
9.8988390e-01,-3.7287911e-05,-7.8484499e-05,5.2699785e-05,7.7771437e-04,-6.7672252e-04,7.7770612e-04,3.3793510e-04,-5.8753106e-05,-1.2672706e-04,3.3543605e-02,-7.4405833e-02,-1.0280972e-01
9.9988389e-01,-7.2899452e-05,-2.5563515e-04,-4.5885541e-05,-3.5735907e-03,-1.7715575e-02,-3.5462161e-03,6.1732834e-04,7.5861153e-04,-4.2071431e-04,2.7939350e-02,8.1736541e-02,-2.9398753e-02
1.0098841e+00,1.1471542e-04,1.5930871e-04,9.2788720e-05,1.8749307e-02,4.1454711e-02,1.8858162e-02,-3.1902161e-05,-2.0900681e-03,5.5562268e-04,-6.4921564e-02,-2.8486144e-01,9.7631465e-02
1.0198841e+00,1.8200644e-04,2.4649084e-04,1.2766807e-04,6.7209663e-03,8.7012237e-03,6.7591792e-03,-2.2303635e-04,-2.7415901e-03,9.2058958e-04,-1.9113437e-02,-6.5152265e-02,3.6496725e-02
1.0298841e+00,1.3857328e-05,-6.9401055e-05,5.8372512e-05,-1.6824582e-02,-3.1567401e-02,-1.6846217e-02,3.5336359e-04,-9.4320077e-04,8.9610784e-05,5.7640049e-02,1.7983910e-01,-8.3097959e-02
1.0398841e+00,-8.5282263e-05,-2.7259830e-04,-6.8329315e-06,-9.9307137e-03,-2.0320951e-02,-9.8947171e-03,5.7473348e-04,6.9764879e-04,-5.1136878e-04,2.2137010e-02,1.6408511e-01,-6.0098014e-02
1.0498841e+00,4.6365331e-04,9.2891685e-04,5.9725582e-04,5.4593420e-02,1.1981559e-01,5.5917914e-02,-1.1735816e-03,-7.2159267e-03,2.8949497e-03,-1.7483168e-01,-7.9135831e-01,3.4063217e-01
1.0598841e+00,-3.4011585e-05,-2.5454613e-04,1.7692336e-04,-4.9787789e-02,-1.1838438e-01,-4.9654848e-02,4.3509169e-04,1.1992384e-03,6.0733757e-04,1.6086749e-01,8.4151731e-01,-2.2876143e-01
1.0698841e+00,-7.4322144e-05,-2.0196077e-04,1.8482906e-04,-4.0254344e-03,5.2573582e-03,-4.0382188e-03,4.6061442e-04,7.5314329e-04,7.9421122e-04,2.5522757e-03,-4.4609550e-02,1.8687384e-02
1.0798841e+00,-7.2202435e-05,-1.2040573e-04,2.2258363e-04,2.1209539e-04,8.1556856e-03,2.0502239e-04,3.8017377e-05,8.7480653e-04,8.7593453e-04,-4.2259745e-02,1.2166335e-02,8.1723387e-03
1.0898840e+00,5.9924064e-05,2.4699813e-04,3.0381353e-04,1.3171478e-02,3.6735243e-02,1.3268065e-02,-6.1830969e-04,-1.0068852e-03,1.3965261e-03,-6.5632769e-02,-1.8816935e-01,5.2059210e-02
1.0998840e+00,9.9422212e-05,4.8495213e-04,3.8335764e-04,3.8985292e-03,2.3800328e-02,3.9711572e-03,-1.8384538e-03,-5.8401301e-04,1.9061196e-03,-1.2201453e-01,4.2287258e-02,5.0959397e-02
1.1098840e+00,6.9848818e-07,-1.2762806e-05,2.4462401e-04,-9.8816565e-03,-4.9760371e-02,-9.9192960e-03,5.2032405e-04,-6.0842372e-04,1.6821999e-03,2.3587801e-01,-2.4410733e-03,-2.2391992e-02
1.1198840e+00,6.4706405e-05,2.6104060e-04,3.3378863e-04,6.3571883e-03,2.7384708e-02,6.4256408e-03,-1.0854112e-03,-4.0351368e-04,2.1672018e-03,-1.6057368e-01,2.0491024e-02,4.8500231e-02
1.1298840e+00,3.3045828e-04,8.1931623e-04,5.6386278e-04,2.6392266e-02,5.5733522e-02,2.6952352e-02,-1.7641790e-03,-5.2559467e-03,3.1714727e-03,-6.7876842e-02,-4.8524376e-01,1.0042719e-01
1.1398840e+00,3.7093464e-04,9.7218172e-04,5.0492724e-04,4.0160241e-03,1.5260728e-02,4.1746310e-03,-1.3150566e-03,-7.5652738e-03,2.8396811e-03,4.4912285e-02,-2.3093293e-01,-3.3179193e-02
1.1498840e+00,2.8773608e-04,6.7218257e-04,4.5349351e-04,-8.2872177e-03,-2.9952865e-02,-8.5196711e-03,-4.5844568e-04,-6.0373034e-03,2.2681711e-03,8.5661170e-02,1.5279718e-01,-5.7151060e-02
1.1598840e+00,-6.3347033e-06,-1.2017445e-04,1.3099749e-05,-2.9461635e-02,-7.9215413e-02,-2.9407391e-02,5.6812786e-04,-1.2396113e-04,-3.2369652e-04,1.0265745e-01,5.9133479e-01,-2.5918701e-01
1.1698840e+00,-2.0953721e-05,-1.1295009e-04,3.9214479e-05,-1.4617687e-03,7.2322379e-04,-1.4616485e-03,5.2445695e-04,-1.4034361e-05,-1.6732661e-04,-4.3670948e-03,1.0992687e-02,1.5637006e-02
1.1798840e+00,-9.7093971e-05,-1.8980918e-04,3.9679755e-05,-7.6194394e-03,-7.6832778e-03,-7.6112854e-03,5.8608899e-04,2.3981075e-04,-1.1871424e-04,6.1632101e-03,2.5384536e-02,4.8612418e-03
1.1898839e+00,-1.5351583e-04,-2.5305892e-04,-1.7498099e-05,-5.6476407e-03,-6.3267610e-03,-5.6347390e-03,5.8756027e-04,9.0403242e-04,-3.0732530e-04,1.4712823e-04,6.6422230e-02,-1.8861123e-02
1.1998839e+00,-1.2902921e-04,-4.0868282e-04,8.9059309e-05,2.4417824e-03,-1.5556591e-02,2.4920927e-03,4.5266412e-04,2.8013995e-03,-6.6337796e-05,-1.3489628e-02,1.8973689e-01,2.4098773e-02
1.2098839e+00,-3.8943275e-05,-6.1194728e-05,2.4182728e-04,8.9523079e-03,3.4788159e-02,8.9124627e-03,-1.4977805e-03,2.8856954e-03,4.7032290e-04,-1.9504465e-01,8.4295984e-03,5.3666120e-02
1.2198839e+00,3.1036392e-04,6.9827159e-04,5.9406564e-04,3.4699682e-02,7.5844750e-02,3.5379695e-02,-1.6249307e-03,-4.5049564e-03,3.0761565e-03,-1.2715027e-02,-7.3906589e-01,2.6058361e-01
1.2298839e+00,1.6727333e-04,4.9489617e-04,2.8781451e-04,-1.4273221e-02,-2.0272684e-02,-1.4436376e-02,-2.8211906e-04,-4.7897222e-03,2.1022795e-03,1.3428129e-01,-2.8476605e-02,-9.7387791e-02
1.2398839e+00,3.8652000e-04,8.9893715e-04,5.1800298e-04,2.1816281e-02,4.0260450e-02,2.2294040e-02,-9.9903157e-04,-7.4772116e-03,3.0981505e-03,-7.1691319e-02,-2.6874919e-01,9.9587193e-02
1.2498839e+00,3.8522773e-04,8.2595880e-04,4.0705972e-04,-1.2100575e-04,-7.2969938e-03,-1.7645101e-04,-1.0841627e-03,-6.4314449e-03,2.3932935e-03,-8.5131206e-03,1.0457677e-01,-7.0485767e-02
1.2598841e+00,3.4002661e-04,8.1637341e-04,5.6190714e-04,-4.5045779e-03,-9.4306439e-04,-4.5386253e-03,-1.7070709e-03,-5.1071514e-03,3.0458038e-03,-6.2289398e-02,1.3242631e-01,6.5249537e-02
1.2698841e+00,-3.7025728e-06,8.4596310e-05,2.7103362e-04,-3.4324943e-02,-7.3127803e-02,-3.4526943e-02,2.5763619e-04,-1.1924351e-03,1.9432486e-03,1.9647090e-01,3.9147201e-01,-1.1025562e-01
1.2798841e+00,-1.0814501e-04,-7.3838190e-05,2.6004393e-04,-1.0434302e-02,-1.5850062e-02,-1.0444191e-02,9.5582542e-05,7.2686498e-04,1.0972579e-03,-1.6205380e-02,1.9193019e-01,-8.4599150e-02
1.2898841e+00,-3.0546438e-04,-6.0751452e-04,7.0991968e-05,-1.9793956e-02,-5.3421422e-02,-1.9523337e-02,1.0509286e-03,3.7965025e-03,-3.0037702e-04,9.5534701e-02,3.0696404e-01,-1.3976363e-01
1.2998841e+00,-1.4122780e-04,-1.1841994e-04,2.3319434e-04,1.6417415e-02,4.8935320e-02,1.6352878e-02,-2.2592708e-05,1.5524119e-03,3.1375950e-04,-1.0735224e-01,-2.2440927e-01,6.1413711e-02
1.3098841e+00,-1.5583786e-04,-2.0595171e-04,2.1218761e-04,-1.4628618e-03,-8.7545894e-03,-1.4507039e-03,3.0868341e-04,1.2740602e-03,5.8009558e-04,3.3127644e-02,-2.7835199e-02,2.6633633e-02
1.3198841e+00,-6.2182410e-05,-2.6439042e-05,4.8663706e-05,9.3690036e-03,1.7943657e-02,9.3767143e-03,2.3091554e-04,-5.8307654e-04,7.4275993e-05,-7.7767947e-03,-1.8571385e-01,-5.0582007e-02
1.3298841e+00,-4.9958563e-06,-1.0147096e-04,1.0974749e-04,5.7141612e-03,-7.5109257e-03,5.7130121e-03,6.0712366e-04,-7.4471382e-04,-9.9400841e-06,3.7620848e-02,-1.6163744e-02,-8.4216158e-03
1.3398840e+00,-4.0999112e-05,-3.1841895e-04,4.3211827e-06,-3.6186597e-03,-2.1694911e-02,-3.5813584e-03,7.6810559e-04,7.9721277e-04,-4.6334450e-04,1.6098208e-02,1.5419281e-01,-4.5340484e-02
1.3498840e+00,-1.5599621e-04,-4.1360078e-04,-6.0601558e-05,-1.1513121e-02,-9.5174797e-03,-1.1486895e-02,9.2310287e-04,8.6221569e-04,-4.0171743e-04,1.5499743e-02,6.5002984e-03,6.1627126e-03
1.3598752e+00,-1.4247326e-04,-2.4822856e-04,-3.8776030e-05,1.3666329e-03,1.6550372e-02,1.3582078e-03,7.8453263e-04,-2.9461153e-04,-1.1616599e-04,-1.3869273e-02,-1.1578497e-01,2.8580384e-02
1.3698752e+00,7.5757771e-05,1.1570587e-04,1.4231582e-04,2.1809100e-02,3.6344416e-02,2.1918697e-02,3.3485532e-05,-2.2090486e-03,6.9823614e-04,-7.5104781e-02,-1.9144389e-01,8.1440290e-02
1.3798752e+00,-1.1684645e-04,-1.9700142e-04,-4.1729140e-05,-1.9284715e-02,-3.1257615e-02,-1.9257485e-02,6.1969871e-04,-6.2379328e-05,-2.5440076e-04,5.8621373e-02,2.1466713e-01,-9.5263780e-02
1.3898752e+00,-8.4770170e-05,-1.2325985e-04,2.0781094e-04,3.2086123e-03,7.3715873e-03,3.2125680e-03,6.3447002e-04,-1.6798209e-04,1.1519440e-03,1.4771330e-03,-1.0560286e-02,1.4063461e-01
1.3998752e+00,-2.1540844e-04,-3.4615616e-04,1.7609645e-04,-1.3074915e-02,-2.2299130e-02,-1.3036554e-02,7.7749502e-04,1.5047628e-03,4.7831300e-04,1.4302513e-02,1.6727465e-01,-6.7363164e-02
1.4098752e+00,-1.3469553e-04,-8.6792075e-05,2.3949947e-04,8.0706959e-03,2.5940851e-02,8.0576914e-03,1.6281678e-04,7.1059759e-04,5.9762566e-04,-6.1467882e-02,-7.9416596e-02,1.1931277e-02
1.4198751e+00,1.3840927e-04,6.1201668e-04,4.0019179e-04,2.7103583e-02,6.9925455e-02,2.7402557e-02,-2.3373148e-03,-6.9870834e-04,1.5921002e-03,-2.5001340e-01,-1.4093073e-01,9.9447544e-02
1.4298751e+00,3.6358368e-04,8.3405772e-04,6.2056406e-04,2.2388650e-02,2.2204692e-02,2.2644987e-02,-2.2052023e-03,-2.1677026e-03,3.5373610e-03,1.3211265e-02,-1.4689957e-01,1.9452627e-01
1.4398751e+00,4.3235270e-04,8.7780939e-04,5.7388196e-04,6.8405070e-03,4.3817123e-03,6.9089724e-03,-2.7692834e-03,-1.8082425e-03,3.5213109e-03,-5.6408163e-02,3.5946050e-02,-1.6050078e-03
1.4498751e+00,3.9874761e-04,7.5319122e-04,5.8593352e-04,-3.3296612e-03,-1.2452476e-02,-3.4252663e-03,-1.6393778e-03,-4.3686850e-03,3.0948958e-03,1.1299067e-01,-2.5604449e-01,-4.2641552e-02
1.4598751e+00,3.0144769e-04,6.5851558e-04,4.3746609e-04,-9.7022635e-03,-9.4173639e-03,-9.8061274e-03,-6.1820033e-04,-5.7492581e-03,2.2465470e-03,1.0211784e-01,-1.3805744e-01,-8.4834968e-02
1.4698751e+00,-4.5842737e-05,-1.4711699e-04,-2.0710911e-05,-3.4783154e-02,-8.0520295e-02,-3.4774740e-02,6.2823420e-04,-6.1023677e-04,-1.0001134e-04,1.2464357e-01,5.1390262e-01,-2.3465605e-01
1.4798751e+00,-4.6324224e-05,-8.7378144e-05,3.4464015e-05,-4.5068468e-05,5.9739617e-03,-4.1917227e-05,5.1621226e-04,-1.0425416e-03,-7.4705498e-05,-1.1202204e-02,-4.3230522e-02,2.5305867e-03
1.4898751e+00,-9.0035696e-05,-1.7334602e-04,-2.4024969e-05,-4.3782201e-03,-8.5935267e-03,-4.3705045e-03,5.9828546e-04,-1.4921289e-04,-4.4073156e-04,8.2073278e-03,8.9332954e-02,-3.6602641e-02
1.4998751e+00,-7.5583812e-05,-2.0474539e-04,-1.1992481e-05,1.4439863e-03,-3.1404800e-03,1.4452213e-03,6.5401231e-04,2.8056670e-04,-5.8859244e-04,5.5726905e-03,4.2978001e-02,-1.4786102e-02
1.5098753e+00,-1.4665038e-04,-4.0528974e-04,-6.9186387e-05,-7.1299266e-03,-2.0059114e-02,-7.0684196e-03,8.7179121e-04,1.6008838e-03,-8.3789024e-04,2.1777392e-02,1.3202869e-01,-2.4929210e-02
1.5198753e+00,1.2559688e-04,3.2794668e-04,5.9525630e-04,2.7019510e-02,7.3380345e-02,2.7276583e-02,-2.0560161e-03,2.9833291e-05,1.9972806e-03,-2.9278101e-01,-1.5710520e-01,2.8351736e-01
1.5298753e+00,3.6663382e-04,7.7602626e-04,6.5300181e-04,2.3907054e-02,4.4813308e-02,2.4288999e-02,-2.6821188e-03,-2.4420091e-03,3.1645164e-03,-6.2610331e-02,-2.4718447e-01,1.1672369e-01
1.5398753e+00,4.0368390e-04,8.1616825e-04,6.2867011e-04,3.6859459e-03,4.0041261e-03,3.7348134e-03,-1.8393279e-03,-4.5320242e-03,3.1465595e-03,8.4279167e-02,-2.0900171e-01,-1.7956890e-03
1.5498753e+00,4.7715335e-04,9.0449870e-04,6.6597802e-04,7.3056517e-03,8.8128565e-03,7.4121013e-03,-2.1863417e-03,-4.9034424e-03,2.9859721e-03,-3.4701414e-02,-3.7141857e-02,-1.6058755e-02
1.5598752e+00,4.1491585e-04,8.5951453e-04,6.5031989e-04,-6.1956470e-03,-4.4796985e-03,-6.2651683e-03,-1.9897769e-03,-4.9724207e-03,3.0715674e-03,1.9656496e-02,-6.8978396e-03,8.5595334e-03
1.5698752e+00,8.9615426e-05,3.5023046e-04,2.0865021e-04,-3.2478419e-02,-5.0800643e-02,-3.2780571e-02,1.1828575e-04,-3.7927854e-03,1.7714990e-03,2.1080647e-01,1.1796364e-01,-1.3000696e-01
1.5798752e+00,5.4719689e-05,3.2483036e-04,1.4645701e-04,-3.4845021e-03,-2.5265669e-03,-3.5043776e-03,1.5043302e-04,-3.6918300e-03,1.5625798e-03,3.2147303e-03,1.0095557e-02,-2.0891943e-02
1.5898752e+00,-1.8548177e-04,-3.1573604e-04,7.2776613e-05,-2.4050463e-02,-6.4079295e-02,-2.3929419e-02,5.4075081e-04,1.4844505e-03,1.8070681e-04,3.9031816e-02,5.1762854e-01,-1.3818743e-01
1.5998752e+00,-1.9963239e-04,-2.4290363e-04,-6.0696396e-05,-1.4104272e-03,7.2835204e-03,-1.4182828e-03,7.2373738e-04,5.2876438e-04,-4.4866863e-04,1.8298675e-02,-9.5568704e-02,-6.2937603e-02
1.6098752e+00,-1.2648028e-04,-1.4166482e-04,1.8723149e-05,7.3212494e-03,1.0116177e-02,7.3198569e-03,7.4186035e-04,-3.1227010e-04,2.0198339e-04,1.8122989e-03,-8.4103528e-02,6.5065264e-02
1.6198752e+00,-7.9406903e-05,-1.9583313e-04,9.8821057e-06,4.7023714e-03,-5.4204363e-03,4.7081663e-03,8.1911536e-04,5.4009131e-05,1.1302507e-04,7.7255081e-03,3.6627958e-02,-8.8958408e-03
1.6298752e+00,2.3567250e-04,5.0290667e-04,4.7873753e-04,3.1465715e-02,6.9698507e-02,3.1936089e-02,3.3441409e-04,-5.1960246e-03,2.0805154e-03,-4.8470173e-02,-5.2500388e-01,1.9674922e-01
1.6398752e+00,2.1068187e-04,4.5455050e-04,5.8325433e-04,-2.4892533e-03,-4.8302524e-03,-2.5191610e-03,-9.4805585e-04,-3.0801031e-03,2.0892063e-03,-1.2824712e-01,2.1159235e-01,8.6908767e-04
1.6498752e+00,3.9827267e-04,8.2003500e-04,6.2675769e-04,1.8633649e-02,3.6497988e-02,1.8981126e-02,-1.9454053e-03,-4.5997031e-03,2.8910327e-03,-9.9735036e-02,-1.5196014e-01,8.0182717e-02
1.6598752e+00,2.2703147e-04,6.7967799e-04,4.6960874e-04,-1.7074712e-02,-1.3949367e-02,-1.7243628e-02,-7.2708555e-04,-5.7426488e-03,2.2874029e-03,1.2183209e-01,-1.1429469e-01,-6.0363035e-02
1.6698751e+00,-8.7856479e-05,-2.2533503e-04,-3.0206786e-05,-3.1542098e-02,-9.0514047e-02,-3.1398995e-02,4.3402431e-04,8.3767213e-04,-4.4458013e-04,1.1611110e-01,6.5803272e-01,-2.7319857e-01
1.6798751e+00,-1.7425439e-04,-5.9822590e-04,5.5097705e-05,-8.6789554e-03,-3.7309047e-02,-8.5136134e-03,9.8463779e-04,3.3176249e-03,-2.8294794e-04,5.5061401e-02,2.4799552e-01,1.6163234e-02
1.6898751e+00,-1.9481901e-04,-2.9363900e-04,-6.4596432e-05,-2.0322207e-03,3.0459293e-02,-2.0720059e-03,8.2262997e-04,5.3665838e-04,-3.9587004e-04,-1.6200798e-02,-2.7809692e-01,-1.1292220e-02
1.6998751e+00,2.4139745e-04,6.7993739e-04,3.9292496e-04,4.3460990e-02,9.7106208e-02,4.4336866e-02,-5.6327435e-04,-6.2699286e-03,2.4236373e-03,-1.3859056e-01,-6.8065934e-01,2.8195100e-01
1.7098751e+00,2.1067711e-04,6.0432525e-04,3.4680073e-04,-3.0628053e-03,-7.5436812e-03,-3.1239384e-03,-3.5205063e-04,-6.0043819e-03,2.1362844e-03,2.1122392e-02,2.6554686e-02,-2.8735317e-02
1.7198751e+00,2.8825722e-04,7.2586556e-04,4.7667465e-04,7.7311644e-03,1.2105535e-02,7.8599993e-03,-5.0809475e-04,-6.7075593e-03,2.6617771e-03,-1.5604428e-02,-7.0317806e-02,5.2549321e-02
1.7298751e+00,4.2315134e-04,9.0878047e-04,5.5125431e-04,1.3428516e-02,1.8208431e-02,1.3661495e-02,-1.0880423e-03,-7.1891707e-03,3.0347665e-03,-5.7994812e-02,-4.8161178e-02,3.7298974e-02
1.7398751e+00,3.2800886e-04,6.9016153e-04,6.0215327e-04,-9.4609151e-03,-2.1826931e-02,-9.6468467e-03,-1.0697456e-03,-4.7052508e-03,3.1429499e-03,1.8296772e-03,2.4839223e-01,1.0818347e-02
1.7498751e+00,-6.1760299e-05,-8.2441097e-05,4.8011389e-05,-3.9004958e-02,-7.7227508e-02,-3.9013980e-02,5.0837610e-04,-3.3342517e-04,2.8903280e-04,1.5781232e-01,4.3718298e-01,-2.8539198e-01
1.7598753e+00,1.7656103e-05,2.0662363e-04,3.3481517e-04,7.8809028e-03,2.8931237e-02,7.9091275e-03,-1.7991978e-03,1.4105621e-03,1.0742328e-03,-2.3075211e-01,1.7439473e-01,7.8518199e-02
1.7698753e+00,-5.7839583e-05,1.7189880e-04,2.9829896e-04,-7.5368776e-03,-3.5040162e-03,-7.5476947e-03,-2.0556493e-03,2.1211892e-03,7.3407530e-04,-2.5645172e-02,7.1062778e-02,-3.4015778e-02
1.7798753e+00,-7.9538305e-05,-1.3793917e-04,2.3342925e-04,-2.1650556e-03,-3.0987005e-02,-2.1289176e-03,-1.1990850e-04,1.3573366e-03,5.0843835e-04,1.9357426e-01,-7.6385331e-02,-2.2563716e-02
1.7898593e+00,-6.7080180e-05,-1.0564735e-04,2.3981762e-04,1.2474191e-03,3.2348022e-03,1.2470274e-03,2.0602382e-04,5.6689720e-04,8.4456586e-04,3.2645410e-02,-7.9170481e-02,3.3666562e-02
1.7998593e+00,-7.5955703e-05,-1.1956329e-04,2.9906051e-05,-8.8836721e-04,-1.3909141e-03,-8.8780734e-04,5.3529303e-04,-2.3249016e-04,-7.7978993e-05,3.2926953e-02,-7.9938812e-02,-9.2254573e-02
1.8098593e+00,4.5975083e-05,1.8843412e-04,1.6774348e-04,1.2188237e-02,3.0768232e-02,1.2277278e-02,1.0401215e-04,-2.4732030e-03,6.6057621e-04,-4.3128129e-02,-2.2407150e-01,7.3855590e-02
1.8198593e+00,-2.9930771e-05,-5.4358445e-05,6.9925767e-05,-7.6039560e-03,-2.4265854e-02,-7.6200921e-03,5.9370106e-04,-1.1721229e-03,1.3830271e-04,4.8968937e-02,1.3010813e-01,-5.2227399e-02
1.8298593e+00,-1.6278402e-04,-3.7508832e-04,-9.4598619e-05,-1.3322303e-02,-3.2069362e-02,-1.3257117e-02,9.5633648e-04,6.8313004e-04,-4.7423169e-04,3.6263577e-02,1.8552547e-01,-6.1253498e-02
1.8398592e+00,-2.9158741e-05,-2.0645978e-04,1.5580937e-05,1.3373337e-02,1.6852069e-02,1.3365368e-02,5.8477488e-04,-2.2335692e-04,-7.0135078e-05,-3.7156196e-02,-9.0648783e-02,4.0409700e-02
1.8498592e+00,-2.5354284e-05,-1.8899714e-04,5.4547160e-05,3.8133152e-04,1.7459815e-03,3.8086266e-04,5.0168129e-04,-2.4393876e-04,-2.4627689e-05,-8.3093667e-03,-2.0581856e-03,4.5507433e-03
1.8598592e+00,1.6117984e-04,2.2560883e-04,5.3377920e-04,1.8610718e-02,4.1416207e-02,1.8794263e-02,-1.5220944e-04,-2.5220506e-03,1.9495902e-03,-6.5389136e-02,-2.2781140e-01,1.9742198e-01
1.8698592e+00,-5.1157275e-05,-2.7782057e-04,1.6031433e-04,-2.1241375e-02,-5.0373602e-02,-2.1153331e-02,2.3669058e-04,1.6815406e-03,2.0119950e-04,3.8890039e-02,4.2035952e-01,-1.7483924e-01
1.8798592e+00,-7.5701243e-05,-1.1380770e-04,2.4109073e-04,-2.4504360e-03,1.6399933e-02,-2.4674777e-03,1.1476226e-04,6.7075872e-04,8.4746767e-04,-1.2192843e-02,-1.0107828e-01,6.4626878e-02
1.8898592e+00,2.9714448e-05,2.2323996e-04,3.6223982e-04,1.0519470e-02,3.3690902e-02,1.0607879e-02,-8.8614828e-05,-1.4012036e-03,1.8123328e-03,-2.0337729e-02,-2.0719643e-01,9.6486602e-02
1.8998592e+00,9.7695649e-05,5.1113248e-04,3.9879190e-04,6.7257464e-03,2.8801191e-02,6.8196305e-03,-2.1150256e-03,-3.5243306e-04,1.6865506e-03,-2.0264127e-01,1.0487716e-01,-1.2578225e-02
1.9098592e+00,1.4194446e-04,5.3368457e-04,3.3100994e-04,4.4128035e-03,2.2667383e-03,4.4310557e-03,-2.5753899e-03,3.1291933e-05,1.4134442e-03,-4.6036468e-02,3.8372536e-02,-2.7310671e-02
1.9198592e+00,2.9623162e-04,6.8780613e-04,5.6055046e-04,1.5363585e-02,1.5365445e-02,1.5539943e-02,-1.2285046e-03,-4.2346850e-03,2.9899629e-03,1.3468866e-01,-4.2659810e-01,1.5765202e-01
1.9298592e+00,3.1710087e-04,8.6980205e-04,4.8075197e-04,2.0660538e-03,1.8186375e-02,2.2188971e-03,-8.2293343e-04,-6.9326816e-03,2.8211732e-03,4.0557153e-02,-2.6979991e-01,-1.6878990e-02
1.9398592e+00,2.1946437e-04,5.3992658e-04,2.4097292e-04,-9.7293641e-03,-3.2947944e-02,-9.9303030e-03,-5.4803877e-04,-4.5642309e-03,1.6594217e-03,2.7489493e-02,2.3684530e-01,-1.1617526e-01
1.9498591e+00,4.5408390e-04,9.6537621e-04,5.5002107e-04,2.3340808e-02,4.2385021e-02,2.3868862e-02,-1.1505709e-03,-7.8876782e-03,3.0726159e-03,-6.0253267e-02,-3.3234506e-01,1.4131956e-01
1.9598591e+00,3.2354239e-04,7.7189431e-04,5.2395964e-04,-1.3005417e-02,-1.9262815e-02,-1.3227949e-02,-6.5069838e-04,-7.1345054e-03,2.7657129e-03,4.9987296e-02,7.5317352e-02,-3.0690336e-02
1.9698591e+00,-5.0441750e-05,-1.9855747e-04,-6.4187830e-06,-3.7459151e-02,-9.7013153e-02,-3.7421020e-02,6.4439116e-04,-2.1379124e-04,4.8832769e-05,1.2950908e-01,6.9207208e-01,-2.7168827e-01
1.9798591e+00,-7.1310950e-05,-2.7056295e-04,-2.6637552e-05,-2.0931260e-03,-7.2002254e-03,-2.0818396e-03,7.3997839e-04,5.8383069e-04,-4.2004143e-04,9.5587321e-03,7.9762269e-02,-4.6887465e-02
1.9898591e+00,-6.9465021e-05,-2.0570997e-04,2.6473893e-05,1.8824518e-04,6.4852689e-03,1.8212025e-04,5.5059400e-04,3.6850508e-04,-4.4088908e-04,-1.8938457e-02,-2.1532581e-02,-2.0847668e-03
1.9998591e+00,-1.2206924e-04,-2.8686637e-04,-2.8185316e-05,-5.2691345e-03,-8.1188396e-03,-5.2467680e-03,6.2537797e-04,1.2346529e-03,-6.9089279e-04,7.4784035e-03,8.6614867e-02,-2.5000395e-02
2.0098593e+00,-1.3535300e-04,-4.0673453e-04,1.2047755e-04,-1.3378165e-03,-1.1988425e-02,-1.3015775e-03,8.0193238e-04,2.2450171e-03,1.0646998e-04,1.7655037e-02,1.0103411e-01,7.9734452e-02
2.0198593e+00,1.8484650e-04,3.4115246e-04,5.2412935e-04,3.1909578e-02,7.4726391e-02,3.2274819e-02,-5.6849063e-04,-2.5036657e-03,2.1177160e-03,-1.3704243e-01,-4.7486874e-01,2.0112479e-01
2.0298593e+00,3.9323650e-04,7.4052412e-04,6.4202740e-04,2.0717917e-02,3.9868733e-02,2.1089375e-02,-1.4874210e-03,-4.7355659e-03,2.9552750e-03,-9.1893129e-02,-2.2319023e-01,8.3755983e-02
2.0398593e+00,3.7617809e-04,8.2038934e-04,6.1408543e-04,-1.7146163e-03,7.9923408e-03,-1.6694414e-03,-1.7638249e-03,-5.2250663e-03,3.1078380e-03,-2.7640410e-02,-4.8950088e-02,1.5256316e-02
2.0498593e+00,3.5068948e-04,8.6994102e-04,5.7313072e-04,-2.5490299e-03,4.9654532e-03,-2.5286085e-03,-1.7354975e-03,-5.7854084e-03,3.3016155e-03,2.8327370e-03,-5.6034260e-02,1.9377766e-02
2.0598593e+00,3.4049802e-04,9.7307793e-04,4.9062720e-04,-1.0267685e-03,1.0320482e-02,-9.3975637e-04,-1.0505472e-03,-8.0092220e-03,3.1478039e-03,6.8495103e-02,-2.2238158e-01,-1.5381181e-02
2.0698593e+00,6.4592360e-05,2.5948429e-04,1.1333142e-04,-2.7567167e-02,-7.1283377e-02,-2.7809740e-02,7.5086567e-05,-2.6694864e-03,1.0426857e-03,1.1256348e-01,5.3397407e-01,-2.1051202e-01
2.0798593e+00,5.7272410e-05,2.5570183e-04,1.6481277e-04,-7.3123628e-04,-3.7655312e-04,-7.3362559e-04,-7.6578448e-05,-2.3850918e-03,9.9738952e-04,-1.5166516e-02,2.8439488e-02,-4.5296192e-03
2.0898592e+00,4.1742880e-05,5.7431037e-05,2.5913377e-04,-1.5506012e-03,-1.9826741e-02,-1.5598515e-03,-1.2141885e-05,-2.4147034e-04,1.3594286e-03,6.4436624e-03,2.1436235e-01,3.6203947e-02
2.0998592e+00,-7.4852245e-05,-1.9803133e-04,1.9282493e-04,-1.1656564e-02,-2.5559529e-02,-1.1633376e-02,2.0243544e-04,1.3414562e-03,6.9713557e-04,2.1457753e-02,1.5829281e-01,-6.6229371e-02
2.1098592e+00,-4.1778480e-05,-1.4940732e-04,2.2280530e-04,3.3056777e-03,4.8649601e-03,3.3053240e-03,1.4715649e-04,9.1946179e-04,7.3064384e-04,-5.5279008e-03,-4.2199483e-02,3.3508301e-03
2.1198592e+00,-8.7594277e-05,-1.7545241e-04,2.9515444e-05,-4.5841303e-03,-2.6028145e-03,-4.5800014e-03,5.8434610e-04,2.1401401e-04,-2.2376865e-04,4.3719002e-02,-7.0544845e-02,-9.5441340e-02
2.1298592e+00,-4.0880424e-05,-1.2603690e-04,4.9846689e-05,4.6754316e-03,4.9398062e-03,4.6691960e-03,4.9503083e-04,1.2066854e-04,-3.4177213e-04,-8.9315349e-03,-9.3345564e-03,-1.1800360e-02
2.1398592e+00,2.2237854e-05,-1.1698558e-04,1.3051952e-04,6.3127503e-03,8.9868695e-04,6.3118386e-03,6.1913933e-04,-4.0218405e-04,-5.6595014e-05,1.2410862e-02,-5.2285308e-02,2.8517739e-02
2.1498592e+00,1.9410563e-04,2.4942320e-04,2.1728893e-04,1.7162699e-02,3.6592411e-02,1.7313738e-02,-1.5340774e-04,-2.9628846e-03,1.0743442e-03,-7.7254780e-02,-2.5607030e-01,1.1309403e-01
2.1598592e+00,2.9146063e-04,6.6856448e-04,4.4814545e-04,9.6824349e-03,4.1859695e-02,1.0018689e-02,-6.9732688e-04,-6.1939124e-03,2.4461881e-03,-5.4391967e-02,-3.2310309e-01,1.3718452e-01
2.1698592e+00,4.2841199e-04,9.5074776e-04,5.4445558e-04,1.3622351e-02,2.8124610e-02,1.3958067e-02,-1.1034270e-03,-7.8599261e-03,3.0368052e-03,-4.0610050e-02,-1.6660153e-01,5.9061762e-02
2.1798592e+00,2.4912055e-04,5.1486882e-04,2.6811982e-04,-1.7879493e-02,-4.3518228e-02,-1.8146774e-02,-5.5599749e-04,-4.4136840e-03,1.4174231e-03,5.4743004e-02,3.4462454e-01,-1.6193836e-01
2.1898592e+00,-9.8155025e-05,-9.3721982e-05,-1.9022241e-05,-3.4751605e-02,-6.0828810e-02,-3.4756691e-02,4.2278724e-04,-4.5017034e-04,4.9307304e-05,9.7878566e-02,3.9635174e-01,-1.3681171e-01
2.1998591e+00,-2.4707778e-05,-7.1190741e-05,2.5808204e-04,7.3351839e-03,2.2460924e-03,7.3564185e-03,6.1226810e-04,-3.4481133e-04,1.4864978e-03,1.8948104e-02,1.0535911e-02,1.4371919e-01
2.2098591e+00,8.3822824e-05,2.3355906e-04,3.0455690e-04,1.0821564e-02,3.0471911e-02,1.0893156e-02,-6.0952869e-04,-8.9228374e-04,1.1905338e-03,-1.2217980e-01,-5.4747293e-02,-2.9596435e-02
2.2198591e+00,7.3961408e-05,1.9486004e-04,2.9993584e-04,-9.8332698e-04,-3.8696639e-03,-9.8989397e-04,-4.3027226e-04,-6.7298033e-04,1.1658049e-03,1.7925660e-02,2.1930362e-02,-2.4728859e-03
2.2298591e+00,7.1826879e-05,1.6350713e-04,2.9194566e-04,-2.1263060e-04,-3.1351172e-03,-2.1684891e-04,-1.4499755e-04,-9.6623421e-04,1.7219761e-03,2.8527497e-02,-2.9325416e-02,5.5617167e-02
2.2398591e+00,2.5335316e-04,5.8654960e-04,5.6588302e-04,1.8045261e-02,4.2261719e-02,1.8357708e-02,-1.2944885e-03,-3.6119402e-03,2.8938536e-03,-1.1494921e-01,-2.6457085e-01,1.1718787e-01
2.2498591e+00,2.5374054e-04,4.7054016e-04,5.5593723e-04,5.0656362e-05,-1.1600973e-02,3.2607571e-06,-1.0355819e-03,-3.0689084e-03,2.4620367e-03,2.5890685e-02,5.4303231e-02,-4.3181733e-02
2.2598593e+00,-1.1485112e-04,-2.9474964e-04,9.6556190e-06,-3.6924077e-02,-7.6548377e-02,-3.6748428e-02,6.0712226e-04,1.1833684e-03,-5.2378495e-04,1.6426666e-01,4.2521795e-01,-2.9857533e-01
2.2698593e+00,5.6811078e-05,1.5946282e-04,1.6564660e-04,1.7153346e-02,4.5380932e-02,1.7285441e-02,7.3023308e-05,-2.2689354e-03,9.4365024e-04,-5.3409946e-02,-3.4523070e-01,1.4674366e-01
2.2798593e+00,-7.6159437e-06,1.5151867e-04,1.8589592e-04,-6.4335165e-03,-7.7230534e-04,-6.4545710e-03,3.9735900e-04,-3.0294684e-03,1.4745212e-03,3.2433600e-02,-7.6053374e-02,5.3087150e-02
2.2898593e+00,-2.6684328e-04,-1.8108199e-04,-7.5123930e-06,-2.5941948e-02,-3.3217974e-02,-2.5957551e-02,8.6273711e-04,-7.6110816e-04,3.6622719e-04,4.6537855e-02,2.2683624e-01,-1.1082951e-01
2.2998593e+00,-5.2193912e-04,-3.0165425e-04,-5.1901106e-05,-2.5524278e-02,-1.2037243e-02,-2.5504375e-02,9.6987587e-04,1.8633072e-04,-1.1714389e-04,1.0713886e-02,9.4743979e-02,-4.8337154e-02
2.3098593e+00,-9.1001560e-04,-7.3621389e-04,2.5532516e-05,-3.8873583e-02,-4.3508291e-02,-3.8682948e-02,1.6782219e-03,3.0316862e-03,1.7974797e-04,7.0834669e-02,2.8453582e-01,2.9689214e-02
2.3198593e+00,-1.1971790e-03,-1.0603750e-03,7.7993803e-05,-2.8765578e-02,-3.2520683e-02,-2.8548426e-02,9.0633723e-04,4.5620606e-03,-6.9124134e-04,-7.7188540e-02,1.5303759e-01,-8.7099013e-02
2.3298593e+00,-1.5884630e-03,-9.2519852e-04,1.7211323e-04,-3.9099384e-02,1.3386338e-02,-3.9202556e-02,1.3766185e-03,4.7274874e-03,2.6591396e-04,4.7028172e-02,1.6542697e-02,9.5715622e-02
2.3398592e+00,-1.4083078e-03,-5.8647764e-04,3.0957914e-04,1.7976840e-02,3.3989043e-02,1.7833049e-02,-1.3829262e-03,5.1361828e-03,-4.5334262e-04,-2.7595473e-01,4.0869579e-02,-7.1925727e-02
2.3498592e+00,-1.7054898e-03,-1.2781129e-03,5.4523445e-05,-2.9825216e-02,-6.9330264e-02,-2.9218478e-02,9.8651330e-04,6.6563322e-03,-1.3055587e-03,2.3694417e-01,1.5201508e-01,-8.5221688e-02
2.3598592e+00,-1.8386798e-03,-1.4161182e-03,8.9919114e-05,-1.3346170e-02,-1.3866257e-02,-1.3223246e-02,1.4187493e-03,6.3782047e-03,-5.6963916e-04,4.3223639e-02,-2.7812774e-02,7.3592022e-02
2.3698592e+00,-2.0033058e-03,-1.1261495e-03,8.0597238e-05,-1.6378210e-02,2.8970396e-02,-1.6592935e-02,2.2603644e-03,3.8481700e-03,1.1422539e-03,8.4161595e-02,-2.5300371e-01,1.7118947e-01
2.3798592e+00,-2.2793623e-03,-1.5639596e-03,-3.9231689e-05,-2.7706356e-02,-4.3917251e-02,-2.7286619e-02,2.1842170e-03,7.1639121e-03,-1.8549650e-04,-7.6147472e-03,3.3157453e-01,-1.3277516e-01
2.3898592e+00,-2.8440455e-03,-1.3001712e-03,-4.4681476e-07,-5.6376021e-02,2.6249255e-02,-5.6620856e-02,2.7498123e-03,5.0355986e-03,3.4720264e-04,5.6559576e-02,-2.1283156e-01,5.3269965e-02
2.3998592e+00,-3.3908247e-03,-9.6577844e-04,-6.7745752e-05,-5.4622132e-02,3.3441409e-02,-5.4732466e-02,2.3001986e-03,2.2595041e-03,-3.8825742e-04,-4.4961405e-02,-2.7760971e-01,-7.3546075e-02
2.4098592e+00,-3.9320485e-03,-1.1147452e-03,2.2440815e-04,-5.4134804e-02,-1.4855495e-02,-5.4121384e-02,3.1048444e-03,2.3442327e-03,6.2098414e-04,8.0464650e-02,8.4728709e-03,1.0092425e-01
2.4198592e+00,-4.4069242e-03,-1.0867887e-03,2.4132058e-04,-4.7461120e-02,2.8456499e-03,-4.7511128e-02,3.1318020e-03,2.0779237e-03,3.6859100e-04,2.6957630e-03,-2.6630929e-02,-2.5239338e-02
2.4298592e+00,-4.4654965e-03,-5.2277449e-04,6.3259999e-04,-5.7065813e-03,5.6424844e-02,-5.7803363e-03,2.4736181e-03,-1.5549424e-03,1.8965224e-03,-6.5818453e-02,-3.6328695e-01,1.5279329e-01
2.4398019e+00,-5.0725916e-03,-1.1449128e-03,4.3676244e-04,-6.1238768e-02,-6.2500446e-02,-6.0951975e-02,3.3408839e-03,2.1773151e-03,4.7292103e-04,8.7225779e-02,3.7537401e-01,-1.4317955e-01
2.4498019e+00,-5.5854986e-03,-1.7112490e-03,2.1159195e-04,-5.1517802e-02,-5.6746743e-02,-5.0937008e-02,3.6402770e-03,5.8734038e-03,-4.1401492e-04,2.9939338e-02,3.6960922e-01,-8.8693679e-02
2.4598019e+00,-5.8304898e-03,-1.5142503e-03,1.2953530e-04,-2.4467207e-02,1.9632388e-02,-2.4585109e-02,2.5515422e-03,5.2970832e-03,-7.5143537e-04,-1.0887359e-01,-5.7632113e-02,-3.3742078e-02
2.4698019e+00,-5.7448049e-03,-2.9349432e-04,7.4438271e-04,8.7339330e-03,1.2202217e-01,9.1446437e-03,1.5876117e-03,-4.4840244e-03,3.3043630e-03,-9.6393139e-02,-9.7811170e-01,4.0558023e-01
2.4798019e+00,-6.9953129e-03,-1.7731986e-03,3.1649542e-04,-1.2566288e-01,-1.4784383e-01,-1.2458650e-01,4.6215446e-03,3.6263494e-03,5.6404268e-04,3.0339358e-01,8.1103816e-01,-2.7403230e-01
2.4898019e+00,-7.5762221e-03,-1.3425136e-03,5.4067711e-04,-5.7858189e-02,4.3290475e-02,-5.8158288e-02,4.3359889e-03,5.0810523e-04,7.8283453e-04,-2.8555601e-02,-3.1182472e-01,2.1879206e-02
2.4998019e+00,-8.3967276e-03,-1.8552105e-03,3.7979132e-04,-8.2371794e-02,-5.1065201e-02,-8.1856161e-02,5.0214703e-03,2.5405292e-03,-7.8944648e-04,6.8548202e-02,2.0324259e-01,-1.5722825e-01
2.5098021e+00,-8.8244440e-03,-1.9488279e-03,6.7939552e-05,-4.2917602e-02,-9.3210515e-03,-4.2632083e-02,4.3053021e-03,3.3706205e-03,-2.5056466e-03,-7.1615173e-02,8.3007231e-02,-1.7161609e-01
2.5198021e+00,-8.8776341e-03,-1.2635141e-03,2.0995268e-04,-5.0736557e-03,6.8553698e-02,-5.2717884e-03,3.6011357e-03,-6.6854569e-04,-2.7544542e-04,-7.0416707e-02,-4.0391700e-01,2.2302033e-01
2.5298021e+00,-9.0188581e-03,-1.3544550e-03,4.2462592e-04,-1.4128522e-02,-9.0279769e-03,-1.4158665e-02,4.1777871e-03,-4.9740136e-04,2.2459160e-03,5.7665189e-02,1.7114450e-02,2.5213638e-01
2.5398021e+00,-9.4164866e-03,-1.0763113e-03,2.2781471e-04,-3.9621559e-02,2.7945519e-02,-3.9812007e-02,2.5712625e-03,-7.2757811e-04,1.7509522e-03,-1.6065261e-01,-2.3017698e-02,-4.9496433e-02
2.5498021e+00,-1.0202145e-02,-1.6317040e-03,1.9079684e-04,-7.8775734e-02,-5.5509209e-02,-7.8376959e-02,3.1064264e-03,2.7303854e-03,-4.7904430e-04,5.3516444e-02,3.4579668e-01,-2.2299986e-01
2.5598021e+00,-1.0859620e-02,-1.7227603e-03,2.2213497e-04,-6.5842907e-02,-8.9476325e-03,-6.5673798e-02,4.1698722e-03,1.7697159e-03,-8.8175561e-04,1.0634468e-01,-9.6067048e-02,-4.0271169e-02
2.5698020e+00,-1.1282952e-02,-1.5650843e-03,4.0687430e-04,-4.2217274e-02,1.6049400e-02,-4.2343065e-02,5.1948453e-03,-1.4660319e-03,7.8967381e-04,1.0249741e-01,-3.2357508e-01,1.6714310e-01
2.5798020e+00,-1.1860585e-02,-2.4845641e-03,4.6073756e-04,-5.8385990e-02,-9.1721429e-02,-5.7497163e-02,7.0041721e-03,3.1262956e-03,3.4637201e-04,1.8093285e-01,4.5923319e-01,-4.4330223e-02
2.5898020e+00,-1.2205915e-02,-2.3733206e-03,2.6346672e-04,-3.4508406e-02,1.1199105e-02,-3.4533343e-02,5.3973557e-03,3.2298257e-03,-1.0428039e-03,-1.6068179e-01,1.0353013e-02,-1.3891772e-01
2.5998020e+00,-1.2783599e-02,-2.9498707e-03,-5.3312934e-05,-5.8239671e-02,-5.7720396e-02,-5.7227522e-02,6.1085883e-03,7.2998624e-03,-2.0814572e-03,7.1123326e-02,4.0700406e-01,-1.0386542e-01
2.6098020e+00,-1.3011278e-02,-1.4476326e-03,4.5457825e-04,-2.2016660e-02,1.5039710e-01,-2.2360248e-02,4.8400827e-03,-2.8659262e-03,1.0525333e-03,-1.2685069e-01,-1.0165798e+00,3.1339935e-01
2.6198020e+00,-1.3868945e-02,-1.4530838e-03,3.0883436e-04,-8.5794208e-02,6.4533302e-05,-8.5740920e-02,3.9397686e-03,-3.1695253e-03,-3.0333006e-04,-9.0031491e-02,-3.0359945e-02,-1.3558647e-01
2.6298020e+00,-1.4602075e-02,-1.7129281e-03,3.7388954e-04,-7.3512567e-02,-2.5646411e-02,-7.3232456e-02,3.2332202e-03,-1.3776712e-03,-1.5805537e-03,-7.0654906e-02,1.7918559e-01,-1.2772248e-01
2.6398020e+00,-1.5435026e-02,-2.1340832e-03,3.5254173e-04,-8.3629020e-02,-4.1963653e-02,-8.3036925e-02,3.1270348e-03,1.3095061e-03,-2.4347521e-03,-1.0618548e-02,2.6871798e-01,-8.5419921e-02
2.6498020e+00,-1.6375733e-02,-2.5424091e-03,3.5811014e-04,-9.4501807e-02,-4.0165072e-02,-9.3926006e-02,7.2028786e-03,1.1796916e-04,-1.4827245e-03,4.0758476e-01,-1.1915381e-01,9.5202849e-02
2.6598020e+00,-1.6763696e-02,-2.2385189e-03,7.5878803e-04,-3.8671705e-02,3.0645555e-02,-3.8718939e-02,4.8898009e-03,-1.7335347e-03,-6.2960141e-04,-2.3130799e-01,-1.8515056e-01,8.5312387e-02
2.6698020e+00,-1.7372931e-02,-2.4936879e-03,6.5517631e-04,-6.1076496e-02,-2.5247916e-02,-6.0882381e-02,5.1055586e-03,6.9590548e-04,-3.8594455e-04,2.1575792e-02,2.4294425e-01,2.4365710e-02
2.6798019e+00,-1.8167765e-02,-2.6436723e-03,4.3602863e-04,-7.9605562e-02,-1.4502092e-02,-7.9453550e-02,6.7790050e-03,5.3861452e-04,-2.7891133e-04,1.6734480e-01,-1.5729111e-02,1.0703332e-02
2.6898019e+00,-1.8845831e-02,-3.1372041e-03,6.8475916e-04,-6.8156688e-02,-4.8943784e-02,-6.7752359e-02,8.2554283e-03,2.2417627e-03,8.1119736e-04,1.4764247e-01,1.7031498e-01,1.0901097e-01
2.6998019e+00,-1.9308548e-02,-3.4406421e-03,7.3080426e-04,-4.6500341e-02,-3.0122503e-02,-4.6187212e-02,7.9833784e-03,3.2235173e-03,2.6405566e-04,-2.7205010e-02,9.8175549e-02,-5.4714222e-02
2.7098019e+00,-2.0207862e-02,-3.3568255e-03,6.7209048e-04,-8.9734970e-02,9.0559067e-03,-9.0062208e-02,9.4848379e-03,1.9805761e-03,1.2547768e-03,1.5014609e-01,-1.2429423e-01,9.9072204e-02
2.7198019e+00,-2.1161204e-02,-3.7651818e-03,5.7211400e-04,-9.5762247e-02,-4.0330109e-02,-9.5120501e-02,9.2269619e-03,3.9475750e-03,-5.7870195e-04,-2.5787629e-02,1.9670007e-01,-1.8334805e-01
2.7298019e+00,-2.2062571e-02,-3.0387900e-03,6.5465432e-04,-8.9557110e-02,7.3452554e-02,-9.0055369e-02,8.3568138e-03,-6.9484178e-04,-3.3895284e-04,-8.7014895e-02,-4.6424212e-01,2.3974934e-02
2.7398019e+00,-2.2988004e-02,-4.0612155e-03,9.6976482e-04,-9.3677021e-02,-1.0108909e-01,-9.2669977e-02,1.2265055e-02,-1.1709675e-04,1.2243486e-03,3.9082454e-01,5.7774558e-02,1.5633029e-01
2.7498019e+00,-2.3963518e-02,-4.7175972e-03,8.5493664e-04,-9.8314070e-02,-6.4630854e-02,-9.7458596e-02,1.2965545e-02,2.6952654e-03,8.2258037e-04,7.0049052e-02,2.8123648e-01,-4.0176859e-02
2.7598021e+00,-2.4660265e-02,-3.9150157e-03,1.1026025e-03,-6.9014360e-02,8.0539770e-02,-7.0000930e-02,7.6057137e-03,3.4945466e-03,6.6514211e-04,-5.3597089e-01,7.9926291e-02,-1.5743466e-02
2.7698021e+00,-2.6040789e-02,-5.0549406e-03,2.7372478e-04,-1.3967063e-01,-1.1340488e-01,-1.3690401e-01,1.0804761e-02,6.6326990e-03,-2.8626201e-03,3.1990502e-01,3.1381554e-01,-3.5277655e-01
2.7798021e+00,-2.7029192e-02,-4.6131719e-03,5.5266708e-04,-9.8457598e-02,4.5040252e-02,-9.8832967e-02,1.1005535e-02,2.2448686e-03,-1.1063313e-03,2.0077404e-02,-4.3878346e-01,1.7562904e-01
2.7898021e+00,-2.8640289e-02,-5.0742573e-03,3.9226673e-04,-1.6191842e-01,-4.4819424e-02,-1.6066244e-01,1.1948376e-02,3.9756405e-03,-1.6719946e-03,9.4284232e-02,1.7307736e-01,-5.6566378e-02
2.7998021e+00,-2.9924217e-02,-4.2596196e-03,6.4475679e-04,-1.2771996e-01,8.2945933e-02,-1.2811489e-01,1.0223809e-02,-1.3552190e-03,-1.2985031e-03,-1.7245688e-01,-5.3308646e-01,3.7349183e-02
2.8098021e+00,-3.1382182e-02,-4.2438391e-03,6.3620039e-04,-1.4615340e-01,2.9799018e-03,-1.4541704e-01,9.2095456e-03,-4.0719396e-04,-2.5924072e-03,-1.0142644e-01,9.4802592e-02,-1.2939053e-01
2.8198020e+00,-3.2963942e-02,-5.0555500e-03,7.0406875e-04,-1.5956616e-01,-7.9635001e-02,-1.5755961e-01,1.1537197e-02,1.8657230e-03,-2.9384531e-03,2.3276541e-01,2.2729192e-01,-3.4604626e-02
2.8298020e+00,-3.4366564e-02,-5.3756980e-03,7.0683467e-04,-1.4084674e-01,-3.0092790e-02,-1.4010208e-01,1.5414747e-02,1.7397303e-03,-7.6759595e-04,3.8775537e-01,-1.2599282e-02,2.1708593e-01
2.8398020e+00,-3.5450624e-02,-5.8249598e-03,7.1459398e-04,-1.0919363e-01,-4.3792438e-02,-1.0807922e-01,1.4420283e-02,4.0130430e-03,-1.3933542e-03,-9.9446492e-02,2.2733148e-01,-6.2575884e-02
2.8498020e+00,-3.6298142e-02,-5.9016474e-03,6.1542127e-04,-8.4964183e-02,-7.0172279e-03,-8.4595554e-02,1.3828829e-02,6.1592727e-03,-1.3506350e-03,-5.9145498e-02,2.1462317e-01,4.2719204e-03
2.8598020e+00,-3.7140700e-02,-5.6421570e-03,5.3099834e-04,-8.3916864e-02,2.6946942e-02,-8.4281030e-02,1.3720904e-02,1.8481354e-03,-2.9584016e-04,-1.0792525e-02,-4.3111414e-01,1.0547959e-01
2.8698020e+00,-3.8772904e-02,-5.8206805e-03,6.3001318e-04,-1.6344247e-01,-1.6255782e-02,-1.6316537e-01,1.2982887e-02,3.2105651e-03,-2.3705849e-05,-7.3801755e-02,1.3624310e-01,2.7213457e-02
2.8798020e+00,-4.0491288e-02,-6.7488970e-03,9.9020078e-04,-1.7323126e-01,-8.9745335e-02,-1.7207418e-01,1.8443728e-02,6.3067387e-04,1.6856084e-03,5.4608463e-01,-2.5798937e-01,1.7093159e-01
2.8898020e+00,-4.2200659e-02,-6.0872599e-03,6.9182350e-04,-1.7016343e-01,6.9499388e-02,-1.7038489e-01,1.6024151e-02,-3.5488260e-03,-1.8048607e-03,-2.4195794e-01,-4.1795039e-01,-3.4904724e-01
2.8998020e+00,-4.3981737e-02,-6.8999473e-03,8.0949474e-04,-1.8002264e-01,-7.8706801e-02,-1.7733196e-01,1.5974169e-02,1.6536792e-03,-3.5954719e-03,-4.9982523e-03,5.2025102e-01,-1.7906130e-01
2.9098020e+00,-4.5677364e-02,-7.5098316e-03,7.4236824e-04,-1.7128814e-01,-5.7829585e-02,-1.6893430e-01,1.8955770e-02,3.9098056e-04,-3.5435512e-03,2.9816042e-01,-1.2626998e-01,5.1920811e-03
2.9198020e+00,-4.6844607e-02,-7.5899150e-03,9.3835200e-04,-1.1702652e-01,-5.4834435e-03,-1.1656777e-01,1.9810530e-02,-1.8110872e-03,-1.4261927e-03,8.5476098e-02,-2.2020699e-01,2.1173605e-01
2.9298019e+00,-4.8093435e-02,-8.4975039e-03,8.3798437e-04,-1.2694792e-01,-8.8492996e-02,-1.2442635e-01,2.0624960e-02,2.6404142e-03,-1.7611922e-03,8.1443070e-02,4.4515056e-01,-3.3499987e-02
2.9398019e+00,-4.9478548e-02,-8.4816542e-03,8.7934840e-04,-1.3871435e-01,4.0046192e-03,-1.3825930e-01,2.0212741e-02,2.7451932e-03,-1.9023988e-03,-4.1221949e-02,1.0477910e-02,-1.4120677e-02
2.9498019e+00,-5.1484871e-02,-9.3305487e-03,5.1794225e-04,-2.0322548e-01,-8.2083263e-02,-1.9918520e-01,2.1293015e-02,7.4426356e-03,-4.1510038e-03,1.0802749e-01,4.6974469e-01,-2.2486071e-01
2.9598019e+00,-5.3008386e-02,-8.0430660e-03,1.3748280e-03,-1.4975749e-01,1.3241983e-01,-1.5177572e-01,2.0279346e-02,-4.0024348e-03,-3.1472481e-04,-1.0136702e-01,-1.1445081e+00,3.8362826e-01
2.9698019e+00,-5.5403972e-02,-9.1582543e-03,8.8323629e-04,-2.4286799e-01,-1.0627416e-01,-2.3860902e-01,2.2338668e-02,5.6158749e-04,-3.6717879e-03,2.0593246e-01,4.5640267e-01,-3.3570663e-01
2.9798019e+00,-5.7511864e-02,-1.0269990e-02,7.1107918e-04,-2.1451102e-01,-1.0704661e-01,-2.0916503e-01,2.3997297e-02,4.5976831e-03,-5.3023131e-03,1.6586302e-01,4.0360995e-01,-1.6305267e-01
2.9898019e+00,-5.9301667e-02,-1.0548161e-02,6.6077989e-04,-1.8034390e-01,-2.3821074e-02,-1.7818659e-01,2.5659013e-02,3.3951667e-03,-3.9672075e-03,1.6617181e-01,-1.2025175e-01,1.3351068e-01
2.9998019e+00,-6.1207371e-02,-1.1509951e-02,2.8077242e-04,-1.9387418e-01,-9.3004114e-02,-1.8880615e-01,2.6216303e-02,9.7939250e-03,-4.4593016e-03,5.5728990e-02,6.3987644e-01,-4.9209456e-02
3.0098021e+00,-6.2802792e-02,-1.0289181e-02,9.9626444e-04,-1.5643259e-01,1.2631303e-01,-1.5931412e-01,2.5224649e-02,-1.5925065e-03,-1.4947042e-04,-9.9163066e-02,-1.1386171e+00,4.3097325e-01
3.0198021e+00,-6.5337222e-02,-1.1952130e-02,9.9134855e-04,-2.5827114e-01,-1.6060195e-01,-2.5223788e-01,2.7640472e-02,5.4410728e-03,-1.2985702e-03,2.4158246e-01,7.0335860e-01,-1.1491009e-01
3.0298021e+00,-6.7718709e-02,-1.2223376e-02,7.2318481e-04,-2.3937047e-01,-2.1536278e-02,-2.3749432e-01,2.9049415e-02,5.6420296e-03,-2.2454771e-03,1.4089448e-01,2.0095696e-02,-9.4690784e-02
3.0398021e+00,-6.9895518e-02,-1.1735247e-02,1.2177299e-03,-2.1607724e-01,5.5526387e-02,-2.1767023e-01,2.9482076e-02,-1.4605042e-03,3.2352010e-04,4.3266118e-02,-7.1025406e-01,2.5689997e-01
3.0498021e+00,-7.2607713e-02,-1.2844509e-02,1.0471512e-03,-2.7498029e-01,-1.0326836e-01,-2.7045584e-01,2.8921614e-02,8.5572404e-04,-2.4597861e-03,-5.6046205e-02,2.3162305e-01,-2.7833089e-01
3.0598021e+00,-7.5043387e-02,-1.3600617e-02,5.9264001e-04,-2.4682371e-01,-6.9438482e-02,-2.4212344e-01,2.9757753e-02,4.5734844e-03,-4.5851672e-03,8.3613919e-02,3.7177639e-01,-2.1253831e-01
3.0698020e+00,-7.7036670e-02,-1.4042239e-02,5.8091773e-04,-2.0127382e-01,-3.8558192e-02,-1.9853482e-01,3.1919173e-02,3.9263134e-03,-3.2035422e-03,2.1614224e-01,-6.4717162e-02,1.3816263e-01
3.0798020e+00,-7.8647753e-02,-1.4067734e-02,1.2041990e-03,-1.6083875e-01,1.9440838e-03,-1.6138622e-01,3.1630495e-02,3.7349091e-03,1.6731846e-03,-2.8867808e-02,-1.9140443e-02,4.8767314e-01
3.0898020e+00,-8.0935450e-02,-1.4886929e-02,1.1508766e-03,-2.3103798e-01,-7.5300767e-02,-2.2876492e-01,3.1448371e-02,2.6870603e-03,8.5032131e-04,-1.8212483e-02,-1.0478498e-01,-8.2286404e-02
3.0998020e+00,-8.3473681e-02,-1.5437999e-02,7.9621352e-04,-2.5579935e-01,-4.8553461e-02,-2.5317708e-01,3.1295259e-02,5.5880819e-03,-1.4823605e-03,-1.5311150e-02,2.9010243e-01,-2.3326840e-01
3.1098020e+00,-8.6154046e-02,-1.5721098e-02,8.6372815e-04,-2.6953575e-01,-2.0116502e-02,-2.6727262e-01,3.3742137e-02,3.2365470e-03,-2.6019740e-03,2.4468802e-01,-2.3515371e-01,-1.1196146e-01
3.1198020e+00,-8.9023909e-02,-1.7089482e-02,8.5441087e-04,-2.9270351e-01,-1.2807115e-01,-2.8525405e-01,3.5846383e-02,5.6219466e-03,-3.4806583e-03,2.1042483e-01,2.3854019e-01,-8.7868512e-02
3.1298020e+00,-9.1571071e-02,-1.8124839e-02,1.3190318e-03,-2.5875046e-01,-9.6362699e-02,-2.5346208e-01,3.7222573e-02,9.3640164e-03,-1.4044252e-03,1.3761912e-01,3.7420734e-01,2.0762350e-01
3.1398020e+00,-9.4137991e-02,-1.8635801e-02,9.3317906e-04,-2.5899247e-01,-4.3481029e-02,-2.5578293e-01,4.0120363e-02,1.0631528e-02,-1.7834034e-03,2.8977928e-01,1.2675125e-01,-3.7897856e-02
3.1498020e+00,-9.6584544e-02,-1.8974364e-02,8.6890708e-04,-2.4649793e-01,-2.6586737e-02,-2.4370233e-01,3.9070691e-02,9.4848443e-03,-2.8925937e-03,-1.0496730e-01,-1.1466845e-01,-1.1091913e-01
3.1598020e+00,-9.8767496e-02,-1.8924016e-02,1.2734943e-03,-2.1829448e-01,1.1769055e-02,-2.1803711e-01,3.8418368e-02,7.5531553e-03,-1.6205539e-03,-6.5232405e-02,-1.9316909e-01,1.2720410e-01
3.1698020e+00,-1.0166476e-01,-1.8860619e-02,1.1242651e-03,-2.8950568e-01,1.6808373e-02,-2.8953014e-01,3.9625878e-02,3.4682930e-03,-8.8805986e-04,1.2075109e-01,-4.0848662e-01,7.3249470e-02
