time, x, y, z, vx, vy, vz, yaw, pitch, roll, yaw_rate, pitch_rate, roll_rate
0.0000000e+00,0.0000000e+00,0.0000000e+00,0.0000000e+00,0.0000000e+00,0.0000000e+00,0.0000000e+00,0.0000000e+00,0.0000000e+00,0.0000000e+00,0.0000000e+00,0.0000000e+00,0.0000000e+00
9.9999905e-03,-1.7301915e-05,-2.5242690e-05,6.9392753e-05,-1.7323308e-03,-2.5223085e-03,-1.7309167e-03,1.0030150e-03,-1.3071454e-04,2.2729510e-04,1.0030159e-01,-1.3071466e-02,2.2729531e-02
1.9999981e-02,6.5738322e-05,2.2672043e-05,1.6080534e-04,8.3049056e-03,4.7713735e-03,8.3147267e-03,1.6072256e-03,-8.1221726e-04,8.2050220e-04,6.0421125e-02,-6.8150338e-02,5.9320767e-02
2.9999971e-02,6.7532341e-05,1.8712926e-05,1.6897929e-04,1.7861425e-04,-3.9632061e-04,1.7928619e-04,1.5967629e-03,-6.8308315e-04,8.6610597e-04,-1.0462713e-03,1.2913423e-02,4.5603815e-03
3.9999962e-02,1.3768557e-04,6.7878486e-05,2.0930271e-04,7.0177597e-03,4.8941392e-03,7.0285636e-03,2.0709533e-03,-1.1219385e-03,1.1021721e-03,4.7419084e-02,-4.3885572e-02,2.3606631e-02
4.9999952e-02,1.9591016e-05,-3.7854209e-04,1.4058947e-04,-1.1779457e-02,-4.4694525e-02,-1.1639926e-02,-6.1922254e-04,3.8480101e-03,2.0013953e-04,-2.6901784e-01,4.9699533e-01,-9.0203339e-02
5.9999943e-02,1.7224417e-04,-1.2612145e-04,2.3905745e-04,1.5251686e-02,2.5280649e-02,1.5215073e-02,1.7886397e-04,2.7078015e-03,1.1888102e-03,7.9808726e-02,-1.1402096e-01,9.8867160e-02
6.9999933e-02,1.2919501e-04,-1.5267160e-04,2.0841166e-04,-4.3023412e-03,-2.6709565e-03,-4.2976328e-03,-1.3471842e-04,3.5699167e-03,5.1588834e-04,-3.1358269e-02,8.6211603e-02,-6.7292249e-02
7.9999924e-02,2.5491283e-04,3.7700113e-05,3.5164588e-04,1.2564920e-02,1.9045992e-02,1.2565332e-02,8.1007887e-04,1.5097998e-03,1.7715723e-03,9.4479820e-02,-2.0601189e-01,1.2556852e-01
8.9999914e-02,2.2328400e-04,5.0132043e-06,3.3461679e-04,-3.1604479e-03,-3.2700277e-03,-3.1639434e-03,9.1591727e-04,1.3366650e-03,1.7153507e-03,1.0583850e-02,-1.7313496e-02,-5.6221645e-03
9.9999905e-02,1.1975231e-04,-2.2880931e-05,1.4030608e-04,-1.0348764e-02,-2.7679069e-03,-1.0363360e-02,1.6281130e-03,-4.4866498e-04,8.6339491e-04,7.1219636e-02,-1.7853317e-01,-8.5195662e-02
1.0999990e-01,-1.6009092e-05,-1.2650084e-04,3.6734049e-05,-1.3578806e-02,-1.0370295e-02,-1.3567165e-02,1.0980749e-04,7.2099131e-04,-1.1156957e-04,-1.5183069e-01,1.1696574e-01,-9.7496540e-02
1.1999989e-01,-3.7211255e-05,-4.6899786e-05,7.3545137e-05,-2.1103531e-03,7.9622771e-03,-2.1219357e-03,1.3144389e-03,2.9064365e-04,-2.8288999e-04,1.2046326e-01,-4.3034807e-02,-1.7132058e-02
1.2999988e-01,1.4965215e-06,-4.6432851e-05,1.0344144e-04,3.8710311e-03,4.1434263e-05,3.8705916e-03,1.4744455e-03,1.1572639e-04,-4.7809438e-05,1.6000671e-02,-1.7491743e-02,2.3508077e-02
1.4000010e-01,-1.7254476e-05,-4.2821865e-05,1.0066856e-04,-1.8749478e-03,3.6330989e-04,-1.8747370e-03,1.3541263e-03,1.7025711e-04,-2.0357778e-04,-1.2031640e-02,5.4529471e-03,-1.5576478e-02
1.5000010e-01,-2.4897076e-05,-3.4940649e-05,3.3036650e-05,-7.6447839e-04,7.8794399e-04,-7.6422697e-04,2.3321970e-04,4.6658265e-04,-5.2538598e-04,-1.1209077e-01,2.9632583e-02,-3.2180850e-02
1.6000009e-01,-1.1580022e-05,-1.0905189e-04,2.8576781e-07,1.3312003e-03,-7.4097698e-03,1.3397647e-03,1.6144271e-04,1.1804628e-03,-5.1835661e-04,-7.1777057e-03,7.1388079e-02,7.0293753e-04
1.7000008e-01,6.7380639e-05,-2.4655886e-04,2.4043376e-04,7.8787086e-03,-1.3736542e-02,7.9379689e-03,9.3379054e-04,2.7193597e-03,5.7243548e-04,7.7234857e-02,1.5388984e-01,1.0907931e-01
1.8000007e-01,7.5985487e-05,-1.3803344e-04,2.9804226e-04,8.7300630e-04,1.0853090e-02,8.4086650e-04,1.2083000e-03,1.8631702e-03,6.8762036e-04,2.7450970e-02,-8.5619036e-02,1.1518498e-02
1.9000006e-01,4.3092910e-05,-3.6794937e-05,1.4340186e-04,-3.2750156e-03,1.0127394e-02,-3.2925931e-03,1.4063106e-03,3.2853960e-04,1.4482859e-06,1.9801080e-02,-1.5346320e-01,-6.8617272e-02
2.0000005e-01,-3.2991828e-05,-1.8541536e-04,7.0798918e-05,-7.6227201e-03,-1.4874121e-02,-7.5705588e-03,4.1902398e-04,2.0108918e-03,-1.0536188e-03,-9.8728755e-02,1.6823538e-01,-1.0550681e-01
2.1000004e-01,8.2452766e-05,-1.4292765e-04,2.5956170e-04,1.1542199e-02,4.2577470e-03,1.1543436e-02,1.0680739e-03,1.8449928e-03,5.8906952e-04,6.4905057e-02,-1.6589920e-02,1.6426899e-01
2.2000003e-01,8.1995641e-05,-1.3792745e-04,2.6581529e-04,-4.5174869e-05,4.9997550e-04,-4.6727165e-05,1.0238462e-03,1.9781192e-03,5.6346420e-04,-4.4227758e-03,1.3312658e-02,-2.5605345e-03
2.3000002e-01,1.1101281e-04,-1.2976638e-04,3.1821045e-04,2.9003446e-03,8.1703665e-04,2.9028336e-03,1.2577979e-03,1.5768749e-03,8.2659192e-04,2.3395193e-02,-4.0124466e-02,2.6312796e-02
2.4000001e-01,2.9260555e-04,-9.2120173e-05,3.6779662e-04,1.8129245e-02,3.7294336e-03,1.8196536e-02,2.0234073e-03,8.5785652e-05,2.0699002e-03,7.6561011e-02,-1.4910907e-01,1.2433095e-01
2.5000000e-01,2.8242135e-04,-2.1056922e-04,2.7833181e-04,-1.0337805e-03,-1.1844812e-02,-1.0040531e-03,1.4526342e-03,1.3712520e-03,1.8106215e-03,-5.7077365e-02,1.2854676e-01,-2.5927897e-02
2.5999999e-01,2.2526688e-04,-8.2642346e-05,1.2649456e-04,-5.6910635e-03,1.2800554e-02,-5.7222008e-03,1.5639987e-03,1.8692969e-04,7.6502657e-04,1.1136458e-02,-1.1843235e-01,-1.0455959e-01
2.6999998e-01,2.1206780e-04,-7.5661847e-05,1.4066494e-04,-1.3178550e-03,6.9986378e-04,-1.3210016e-03,1.5534931e-03,1.7893838e-04,7.3345844e-04,-1.0505534e-03,-7.9913157e-04,-3.1568156e-03
2.7999997e-01,2.8245204e-04,5.7704084e-05,2.5291794e-04,7.0587841e-03,1.3309888e-02,7.0685575e-03,2.4185267e-03,-1.3677848e-03,1.6865774e-03,8.6503434e-02,-1.5467247e-01,9.5311985e-02
2.8999996e-01,4.7474726e-05,-1.4960978e-04,5.8174252e-05,-2.3498372e-02,-2.0763750e-02,-2.3468559e-02,-1.4926546e-04,1.2280664e-03,-1.5802826e-04,-2.5677946e-01,2.5958537e-01,-1.8446074e-01
2.9999995e-01,3.3766229e-04,2.0924349e-04,2.1204746e-04,2.9039473e-02,3.5756917e-02,2.9156314e-02,2.1649735e-03,-2.2508257e-03,1.9600238e-03,2.3142412e-01,-3.4788955e-01,2.1180541e-01
3.0999994e-01,1.9477243e-04,7.6819052e-05,1.9146190e-04,-1.4303997e-02,-1.3198191e-02,-1.4314924e-02,2.0957089e-03,-9.9877457e-04,8.8997226e-04,-6.9264622e-03,1.2520523e-01,-1.0700526e-01
3.1999993e-01,1.1983814e-04,2.9828594e-05,1.3482442e-04,-7.4955866e-03,-4.6842658e-03,-7.5005394e-03,1.4106095e-03,-5.6132380e-04,5.9647858e-04,-6.8510012e-02,4.3745118e-02,-2.9349396e-02
3.2999992e-01,8.6927562e-05,5.3323036e-05,1.3028274e-04,-3.2857214e-03,2.3570369e-03,-3.2909687e-03,1.4852470e-03,-8.2174119e-04,5.6088964e-04,7.4637547e-03,-2.6041763e-02,-3.5588976e-03
3.3999991e-01,8.8700774e-05,6.3142553e-05,1.3996209e-04,1.7868189e-04,9.8151615e-04,1.7836945e-04,1.4947478e-03,-9.5786069e-04,6.0346194e-04,9.5008359e-04,-1.3611963e-02,4.2572344e-03
3.4999990e-01,1.1631567e-04,3.3293307e-05,1.3534959e-04,2.7552576e-03,-2.9912143e-03,2.7609180e-03,1.5146094e-03,-7.6309496e-04,6.1936088e-04,1.9861613e-03,1.9476592e-02,1.5898957e-03
3.5999990e-01,1.6629160e-04,-2.1371812e-04,2.1573227e-04,4.9724112e-03,-2.4694445e-02,5.0556007e-03,8.0490426e-04,2.1347074e-03,1.0605103e-03,-7.0970579e-02,2.8978051e-01,4.4114987e-02
3.6999989e-01,3.1416478e-04,-1.4209401e-04,2.6233688e-04,1.4771986e-02,7.1650150e-03,1.4801405e-02,1.1698617e-03,1.3441351e-03,1.6024475e-03,3.6495774e-02,-7.9057302e-02,5.4193766e-02
3.7999988e-01,2.8901500e-04,-1.9886064e-04,2.8265759e-04,-2.5165063e-03,-5.6791300e-03,-2.5078858e-03,9.8459620e-04,1.9657450e-03,1.6137982e-03,-1.8526563e-02,6.2161051e-02,1.1350730e-03
3.9000010e-01,2.1681794e-04,-8.0802363e-05,3.1610073e-04,-7.1987753e-03,1.1798788e-02,-7.2512736e-03,8.3131764e-04,1.7632180e-03,1.5154304e-03,-1.5327506e-02,-2.0252233e-02,-9.8365526e-03
4.0000010e-01,2.6058676e-04,-4.5970212e-05,3.7487938e-04,4.3722430e-03,3.4849736e-03,4.3801285e-03,9.9725043e-04,1.3968290e-03,1.8522478e-03,1.6593295e-02,-3.6638935e-02,3.3681773e-02
4.1000009e-01,2.2875994e-04,-6.3893445e-05,3.3093769e-04,-3.1803227e-03,-1.7970350e-03,-3.1823912e-03,6.7652669e-04,2.1554321e-03,1.1224779e-03,-3.2072404e-02,7.5860381e-02,-7.2977067e-02
4.2000008e-01,3.5085262e-04,-4.4798675e-05,3.5774956e-04,1.2186774e-02,1.8915575e-03,1.2234530e-02,1.8360048e-03,3.6765471e-04,2.1266086e-03,1.1594792e-01,-1.7877791e-01,1.0041317e-01
4.3000007e-01,2.7889634e-04,1.0496565e-04,1.7595527e-04,-7.1494421e-03,1.5004895e-02,-7.1824032e-03,2.3551025e-03,-1.6044376e-03,1.5140265e-03,5.1909828e-02,-1.9720942e-01,-6.1258270e-02
4.4000006e-01,1.2950729e-04,2.7148604e-05,2.2327689e-05,-1.4935211e-02,-7.7685178e-03,-1.4949489e-02,2.9284819e-04,-5.9001181e-04,4.0060791e-04,-2.0622563e-01,1.0144267e-01,-1.1134196e-01
4.5000005e-01,1.3330577e-04,6.0399495e-05,5.4219802e-05,3.8063993e-04,3.3246676e-03,3.8276267e-04,2.8685918e-04,-8.2746415e-04,4.2776817e-04,-5.9890218e-04,-2.3745257e-02,2.7160286e-03
4.6000004e-01,8.9444153e-05,-8.8119085e-05,7.0127964e-05,-4.3997034e-03,-1.4849581e-02,-4.3803607e-03,1.0423904e-03,5.2217154e-04,4.4263416e-04,7.5553193e-02,1.3496370e-01,1.4865999e-03
4.6995926e-01,1.2675398e-04,-2.1945557e-04,1.8943614e-04,3.7351159e-03,-1.3180523e-02,3.7815144e-03,5.9130690e-04,2.4208725e-03,8.9256432e-04,-4.5293050e-02,1.9064754e-01,4.5177245e-02
4.7995925e-01,2.3591550e-04,8.3759854e-05,1.9128531e-04,1.0975459e-02,3.0278334e-02,1.0976551e-02,2.4243824e-03,-1.5231108e-03,1.2983060e-03,1.8330773e-01,-3.9439871e-01,4.0574204e-02
4.8995924e-01,3.5399825e-04,2.3238209e-04,2.2642228e-04,1.1821698e-02,1.4801707e-02,1.1870732e-02,2.4931138e-03,-2.6195492e-03,1.9969622e-03,6.8731445e-03,-1.0964395e-01,6.9865694e-02
4.9995923e-01,2.3267697e-04,4.5490811e-05,2.3457135e-04,-1.2151954e-02,-1.8649731e-02,-1.2172892e-02,2.0408344e-03,-1.2017604e-03,1.5073640e-03,-4.5227988e-02,1.4177901e-01,-4.8959874e-02
5.0995922e-01,3.3668933e-04,-3.3992248e-05,4.0767450e-04,1.0358089e-02,-7.9734632e-03,1.0425038e-02,2.1123615e-03,-3.0655931e-04,2.5296189e-03,7.1527249e-03,8.9520199e-02,1.0222559e-01
5.1995921e-01,2.1216302e-04,-1.3542450e-04,3.2550288e-04,-1.2447129e-02,-1.0141521e-02,-1.2459549e-02,1.2515289e-03,1.1134153e-03,1.4603620e-03,-8.6083343e-02,1.4199760e-01,-1.0692580e-01
5.2995920e-01,2.0711416e-04,-1.5176169e-04,3.4206087e-04,-5.0631148e-04,-1.6337166e-03,-5.0347307e-04,1.3254068e-03,1.3200948e-03,1.4652264e-03,7.3877969e-03,2.0667965e-02,4.8644179e-04
5.3995919e-01,3.0850242e-04,-8.7386145e-05,3.4738201e-04,1.0130879e-02,6.4197341e-03,1.0158075e-02,2.0239045e-03,2.6639829e-04,2.0656999e-03,6.9849830e-02,-1.0536975e-01,6.0047412e-02
5.4995918e-01,2.8902747e-04,-1.1337337e-04,3.4738791e-04,-1.9487417e-03,-2.5949049e-03,-1.9513426e-03,2.0849474e-03,1.2610818e-04,2.1387762e-03,6.1042957e-03,-1.4029024e-02,7.3076365e-03
5.5995917e-01,2.1711178e-04,-2.1447620e-04,2.3776745e-04,-7.1843224e-03,-1.0130380e-02,-7.1705276e-03,2.0871594e-04,3.0043004e-03,1.3011639e-03,-1.8762332e-01,2.8781949e-01,-8.3761309e-02
5.6995916e-01,2.8585573e-04,-7.9796440e-05,1.7073058e-04,6.8944026e-03,1.3448961e-02,6.8916030e-03,2.1157487e-03,-6.4656837e-04,1.2326657e-03,1.9070345e-01,-3.6508722e-01,-6.8498294e-03
5.7995915e-01,3.0941162e-04,-2.5222545e-04,3.2036105e-04,2.3231654e-03,-1.7243381e-02,2.3842288e-03,1.6210537e-03,1.4049720e-03,1.8960972e-03,-4.9469544e-02,2.0515423e-01,6.6343214e-02
5.8995914e-01,3.3699299e-04,-1.5925050e-04,3.8126567e-04,2.7753725e-03,9.2906445e-03,2.7639612e-03,2.5704275e-03,9.4314351e-05,2.4104425e-03,9.4937473e-02,-1.3106589e-01,5.1434575e-02
5.9995914e-01,2.7355936e-04,-5.3285955e-05,2.1674855e-04,-6.3033475e-03,1.0623116e-02,-6.3386858e-03,2.8661776e-03,-1.3415863e-03,1.5160067e-03,2.9575039e-02,-1.4359020e-01,-8.9443664e-02
6.0995913e-01,2.5356122e-04,-4.9720731e-05,2.1714909e-04,-1.9958292e-03,3.6447559e-04,-2.0023636e-03,2.7088397e-03,-1.2668651e-03,1.5058595e-03,-1.5733811e-02,7.4721206e-03,-1.0147207e-03
6.1995912e-01,1.8618562e-04,-5.9625284e-05,1.9546941e-04,-6.7327668e-03,-9.6700156e-04,-6.7457661e-03,2.4403455e-03,-1.0392028e-03,1.0675395e-03,-2.6849444e-02,2.2766253e-02,-4.3832044e-02
6.2995911e-01,1.8811334e-04,-4.4888771e-05,1.9858003e-04,1.9609460e-04,1.4729151e-03,1.9504465e-04,2.4327638e-03,-1.3614292e-03,1.3596452e-03,-7.5816620e-04,-3.2222670e-02,2.9210604e-02
6.3995934e-01,-2.3728150e-05,-2.3298023e-04,5.6406593e-05,-2.1205086e-02,-1.8823966e-02,-2.1148656e-02,5.1600125e-04,1.2374271e-03,-5.5336161e-04,-1.9167187e-01,2.5987969e-01,-1.9129631e-01
6.4995933e-01,1.1211265e-04,3.3068279e-05,1.0073188e-04,1.3617133e-02,2.6566441e-02,1.3626169e-02,1.5850352e-03,-1.2395412e-03,6.7064141e-04,1.0690350e-01,-2.4769706e-01,1.2240042e-01
6.5995932e-01,9.6844319e-05,-2.2573980e-05,1.2644619e-04,-1.5354564e-03,-5.5603413e-03,-1.5323501e-03,1.7357012e-03,-8.0476049e-04,6.7705093e-04,1.5066610e-02,4.3478108e-02,6.4095271e-04
6.6995931e-01,1.4104428e-04,-2.5104749e-04,2.0791111e-04,4.3886024e-03,-2.2844744e-02,4.4646468e-03,1.1447008e-03,1.7262498e-03,1.1851616e-03,-5.9100093e-02,2.5310127e-01,5.0811114e-02
6.7995930e-01,1.4728327e-04,-1.4301563e-04,1.1601020e-04,6.4107700e-04,1.0802159e-02,6.2445499e-04,1.6281266e-03,-1.2304753e-05,6.5846229e-04,4.8342621e-02,-1.7385562e-01,-5.2669979e-02
6.8995929e-01,2.4812610e-04,-8.1918739e-06,2.3796438e-04,1.0108077e-02,1.3438060e-02,1.0119587e-02,2.8754399e-03,-1.5110663e-03,1.4805807e-03,1.2473145e-01,-1.4987630e-01,8.2211920e-02
6.9995928e-01,3.0667204e-04,-1.5423273e-04,3.9212815e-04,5.8044927e-03,-1.4618255e-02,5.8691462e-03,2.4935525e-03,6.7817781e-05,2.3326139e-03,-3.8188772e-02,1.5788856e-01,8.5203400e-02
7.0995927e-01,2.7429247e-04,-8.5325958e-05,3.4175470e-04,-3.2223150e-03,6.8918634e-03,-3.2510293e-03,1.3851205e-03,1.0156998e-03,1.8812866e-03,-1.1084330e-01,9.4788289e-02,-4.5132776e-02
7.1995926e-01,2.5563679e-04,-1.3454109e-04,3.3641533e-04,-1.8674044e-03,-4.9228666e-03,-1.8601681e-03,1.0125545e-03,1.7380306e-03,1.6860721e-03,-3.7256639e-02,7.2233148e-02,-1.9521468e-02
7.2995925e-01,2.2466332e-04,-1.7249389e-04,3.1712842e-04,-3.0967427e-03,-3.7970037e-03,-3.0958485e-03,1.1783382e-03,1.7332983e-03,1.6377099e-03,1.6578383e-02,-4.7322508e-04,-4.8362247e-03
7.3995924e-01,2.6374360e-04,-2.4773382e-04,3.4805590e-04,3.8842480e-03,-7.5297678e-03,3.9206133e-03,2.1241386e-03,6.4212582e-04,1.9921072e-03,9.4580131e-02,-1.0911735e-01,3.5439767e-02
7.4995923e-01,2.0899230e-04,-2.3110969e-04,3.2834304e-04,-5.4634297e-03,1.6660847e-03,-5.4857037e-03,1.7059921e-03,1.0334170e-03,1.6172996e-03,-4.1814684e-02,3.9129152e-02,-3.7480797e-02
7.5995922e-01,1.2794810e-04,-1.0083025e-04,1.6313427e-04,-8.0696961e-03,1.3050786e-02,-8.1023520e-03,2.1184051e-03,-7.0195277e-04,8.7745657e-04,4.1241337e-02,-1.7353714e-01,-7.3984374e-02
7.6995921e-01,3.3776445e-06,-2.7661464e-04,-1.0720413e-05,-1.2465529e-02,-1.7594281e-02,-1.2426206e-02,2.7790099e-04,1.5504112e-03,-2.8793955e-04,-1.8405059e-01,2.2523661e-01,-1.1653972e-01
7.7995920e-01,8.2821806e-05,-2.4963780e-04,2.2394593e-05,7.9462931e-03,2.7027395e-03,7.9408359e-03,4.5392537e-04,1.0902198e-03,-8.1284611e-05,1.7602455e-02,-4.6019181e-02,2.0665514e-02
7.8995919e-01,8.7491248e-05,-7.8064256e-05,1.0055938e-04,4.9664805e-04,1.7156320e-02,4.7482251e-04,1.7432907e-03,-4.4639240e-04,4.4150116e-04,1.2893666e-01,-1.5366137e-01,5.2278627e-02
7.9995918e-01,1.9142563e-04,2.5115589e-05,1.8978054e-04,1.0409336e-02,1.0275756e-02,1.0419362e-02,2.5581061e-03,-1.4999614e-03,1.0071114e-03,8.1481613e-02,-1.0535700e-01,5.6561075e-02
8.0995917e-01,1.2191094e-04,-4.5060114e-05,1.6494743e-04,-6.9597750e-03,-7.0002147e-03,-6.9606713e-03,1.8375061e-03,-6.5778764e-04,6.5918742e-04,-7.2060065e-02,8.4217460e-02,-3.4792429e-02
8.1995916e-01,2.6834055e-04,3.2026981e-05,2.0445607e-04,1.4641428e-02,7.6436481e-03,1.4678590e-02,2.6309707e-03,-1.8073541e-03,1.4861734e-03,7.9346532e-02,-1.1495676e-01,8.2698680e-02
8.2995915e-01,1.9152212e-04,-2.1186251e-04,3.0134203e-04,-7.7108003e-03,-2.4383479e-02,-7.6702764e-03,1.6315155e-03,9.2065975e-04,1.4089281e-03,-9.9945616e-02,2.7280165e-01,-7.7245387e-03
8.3995914e-01,3.5279098e-04,-1.2143777e-04,3.7713831e-04,1.6113211e-02,8.9994382e-03,1.6164620e-02,2.4862857e-03,-1.8067250e-04,2.2373946e-03,8.5477102e-02,-1.1013333e-01,8.2846724e-02
8.4995914e-01,2.1788954e-04,-2.0370368e-04,1.5596643e-04,-1.3501048e-02,-8.2014145e-03,-1.3494596e-02,1.8980066e-03,3.2201025e-05,3.4826222e-04,-5.8827963e-02,2.1287373e-02,-1.8891341e-01
8.5995913e-01,2.5663125e-04,-2.8251045e-04,2.5082397e-04,3.8644809e-03,-7.8707790e-03,3.9038800e-03,5.7434178e-04,3.1167427e-03,1.3329536e-03,-1.3236661e-01,3.0845446e-01,9.8469233e-02
8.6995912e-01,3.2558274e-04,-2.9413951e-04,3.1204559e-04,6.8807995e-03,-1.1626285e-03,6.9095271e-03,1.5571188e-03,1.5942472e-03,1.8164538e-03,9.8277800e-02,-1.5224970e-01,4.8350060e-02
8.7995911e-01,1.7516324e-04,-4.4685881e-04,1.7730712e-04,-1.5036213e-02,-1.5321204e-02,-1.4997555e-02,2.6767509e-05,3.3058009e-03,4.0944897e-04,-1.5303528e-01,1.7115554e-01,-1.4070061e-01
8.8995934e-01,1.3353857e-04,-4.0796357e-04,1.0050847e-04,-4.1665605e-03,3.8657197e-03,-4.1802345e-03,-9.9003289e-04,4.6971549e-03,-8.1800390e-05,-1.0167771e-01,1.3913221e-01,-4.9123812e-02
8.9995933e-01,3.6948999e-04,-1.4327051e-04,3.6406372e-04,2.3605521e-02,2.6418777e-02,2.3641418e-02,2.3348187e-03,1.9492475e-04,2.1752016e-03,3.3248547e-01,-4.5022344e-01,2.2570042e-01
9.0995932e-01,3.3647092e-04,-1.1747132e-04,3.5651008e-04,-3.2889756e-03,2.5869680e-03,-3.3092986e-03,2.2781362e-03,1.4193227e-04,2.1324628e-03,-5.6682526e-03,-5.2992540e-03,-4.2738896e-03
9.1995931e-01,2.2222830e-04,-3.4149392e-05,1.7425116e-04,-1.1389521e-02,8.3774613e-03,-1.1425870e-02,2.5545600e-03,-1.4087225e-03,1.1747685e-03,2.7642408e-02,-1.5506563e-01,-9.5769522e-02
9.2995930e-01,6.8217394e-05,-2.1354319e-04,6.5381162e-05,-1.5423033e-02,-1.7938718e-02,-1.5379939e-02,8.8222571e-04,8.3930792e-04,-3.9660130e-04,-1.6723359e-01,2.2480326e-01,-1.5713713e-01
9.3995929e-01,1.4643171e-04,-6.7415278e-05,8.4522898e-05,7.8418416e-03,1.4595346e-02,7.8336004e-03,1.6618216e-03,-5.6722669e-04,4.9477460e-04,7.7959660e-02,-1.4065360e-01,8.9137675e-02
9.4995928e-01,1.4388534e-04,-7.0711460e-05,1.2048385e-04,-2.5507528e-04,-3.2904375e-04,-2.5494232e-04,1.7823547e-03,-4.7248103e-04,5.8571059e-04,1.2053323e-02,9.4745758e-03,9.0936070e-03
9.5995927e-01,2.2251401e-04,-4.4143113e-06,1.9573796e-04,7.8718695e-03,6.5989041e-03,7.8797799e-03,2.5633837e-03,-1.3510312e-03,1.0135875e-03,7.8102976e-02,-8.7855097e-02,4.2787729e-02
9.6995926e-01,1.1809320e-04,-2.5066093e-04,5.6938594e-05,-1.0453844e-02,-2.4629523e-02,-1.0418898e-02,5.7320754e-04,1.0378545e-03,2.2603787e-04,-1.9901780e-01,2.3888879e-01,-7.8755035e-02
9.7995925e-01,8.1707988e-05,-5.0845617e-04,1.4190672e-04,-3.6307312e-03,-2.5793939e-02,-3.5430676e-03,-2.8334866e-04,3.7206040e-03,1.3425108e-04,-8.5655701e-02,2.6827521e-01,-9.1786871e-03
9.8995924e-01,2.6176078e-04,-2.1133926e-04,3.4833997e-04,1.8038760e-02,2.9690410e-02,1.8006954e-02,2.0735433e-03,8.9281446e-04,1.5597889e-03,2.3568943e-01,-2.8277923e-01,1.4255391e-01
9.9995923e-01,3.1168866e-04,-2.0895685e-05,2.3371283e-04,5.0418447e-03,1.9021509e-02,5.0305267e-03,2.9857601e-03,-1.5700426e-03,1.5584602e-03,9.1221766e-02,-2.4628594e-01,-1.3286777e-04
1.0099592e+00,2.6021497e-04,-1.4205837e-04,3.1429612e-04,-5.1540508e-03,-1.2119919e-02,-5.1321019e-03,1.1641218e-03,1.8741679e-03,1.4413016e-03,-1.8216400e-01,3.4442138e-01,-1.1715875e-02
1.0199592e+00,1.5491659e-04,-3.8017170e-04,2.1425991e-04,-1.0542921e-02,-2.3830735e-02,-1.0472773e-02,7.1821909e-04,2.5656762e-03,3.8233184e-04,-4.4590316e-02,6.9150903e-02,-1.0589707e-01
1.0299592e+00,3.3355402e-04,-1.3401231e-04,3.6813016e-04,1.7880128e-02,2.4574296e-02,1.7904704e-02,2.3359663e-03,7.3005768e-06,2.2973063e-03,1.6177487e-01,-2.5583781e-01,1.9149762e-01
1.0399592e+00,3.0251746e-04,-1.6031694e-05,2.2259394e-04,-3.0651097e-03,1.1812031e-02,-3.0888421e-03,2.8639791e-03,-1.6515922e-03,1.5282741e-03,5.2801331e-02,-1.6588943e-01,-7.6903285e-02
1.0499592e+00,2.3810472e-04,-2.0222521e-04,3.0816383e-04,-6.4637551e-03,-1.8614203e-02,-6.4336938e-03,1.7155641e-03,9.1761312e-04,1.4673258e-03,-1.1484161e-01,2.5692077e-01,-6.0948403e-03
1.0599592e+00,2.3222513e-04,-2.0847321e-04,2.6846223e-04,-5.8819689e-04,-6.2446707e-04,-5.8807495e-04,1.6256094e-03,1.0600428e-03,1.3208837e-03,-8.9954739e-03,1.4242982e-02,-1.4644226e-02
1.0699592e+00,2.9193281e-04,-1.7267846e-04,3.7170899e-04,5.9662832e-03,3.5684364e-03,5.9818605e-03,2.2144898e-03,3.6586211e-04,2.0749557e-03,5.8888092e-02,-6.9418137e-02,7.5407274e-02
1.0799205e+00,1.2670032e-04,-2.5521568e-04,4.4273172e-05,-1.6591200e-02,-8.2987388e-03,-1.6576956e-02,3.8357087e-04,1.1681021e-03,-4.1736192e-05,-1.8380198e-01,8.0535134e-02,-2.1249011e-01
1.0899205e+00,8.3375752e-05,-4.0147214e-04,3.2214702e-05,-4.3329470e-03,-1.4637480e-02,-4.2918688e-03,-1.8643926e-04,2.5546064e-03,-7.4186247e-04,-5.7001067e-02,1.3865057e-01,-7.0012695e-02
1.0999205e+00,3.0972131e-04,-3.1316048e-05,2.2660739e-04,2.2701049e-02,3.6917023e-02,2.2728880e-02,2.8326457e-03,-1.5134951e-03,1.6902270e-03,3.0190878e-01,-4.0681054e-01,2.4320918e-01
1.1099205e+00,2.3731530e-04,-4.7580501e-05,1.9565156e-04,-7.2372174e-03,-1.6022330e-03,-7.2493924e-03,2.4400251e-03,-9.0248109e-04,1.0129729e-03,-3.9262096e-02,6.1101460e-02,-6.7725470e-02
1.1199205e+00,3.4206187e-04,7.4785014e-05,1.3469508e-04,1.0484439e-02,1.2192387e-02,1.0516323e-02,2.2102806e-03,-1.9986641e-03,1.6454538e-03,-2.2974473e-02,-1.0961840e-01,6.3248143e-02
1.1299205e+00,2.3161245e-04,-4.7825143e-05,1.8084185e-04,-1.1061100e-02,-1.2219139e-02,-1.1075173e-02,2.4048452e-03,-1.3817235e-03,1.2040435e-03,1.9456475e-02,6.1694115e-02,-4.4141068e-02
1.1399207e+00,1.5245561e-04,-8.4030478e-05,1.8150566e-04,-7.9166745e-03,-3.5990950e-03,-7.9240655e-03,1.9431191e-03,-7.5327618e-04,7.3857927e-04,-4.6171555e-02,6.2843296e-02,-4.6545357e-02
1.1499207e+00,1.7876511e-04,-6.1926610e-05,1.7698100e-04,2.6332439e-03,2.2029489e-03,2.6348981e-03,1.9960511e-03,-8.2915305e-04,8.0388925e-04,5.2932120e-03,-7.5876950e-03,6.5310046e-03
1.1599207e+00,1.5612689e-04,-5.5686673e-05,1.3057502e-04,-2.2609174e-03,6.2996201e-04,-2.2650761e-03,1.8834386e-03,-7.5265392e-04,7.6283813e-04,-1.1261269e-02,7.6499206e-03,-4.1051160e-03
1.1699207e+00,2.8524786e-04,-6.5021828e-06,1.3477229e-04,1.2909311e-02,4.8641314e-03,1.2935464e-02,2.6517244e-03,-1.5516665e-03,1.2225160e-03,7.6828658e-02,-7.9901338e-02,4.5967836e-02
1.1799207e+00,1.4912166e-04,-4.3054012e-04,1.0915565e-04,-1.3609061e-02,-4.2450015e-02,-1.3471542e-02,-9.9091460e-06,3.3997794e-03,2.3151456e-04,-2.6616361e-01,4.9514507e-01,-9.9100243e-02
1.1899207e+00,3.6174312e-04,-2.3163379e-04,3.0768266e-04,2.1255360e-02,1.9879302e-02,2.1279578e-02,1.6871459e-03,1.1531127e-03,1.8951996e-03,1.6970567e-01,-2.2466689e-01,1.6636866e-01
1.1999207e+00,3.3452672e-04,-9.0987176e-05,3.5735045e-04,-2.6997678e-03,1.4064467e-02,-2.7444087e-03,1.1904440e-03,1.2567587e-03,1.8829626e-03,-4.9670238e-02,1.0364610e-02,-1.2236997e-03
1.2099206e+00,3.1657643e-04,-1.0450730e-04,3.6551075e-04,-1.7933914e-03,-1.3517647e-03,-1.7968549e-03,1.3398918e-03,1.1999464e-03,1.9193903e-03,1.4944795e-02,-5.6812295e-03,3.6427778e-03
1.2199206e+00,3.3193060e-04,-5.0182381e-05,2.3209174e-04,1.5479862e-03,5.4261567e-03,1.5451883e-03,2.7582813e-03,-1.3525038e-03,1.5685540e-03,1.4183908e-01,-2.5524526e-01,-3.5083671e-02
1.2299206e+00,3.7632399e-04,-1.9014543e-04,3.5102879e-04,4.3949516e-03,-1.4005984e-02,4.4530069e-03,2.4809032e-03,2.9307788e-04,2.1724730e-03,-2.7737835e-02,1.6455832e-01,6.0391965e-02
1.2399206e+00,3.7403855e-04,-1.6043199e-04,3.6118674e-04,-2.2117796e-04,2.9718204e-03,-2.2963826e-04,2.3062065e-03,2.0094005e-04,2.2432907e-03,-1.7469683e-02,-9.2137917e-03,7.0817705e-03
1.2499206e+00,3.1529588e-04,-4.5009778e-06,2.4244562e-04,-5.8155663e-03,1.5622532e-02,-5.8544929e-03,3.0706753e-03,-1.9510075e-03,1.8363204e-03,7.6446953e-02,-2.1519496e-01,-4.0697069e-02
1.2599206e+00,6.0434019e-05,-2.0354987e-04,7.8766127e-05,-2.5516990e-02,-1.9902860e-02,-2.5456996e-02,9.4548373e-04,8.6616866e-04,-4.6981429e-04,-2.1251936e-01,2.8171788e-01,-2.3061369e-01
1.2699206e+00,2.1140988e-04,1.8171986e-05,4.9096557e-05,1.5120272e-02,2.2128509e-02,1.5138966e-02,1.5605922e-03,-1.3295815e-03,7.8867298e-04,6.1510901e-02,-2.1957522e-01,1.2584885e-01
1.2799206e+00,5.7393445e-05,-2.8774872e-04,-6.3150180e-05,-1.5417855e-02,-3.0605982e-02,-1.5357811e-02,4.4226838e-04,1.3458437e-03,-1.7323161e-04,-1.1183248e-01,2.6754277e-01,-9.6190550e-02
1.2899206e+00,3.9938629e-05,-2.9030699e-04,-2.6087560e-05,-1.7460826e-03,-2.5803763e-04,-1.7445584e-03,2.7295221e-04,1.5399304e-03,-3.0338842e-04,-1.6931633e-02,1.9408687e-02,-1.3015693e-02
1.2999206e+00,2.7096513e-04,-1.3482964e-05,2.4623179e-04,2.3149172e-02,2.7584386e-02,2.3173287e-02,2.7413934e-03,-1.4946329e-03,1.2675138e-03,2.4684435e-01,-3.0345662e-01,1.5709038e-01
1.3099205e+00,3.4868386e-04,-1.4109786e-04,3.8583420e-04,7.7252797e-03,-1.2778568e-02,7.7902771e-03,2.2785762e-03,7.8274811e-05,2.2494212e-03,-4.6281763e-02,1.5729092e-01,9.8190824e-02
1.3199205e+00,3.4259436e-04,-1.5441939e-04,3.9604174e-04,-6.1080530e-04,-1.3306238e-03,-6.1043538e-04,2.4983424e-03,-7.6167210e-06,2.4125020e-03,2.1976641e-02,-8.5891614e-03,1.6308103e-02
1.3299205e+00,3.1672866e-04,-1.6976021e-05,2.2135355e-04,-2.5453150e-03,1.3754771e-02,-2.5720610e-03,2.7044768e-03,-1.3468979e-03,1.5750334e-03,2.0613456e-02,-1.3392824e-01,-8.3746948e-02
1.3399205e+00,3.6710684e-04,-1.5754502e-04,3.7806062e-04,4.9927736e-03,-1.4067551e-02,5.0529515e-03,2.4028816e-03,2.8236985e-04,2.2320589e-03,-3.0159543e-02,1.6292693e-01,6.5702621e-02
1.3499205e+00,3.8141526e-04,-1.4875116e-04,3.7927541e-04,1.4294999e-03,8.7569080e-04,1.4344485e-03,2.4958973e-03,-8.4504366e-05,2.4669225e-03,9.3015776e-03,-3.6687457e-02,2.3486377e-02
1.3599205e+00,2.9796993e-04,-1.5000632e-04,2.9898453e-04,-8.3303251e-03,-1.2741382e-04,-8.3587029e-03,1.2247292e-03,1.4497640e-03,1.7197424e-03,-1.2711693e-01,1.5342698e-01,-7.4718081e-02
1.3699205e+00,3.0266185e-04,-1.5770761e-04,3.3910361e-04,4.6749762e-04,-7.6988479e-04,4.7128261e-04,1.1697806e-03,1.6869266e-03,1.6900304e-03,-5.4948663e-03,2.3716286e-02,-2.9711991e-03
1.3799205e+00,3.0343339e-04,-1.2600705e-04,1.3897275e-04,8.3437683e-05,3.1698631e-03,7.8673665e-05,2.0127347e-03,-4.4666781e-04,1.2472781e-03,8.4295488e-02,-2.1335965e-01,-4.4275278e-02
1.3899207e+00,1.4841297e-04,-4.1292598e-04,1.4733655e-04,-1.5497383e-02,-2.8735906e-02,-1.5423051e-02,1.3458846e-04,3.0230664e-03,5.2665509e-04,-1.8781032e-01,3.4696547e-01,-7.2060648e-02
1.3999207e+00,1.7854902e-04,-4.0891866e-04,1.4854012e-04,3.0120418e-03,4.0955221e-04,3.0139883e-03,1.2934591e-04,3.0549471e-03,5.3680179e-04,-5.2425553e-04,3.1880760e-03,1.0146712e-03
1.4099207e+00,3.2056595e-04,-3.7163355e-05,2.0001656e-04,1.4279451e-02,3.7118386e-02,1.4273132e-02,2.6942204e-03,-1.3181627e-03,1.5734405e-03,2.5648769e-01,-4.3731140e-01,1.0366397e-01
1.4199207e+00,3.7835070e-04,1.2034737e-04,1.8392356e-04,5.8091757e-03,1.5722031e-02,5.8266333e-03,2.6211292e-03,-2.3857861e-03,1.8276336e-03,-7.3091241e-03,-1.0676244e-01,2.5419341e-02
1.4299207e+00,2.1268087e-04,-5.2666777e-05,1.6093157e-04,-1.6594561e-02,-1.7248279e-02,-1.6594813e-02,2.3704116e-03,-8.3392365e-04,8.0865509e-04,-2.5071778e-02,1.5518639e-01,-1.0189795e-01
1.4399207e+00,2.6027876e-04,-4.9566661e-05,1.9644922e-04,4.7536500e-03,2.8972784e-04,4.7672046e-03,2.7447831e-03,-1.5142358e-03,1.4645755e-03,3.7437182e-02,-6.8031280e-02,6.5592103e-02
1.4499207e+00,2.6687939e-04,-2.5614798e-05,2.0683237e-04,6.6562795e-04,2.3922792e-03,6.6500933e-04,2.7376799e-03,-1.6489703e-03,1.5003187e-03,-7.1032430e-04,-1.3473461e-02,3.5743236e-03
1.4599206e+00,1.6603832e-04,-8.5649197e-05,6.4630458e-05,-1.0086500e-02,-5.9940449e-03,-1.0087324e-02,6.2163891e-04,-3.1041103e-04,1.3351016e-04,-2.1160430e-01,1.3385605e-01,-1.3668098e-01
1.4699206e+00,1.8000914e-04,-9.0400057e-05,6.5473032e-05,1.3965762e-03,-4.7654103e-04,1.3970946e-03,7.0552964e-04,-3.3574497e-04,1.2272202e-04,8.3890812e-03,-2.5333956e-03,-1.0788148e-03
1.4799206e+00,3.2626438e-04,-2.7089931e-04,2.6703082e-04,1.4565567e-02,-1.8058862e-02,1.4674293e-02,1.8477631e-03,1.2326118e-03,1.8166349e-03,1.1422345e-01,1.5683583e-01,1.6939145e-01
1.4899206e+00,3.5454133e-04,-2.1565524e-04,2.7745911e-04,2.8313676e-03,5.5234991e-03,2.8258083e-03,1.5727243e-03,1.2517155e-03,1.7720790e-03,-2.7503897e-02,1.9103641e-03,-4.4555948e-03
1.4999206e+00,3.0637933e-04,-2.6770825e-04,2.7873226e-04,-4.8159475e-03,-5.2066921e-03,-4.8149627e-03,1.3930404e-03,1.6808975e-03,1.5567736e-03,-1.7968413e-02,4.2918246e-02,-2.1530554e-02
1.5099206e+00,3.2905111e-04,-1.0585723e-05,2.2426261e-04,2.3363841e-03,2.5701920e-02,2.3138782e-03,2.8354780e-03,-1.6687504e-03,1.6274542e-03,1.4424390e-01,-3.3496511e-01,7.0680676e-03
1.5199206e+00,2.9807323e-04,-1.7031231e-04,3.1852436e-04,-3.1152136e-03,-1.5972468e-02,-3.0813369e-03,1.4169265e-03,1.3580530e-03,1.6790815e-03,-1.4185528e-01,3.0268063e-01,5.1627354e-03
1.5299206e+00,3.8048668e-04,-1.7949256e-04,3.6895739e-04,8.2195739e-03,-9.3793161e-04,8.2608386e-03,2.5059015e-03,9.0038934e-05,2.3575877e-03,1.0889760e-01,-1.2680153e-01,6.7850682e-02
1.5399206e+00,3.6521279e-04,-1.4934981e-04,3.6020050e-04,-1.5166621e-03,3.0178562e-03,-1.5310117e-03,2.4280466e-03,7.9363389e-05,2.2270277e-03,-7.7854972e-03,-1.0675556e-03,-1.3056009e-02
1.5499206e+00,3.3499488e-04,-2.5232773e-05,2.3448031e-04,-2.9795220e-03,1.2425515e-02,-3.0070218e-03,3.0017724e-03,-1.5860676e-03,1.6537644e-03,5.7372640e-02,-1.6654325e-01,-5.7326385e-02
1.5599205e+00,3.0939493e-04,-1.1679748e-06,1.9402507e-04,-2.5498962e-03,2.4174271e-03,-2.5597657e-03,2.7167820e-03,-1.5610432e-03,1.3870755e-03,-2.8499070e-02,2.5024434e-03,-2.6668922e-02
1.5699205e+00,2.9640825e-04,-2.6071968e-05,1.8598843e-04,-1.3032568e-03,-2.4852575e-03,-1.3039191e-03,2.5835993e-03,-1.3674212e-03,1.4181500e-03,-1.3318285e-02,1.9362217e-02,3.1074550e-03
1.5799205e+00,2.6387639e-04,-1.4855340e-04,8.5490869e-05,-3.2716449e-03,-1.2242435e-02,-3.2562123e-03,1.7727311e-03,2.0141540e-05,9.9900505e-04,-8.1086897e-02,1.3875640e-01,-4.1914535e-02
1.5899205e+00,2.8817545e-04,-1.4477485e-04,1.2544902e-04,2.4279480e-03,3.7211079e-04,2.4327529e-03,1.9919733e-03,-3.7155069e-04,1.1139338e-03,2.1924244e-02,-3.9169260e-02,1.1492887e-02
1.5999205e+00,2.4253224e-04,-4.2373802e-05,2.1400326e-04,-4.5314783e-03,1.0258600e-02,-4.5555353e-03,2.7259314e-03,-1.3330534e-03,1.0765543e-03,7.3395876e-02,-9.6150361e-02,-3.7379503e-03
1.6099205e+00,2.5198040e-04,-2.3287780e-05,2.2221891e-04,9.4890146e-04,1.9047513e-03,9.4849182e-04,2.6867381e-03,-1.3803050e-03,1.1003067e-03,-3.9193321e-03,-4.7251694e-03,2.3752350e-03
1.6199205e+00,2.1130302e-04,-2.1361065e-04,3.0854881e-04,-4.0924637e-03,-1.9029873e-02,-4.0543001e-03,1.5770473e-03,9.8601088e-04,1.2991063e-03,-1.1096919e-01,2.3663182e-01,1.9879980e-02
1.6299205e+00,2.2184898e-04,-1.9258495e-04,2.8161295e-04,1.0565263e-03,2.1018880e-03,1.0540292e-03,1.5684912e-03,9.2148079e-04,1.2951188e-03,-8.5560853e-04,-6.4530151e-03,-3.9874914e-04
1.6399207e+00,1.8186837e-04,-7.1531143e-05,1.6426618e-04,-3.9695186e-03,1.2116719e-02,-3.9911250e-03,2.1078742e-03,-8.0470897e-04,7.3154195e-04,5.3937069e-02,-1.7261502e-01,-5.6356394e-02
1.6499207e+00,1.1057518e-04,-1.9907778e-04,8.5503591e-05,-7.1464302e-03,-1.2751729e-02,-7.1174600e-03,1.1392734e-03,7.2790800e-04,-3.6176969e-04,-9.6860173e-02,1.5326184e-01,-1.0933127e-01
1.6599207e+00,2.5881899e-04,-2.1395718e-04,2.7400987e-04,1.4801536e-02,-1.4997354e-03,1.4846031e-02,1.6904828e-03,8.9351321e-04,1.3699056e-03,5.5120992e-02,1.6560537e-02,1.7316770e-01
1.6699207e+00,3.8539382e-04,-1.3310171e-04,3.7340935e-04,1.2647609e-02,8.0483453e-03,1.2691047e-02,2.5758241e-03,-3.6089349e-04,2.4201852e-03,8.8534216e-02,-1.2544079e-01,1.0502806e-01
1.6799207e+00,2.7742241e-04,-6.3640530e-05,2.4201027e-04,-1.0764257e-02,6.9884641e-03,-1.0802672e-02,2.7402568e-03,-1.1825123e-03,1.2791025e-03,1.6443285e-02,-8.2161958e-02,-1.1410838e-01
1.6899207e+00,2.6091513e-04,-2.7485011e-04,2.5338318e-04,-1.6551978e-03,-2.1125869e-02,-1.5822412e-03,2.9280063e-04,3.3237878e-03,1.0390091e-03,-2.4474585e-01,4.5063044e-01,-2.4009361e-02
1.6999207e+00,2.7556711e-04,-2.4711315e-04,1.6201575e-04,1.4651316e-03,2.7769560e-03,1.4590829e-03,4.6347410e-04,2.6916356e-03,9.2299372e-04,1.7067363e-02,-6.3215285e-02,-1.1601551e-02
1.7099206e+00,1.0436407e-04,-4.5705161e-04,2.7140259e-05,-1.7102962e-02,-2.1098815e-02,-1.7008289e-02,-1.0617629e-03,5.0863832e-03,-2.8864589e-04,-1.5252384e-01,2.3947500e-01,-1.2116408e-01
1.7199206e+00,4.4941297e-04,1.4063931e-04,2.3444998e-04,3.4599962e-02,5.9570956e-02,3.4751611e-02,2.9406480e-03,-2.7825582e-03,2.3323477e-03,4.0024147e-01,-7.8689489e-01,2.6209961e-01
1.7299206e+00,1.5940719e-04,-2.2005614e-04,1.4626546e-04,-2.9064994e-02,-3.6047629e-02,-2.8963415e-02,1.5135533e-03,7.5869137e-04,-3.3896743e-04,-1.4270961e-01,3.5412529e-01,-2.6713177e-01
1.7399206e+00,3.5009498e-04,-1.5797465e-04,3.4763547e-04,1.9043071e-02,6.1621590e-03,1.9109381e-02,2.4667112e-03,5.5493025e-05,2.1468254e-03,9.5315885e-02,-7.0319901e-02,2.4857952e-01
1.7499206e+00,2.9846601e-04,-1.5670324e-04,2.9343995e-04,-5.1526307e-03,1.3799802e-04,-5.1728741e-03,2.2100052e-03,1.0700611e-04,1.9306555e-03,-2.5670628e-02,5.1513130e-03,-2.1617003e-02
1.7599206e+00,2.3838886e-04,3.8014423e-05,9.6192429e-05,-5.9615555e-03,1.9494983e-02,-5.9784020e-03,2.0448600e-03,-1.8269069e-03,1.0540109e-03,-1.6514535e-02,-1.9339149e-01,-8.7664550e-02
1.7699206e+00,2.7315437e-04,7.0935331e-05,1.3249984e-04,3.4793642e-03,3.2772578e-03,3.4877420e-03,2.1367943e-03,-2.1238226e-03,1.2120664e-03,9.1934417e-03,-2.9691590e-02,1.5805563e-02
1.7799206e+00,1.8761004e-04,-7.4740486e-05,1.4615757e-04,-8.5777457e-03,-1.4542095e-02,-8.5744684e-03,2.0440524e-03,-9.3196997e-04,7.5415343e-04,-9.2742027e-03,1.1918537e-01,-4.5791337e-02
1.7899206e+00,2.9864379e-04,-2.4333439e-04,2.5346347e-04,1.1058632e-02,-1.6860899e-02,1.1145703e-02,1.5227736e-03,1.3827911e-03,1.7158711e-03,-5.2127922e-02,2.3147632e-01,9.6171855e-02
1.7999206e+00,3.2674714e-04,-1.3342158e-04,3.4357355e-04,2.8300139e-03,1.0984975e-02,2.8152830e-03,2.3157655e-03,7.8594685e-05,2.0506308e-03,7.9299262e-02,-1.3041976e-01,3.3476008e-02
1.8099205e+00,2.9054722e-04,-2.7565637e-05,1.8821774e-04,-3.5881298e-03,1.0599535e-02,-3.6109488e-03,2.5765497e-03,-1.2820177e-03,1.2642375e-03,2.6078441e-02,-1.3606137e-01,-7.8639409e-02
1.8199205e+00,3.2353748e-04,-4.1336380e-05,2.2421716e-04,3.2899066e-03,-1.3913480e-03,3.3021504e-03,2.8470036e-03,-1.4790825e-03,1.5717383e-03,2.7045424e-02,-1.9706499e-02,3.0750108e-02
1.8299205e+00,4.0799664e-04,-1.6071221e-04,4.0181484e-04,8.3946848e-03,-1.1959939e-02,8.4653733e-03,2.5671115e-03,-8.2990528e-05,2.4321062e-03,-2.7989239e-02,1.3960933e-01,8.6036879e-02
1.8399205e+00,4.1965023e-04,-1.5467562e-04,3.7170988e-04,1.1641148e-03,6.0093867e-04,1.1680061e-03,2.4239207e-03,9.0819717e-05,2.3178915e-03,-1.4319097e-02,1.7381041e-02,-1.1421486e-02
1.8499205e+00,3.9383215e-04,-1.5848608e-04,3.9573401e-04,-2.5765235e-03,-3.7438381e-04,-2.5880583e-03,2.5830461e-03,3.0788042e-06,2.4225740e-03,1.5912554e-02,-8.7740997e-03,1.0468264e-02
1.8599205e+00,2.9922481e-04,-4.1812438e-05,1.8400404e-04,-9.4171230e-03,1.1704958e-02,-9.4578384e-03,2.6608616e-03,-1.3153426e-03,1.3247217e-03,7.7815625e-03,-1.3184227e-01,-1.0978534e-01
1.8699205e+00,3.3276839e-04,-7.8557363e-06,2.2457225e-04,3.3587904e-03,3.3804161e-03,3.3653220e-03,2.8829356e-03,-1.6573243e-03,1.5926251e-03,2.2207418e-02,-3.4198198e-02,2.6790368e-02
1.8799205e+00,4.0492170e-04,-1.1194582e-04,3.4864165e-04,7.1737187e-03,-1.0427515e-02,7.2301144e-03,2.4234963e-03,-1.4394217e-04,2.2664569e-03,-4.5943976e-02,1.5133835e-01,6.7383244e-02
1.8899207e+00,3.1300724e-04,-1.9005882e-04,3.3813738e-04,-9.1900481e-03,-7.7938516e-03,-9.2070696e-03,2.2260575e-03,3.4863151e-04,2.0165008e-03,-1.9743422e-02,4.9256240e-02,-2.4995041e-02
1.8999207e+00,3.6548346e-04,9.4544803e-05,1.5777566e-04,5.3154062e-03,2.8433226e-02,5.3260681e-03,2.6920452e-03,-2.4441275e-03,1.6789067e-03,4.6598815e-02,-2.7927617e-01,-3.3759433e-02
1.9099207e+00,1.0349917e-04,-2.4216938e-04,7.8643682e-05,-2.6259378e-02,-3.3666756e-02,-2.6143434e-02,1.2482029e-03,1.0715426e-03,-7.2227950e-04,-1.4438437e-01,3.5156735e-01,-2.4011885e-01
1.9199207e+00,2.7167759e-04,-4.9623678e-05,1.8008427e-04,1.6846518e-02,1.9190051e-02,1.6862879e-02,2.5812719e-03,-1.2499126e-03,1.2470357e-03,1.3330703e-01,-2.3214574e-01,1.9693171e-01
1.9299207e+00,2.9444167e-04,-1.4077582e-04,3.2252904e-04,2.2518298e-03,-9.1201624e-03,2.2810677e-03,2.2132662e-03,3.3437207e-05,1.9311210e-03,-3.6800610e-02,1.2833510e-01,6.8408597e-02
1.9399207e+00,2.2660392e-04,-1.5177178e-05,2.0747066e-04,-6.7463860e-03,1.2584862e-02,-6.7747606e-03,2.4483367e-03,-1.2405960e-03,9.7593385e-04,2.3507070e-02,-1.2740344e-01,-9.5518806e-02
1.9499207e+00,3.8989199e-04,1.6260241e-04,2.1095696e-04,1.6347242e-02,1.7686083e-02,1.6409979e-02,2.8348711e-03,-2.7787561e-03,1.9524684e-03,3.8653485e-02,-1.5381616e-01,9.7653552e-02
1.9599206e+00,1.2287764e-04,-2.1405078e-04,2.5880328e-05,-2.6724584e-02,-3.7671735e-02,-2.6669307e-02,4.2599622e-04,6.6556400e-04,-2.6521059e-04,-2.4088772e-01,3.4443234e-01,-2.2176811e-01
1.9699206e+00,2.2764527e-04,-2.4606278e-04,2.2322631e-04,1.0459890e-02,-3.2055877e-03,1.0492291e-02,1.5546159e-03,1.1342280e-03,1.1346614e-03,1.1286207e-01,4.6866443e-02,1.3998733e-01
1.9799206e+00,2.5225967e-04,-2.2054700e-04,2.9223519e-04,2.4622789e-03,2.5501829e-03,2.4620532e-03,1.6576383e-03,1.0903934e-03,1.3760124e-03,1.0302252e-02,-4.3834642e-03,2.4135122e-02
1.9899206e+00,2.1736590e-04,-1.8061238e-04,1.7448516e-04,-3.4805158e-03,4.0003003e-03,-3.4904043e-03,1.9344857e-03,-2.6223142e-05,3.2441654e-04,2.7684767e-02,-1.1166176e-01,-1.0515969e-01
1.9999206e+00,2.6972544e-04,-1.8585202e-04,1.4515006e-04,5.2292093e-03,-5.3458617e-04,5.2416270e-03,1.9442533e-03,-8.4392638e-05,1.0920003e-03,9.7675889e-04,-5.8169552e-03,7.6758452e-02
2.0099206e+00,1.5435609e-04,-4.8945296e-04,9.5591656e-05,-1.1527923e-02,-3.0403054e-02,-1.1432439e-02,-2.5757367e-04,3.4791821e-03,1.0421384e-04,-2.2018290e-01,3.5635781e-01,-9.8778743e-02
2.0199206e+00,3.5724843e-04,-3.0529284e-04,2.3830286e-04,2.0289421e-02,1.8410590e-02,2.0294023e-02,1.7175960e-03,1.4495104e-03,1.5480955e-03,1.9751715e-01,-2.0296737e-01,1.4438831e-01
2.0299206e+00,3.4877106e-04,-1.2876140e-04,3.5346824e-04,-8.2530574e-04,1.7652597e-02,-8.8096596e-04,1.1840397e-03,1.7978837e-03,1.8027870e-03,-5.3355678e-02,3.4837367e-02,2.5469170e-02
2.0399206e+00,2.7364709e-04,-9.1439551e-05,2.2607736e-04,-7.4936230e-03,3.7583318e-03,-7.5181273e-03,2.5992770e-03,-8.8159102e-04,1.2046839e-03,1.4152386e-01,-2.6794773e-01,-5.9810365e-02
2.0499206e+00,2.5737985e-04,-7.4125309e-05,1.9921000e-04,-1.6208376e-03,1.7368885e-03,-1.6267785e-03,2.4327120e-03,-9.2800584e-04,1.0264606e-03,-1.6656517e-02,-4.6414866e-03,-1.7822345e-02
2.0599205e+00,4.4959437e-05,-3.6153893e-04,1.6352420e-05,-2.1254267e-02,-2.8797858e-02,-2.1153188e-02,-3.4596507e-04,2.3184814e-03,-1.0433004e-03,-2.7786797e-01,3.2464904e-01,-2.0697630e-01
2.0699205e+00,2.7224373e-04,-3.1596686e-05,1.5085232e-04,2.2786609e-02,3.2904416e-02,2.2800345e-02,2.5958045e-03,-1.3490930e-03,1.2053347e-03,2.9417723e-01,-3.6675779e-01,2.2486373e-01
2.0799205e+00,2.4645798e-04,-7.9192479e-06,2.1061547e-04,-2.5687786e-03,2.3796604e-03,-2.5773887e-03,2.9337035e-03,-1.6902104e-03,1.1011626e-03,3.3789936e-02,-3.4111770e-02,-1.0417220e-02
2.0899205e+00,1.6994376e-04,-5.6092381e-05,1.3687239e-04,-7.6572310e-03,-4.7944049e-03,-7.6600122e-03,2.0796764e-03,-9.1280171e-04,5.4879270e-04,-8.5402790e-02,7.7740939e-02,-5.5237046e-02
2.0999205e+00,2.1578633e-04,-2.7666966e-05,1.5187313e-04,4.5864203e-03,2.8269676e-03,4.5917274e-03,2.1343503e-03,-1.2605297e-03,8.4980332e-04,5.4673937e-03,-3.4772829e-02,3.0101091e-02
2.1099205e+00,4.9726216e-05,-4.7451307e-04,7.0440646e-05,-1.6595344e-02,-4.4746947e-02,-1.6448218e-02,-2.6481206e-04,3.5032838e-03,-6.9262003e-05,-2.3991646e-01,4.7638181e-01,-9.1906620e-02
2.1199205e+00,2.9470057e-04,3.1742230e-06,2.1632612e-04,2.4608042e-02,4.7640375e-02,2.4636271e-02,3.1494614e-03,-2.0746895e-03,1.6209363e-03,3.4142767e-01,-5.5779787e-01,1.6901999e-01
2.1299205e+00,3.2904787e-04,-4.1866517e-05,2.3686389e-04,3.4145160e-03,-4.5206508e-03,3.4331187e-03,3.1780756e-03,-1.6524884e-03,1.7121054e-03,2.8614241e-03,4.2220157e-02,9.1169225e-03
2.1399207e+00,3.6978392e-04,-1.9408941e-04,3.6784557e-04,4.0265889e-03,-1.5231234e-02,4.0854096e-03,2.5116390e-03,2.1789925e-04,2.1281892e-03,-6.6642134e-02,1.8703448e-01,4.1607430e-02
2.1499207e+00,2.2749647e-04,-4.0789191e-04,2.4952868e-04,-1.4244220e-02,-2.1396640e-02,-1.4188625e-02,1.1231604e-03,2.2771290e-03,6.0023741e-04,-1.3884799e-01,2.0592317e-01,-1.5279533e-01
2.1599207e+00,3.0618671e-04,-1.3338934e-04,3.1997555e-04,7.8950612e-03,2.7448995e-02,7.8474217e-03,1.4478536e-03,1.2884985e-03,1.7402725e-03,3.2469351e-02,-9.8863142e-02,1.1400362e-01
2.1699207e+00,3.2609304e-04,-1.2081272e-04,3.5225579e-04,1.9884649e-03,1.2583496e-03,1.9923690e-03,1.2373305e-03,1.5804801e-03,1.8692798e-03,-2.1052326e-02,2.9198188e-02,1.2900738e-02
2.1799207e+00,3.2004674e-04,-1.3985486e-04,3.2763940e-04,-6.0576047e-04,-1.9047073e-03,-6.0194658e-04,1.0878476e-03,1.9052488e-03,1.5562118e-03,-1.4948309e-02,3.2476901e-02,-3.1306827e-02
2.1899207e+00,3.8197066e-04,-1.8298188e-04,3.7238871e-04,6.1669970e-03,-4.3278074e-03,6.2071927e-03,2.5619068e-03,1.2065205e-04,2.3117089e-03,1.4740606e-01,-1.7845985e-01,7.5549783e-02
2.1999207e+00,2.0503841e-04,-2.6063344e-04,-1.9464089e-05,-1.7689596e-02,-7.7839413e-03,-1.7688635e-02,2.9810457e-05,1.0911443e-03,2.1910672e-04,-2.5320987e-01,9.7049313e-02,-2.0926042e-01
2.2099206e+00,2.5774866e-04,-1.2926182e-04,4.1706775e-05,5.2772711e-03,1.3131838e-02,5.2780768e-03,7.6225030e-04,-2.4906154e-04,7.1523553e-04,7.3244054e-02,-1.3402071e-01,4.9612928e-02
2.2199206e+00,2.3381188e-04,-1.4704472e-04,1.0480555e-04,-2.3959599e-03,-1.7731296e-03,-2.3952303e-03,1.9966715e-03,-1.5840295e-04,5.2920379e-04,1.2344223e-01,9.0658670e-03,-1.8603192e-02
2.2299206e+00,1.8142538e-04,-1.0531928e-04,1.2757690e-04,-5.2266375e-03,4.1860281e-03,-5.2399033e-03,2.0112318e-03,-5.6328958e-04,6.8969948e-04,1.4560341e-03,-4.0488701e-02,1.6049585e-02
2.2399206e+00,1.4586367e-04,-1.9537482e-04,6.9875449e-05,-3.5693513e-03,-9.0026230e-03,-3.5504120e-03,1.3299640e-03,5.0610173e-04,-3.3823139e-04,-6.8126845e-02,1.0693923e-01,-1.0279319e-01
2.2499206e+00,1.8727797e-04,-5.3535344e-05,3.2030070e-05,4.1477362e-03,1.4179640e-02,4.1499167e-03,4.8325709e-04,-5.5912220e-04,1.3337882e-04,-8.4670771e-02,-1.0652249e-01,4.7161067e-02
2.2599206e+00,-1.4764850e-06,-3.0230743e-04,1.5564945e-05,-1.8889207e-02,-2.4915931e-02,-1.8810560e-02,-1.8403187e-04,1.8703526e-03,-9.7112336e-04,-6.6728959e-02,2.4294771e-01,-1.1045032e-01
2.2699206e+00,2.4505433e-04,-1.5947730e-04,2.9821880e-04,2.4641638e-02,1.4265065e-02,2.4674960e-02,1.5499336e-03,8.2114143e-04,1.3609816e-03,1.7339671e-01,-1.0492122e-01,2.3321072e-01
2.2799206e+00,3.7773874e-04,-1.1665393e-04,3.7582262e-04,1.3249651e-02,4.2485819e-03,1.3298063e-02,2.4502653e-03,-9.2902249e-05,2.2024913e-03,9.0033263e-02,-9.1404455e-02,8.4151050e-02
2.2899206e+00,1.1733066e-05,-3.5051654e-04,-3.1225884e-06,-3.6634648e-02,-2.3479783e-02,-3.6506560e-02,-2.3582670e-04,2.3230045e-03,-1.0814708e-03,-2.6860946e-01,2.4159090e-01,-3.2839653e-01
2.2999206e+00,3.3878313e-05,-4.9845341e-04,-7.5048839e-05,2.2319790e-03,-1.4782963e-02,2.2680615e-03,-9.7151280e-04,3.8303133e-03,-1.3922085e-03,-7.3568680e-02,1.5073103e-01,-3.1073800e-02
2.3099205e+00,2.6809854e-04,-3.3787774e-04,2.2215106e-04,2.3397818e-02,1.6140865e-02,2.3388992e-02,7.4393346e-05,3.6307189e-03,1.0847903e-03,1.0459071e-01,-1.9959464e-02,2.4770012e-01
2.3199205e+00,1.8615987e-04,-3.6197378e-04,2.0192841e-04,-8.1895089e-03,-2.4475880e-03,-8.1869794e-03,-6.2755779e-05,4.5733367e-03,5.1424875e-04,-1.3714926e-02,9.4261867e-02,-5.7054210e-02
2.3299205e+00,-1.0035415e-04,-5.4322785e-04,5.4012978e-05,-2.8629873e-02,-1.8332361e-02,-2.8541106e-02,-1.3316127e-03,5.9031246e-03,-9.0924858e-05,-1.2688581e-01,1.3297892e-01,-6.0517418e-02
2.3399205e+00,-2.9624566e-04,-3.5580393e-04,1.3053629e-04,-1.9569973e-02,1.8735192e-02,-1.9615245e-02,8.6908009e-04,1.2362622e-03,1.4806960e-04,2.2006948e-01,-4.6668668e-01,2.3899469e-02
2.3499205e+00,-6.1065574e-04,-1.9541146e-04,1.9528453e-04,-3.1357777e-02,1.6141136e-02,-3.1472038e-02,2.3125529e-03,-9.2783899e-04,1.4646894e-03,1.4434741e-01,-2.1641032e-01,1.3166210e-01
2.3599205e+00,-1.1578054e-03,-4.0362790e-04,2.8902964e-04,-5.4669376e-02,-2.0851744e-02,-5.4749178e-02,1.2413686e-03,1.7896980e-03,1.3049829e-03,-1.0711853e-01,2.7175396e-01,-1.5970660e-02
2.3699205e+00,-1.6794579e-03,-4.8546266e-04,2.3348007e-04,-5.2117913e-02,-8.2797564e-03,-5.2197467e-02,8.8075383e-04,2.7240860e-03,1.0456677e-03,-3.6061509e-02,9.3438893e-02,-2.5931547e-02
2.3799205e+00,-2.1540915e-03,-3.7521810e-04,4.8228901e-05,-4.7407655e-02,1.1064554e-02,-4.7509758e-02,1.4126091e-03,5.6726264e-04,8.4498470e-04,5.3185578e-02,-2.1568255e-01,-2.0068321e-02
2.3899207e+00,-2.6884750e-03,-3.1645865e-04,8.1628723e-05,-5.3355231e-02,6.0129926e-03,-5.3503658e-02,2.1331867e-03,-4.3369315e-04,1.2948868e-03,7.2056109e-02,-1.0009329e-01,4.4989181e-02
2.3999207e+00,-3.5501676e-03,-5.3366510e-04,5.7464588e-05,-8.6241237e-02,-2.1786939e-02,-8.6080653e-02,9.7463309e-04,1.7452799e-03,-5.8924449e-04,-1.1585547e-01,2.1789751e-01,-1.8841331e-01
2.4099207e+00,-4.1052886e-03,-4.2806151e-04,1.8694046e-04,-5.5479516e-02,1.0718003e-02,-5.5514574e-02,2.2919026e-03,-5.4817184e-04,1.4933143e-04,1.3172708e-01,-2.2934539e-01,7.3857662e-02
2.4199207e+00,-4.6320268e-03,-5.2348579e-04,1.4615200e-04,-5.2713874e-02,-9.4374507e-03,-5.2652763e-02,2.4810126e-03,4.8860878e-04,-3.1311493e-04,1.8911017e-02,1.0367816e-01,-4.6244680e-02
2.4299207e+00,-4.9291900e-03,-6.6534477e-04,3.4474831e-04,-2.9742969e-02,-1.4099879e-02,-2.9730646e-02,3.0116962e-03,1.1862599e-04,5.3699988e-04,5.3068411e-02,-3.6998314e-02,8.5011562e-02
2.4399207e+00,-5.2194097e-03,-8.2324254e-04,3.1377439e-04,-2.9054763e-02,-1.5760001e-02,-2.9005402e-02,2.5400679e-03,1.5155596e-03,2.4970962e-04,-4.7162878e-02,1.3969349e-01,-2.8729054e-02
2.4499207e+00,-5.5436590e-03,-1.0125179e-03,4.6846569e-04,-3.2436162e-02,-1.8947070e-02,-3.2402352e-02,2.4175110e-03,3.0204620e-03,1.0622270e-03,-1.2255700e-02,1.5049039e-01,8.1251814e-02
2.4599206e+00,-6.0583493e-03,-8.7511054e-04,3.3536009e-04,-5.1424647e-02,1.3826760e-02,-5.1490450e-02,2.4971088e-03,8.2493987e-04,1.9345833e-04,7.9597858e-03,-2.1955243e-01,-8.6876948e-02
2.4699206e+00,-6.4298833e-03,-9.8980915e-04,5.6279946e-04,-3.7134395e-02,-1.1426925e-02,-3.7185702e-02,3.0422806e-03,1.8855733e-03,1.4461558e-03,5.4517231e-02,1.0606344e-01,1.2526987e-01
2.4799206e+00,-6.9129674e-03,-1.1746243e-03,5.7434135e-04,-4.8309330e-02,-1.8429408e-02,-4.8327478e-02,3.3594176e-03,2.2807823e-03,1.2605660e-03,3.1713736e-02,3.9520940e-02,-1.8558998e-02
2.4899206e+00,-7.1903501e-03,-1.1465456e-03,4.5652973e-04,-2.7704900e-02,2.8963964e-03,-2.7762567e-02,3.9537723e-03,7.6066622e-04,7.9576143e-04,5.9435525e-02,-1.5201175e-01,-4.6480503e-02
2.4999206e+00,-7.2450140e-03,-1.1476282e-03,4.5164062e-04,-5.4588323e-03,-8.6255735e-05,-5.4743303e-03,4.5765542e-03,5.5154271e-04,1.4618620e-03,6.2278248e-02,-2.0912371e-02,6.6610118e-02
2.5099206e+00,-7.4491738e-03,-1.1922531e-03,2.5094301e-04,-2.0416424e-02,-4.4545137e-03,-2.0417334e-02,3.3055305e-03,2.9148157e-03,6.9643310e-04,-1.2710249e-01,2.3632752e-01,-7.6542960e-02
2.5199206e+00,-7.7101870e-03,-1.3345648e-03,3.2227386e-04,-2.6106641e-02,-1.4293125e-02,-2.6062169e-02,2.5118907e-03,4.8872184e-03,1.1626580e-03,-7.9364059e-02,1.9724046e-01,4.6622533e-02
2.5299206e+00,-8.1400408e-03,-1.1747872e-03,5.7106194e-04,-4.2847333e-02,1.6045790e-02,-4.3097803e-02,3.6108946e-03,2.0218112e-03,1.8619554e-03,1.0990049e-01,-2.8654099e-01,6.9929809e-02
2.5399206e+00,-8.6350663e-03,-1.0228291e-03,5.2642729e-04,-4.9347603e-02,1.5473199e-02,-4.9571385e-02,4.5731840e-03,-1.0316516e-03,1.7153520e-03,9.6229032e-02,-3.0534657e-01,-1.4660355e-02
2.5499206e+00,-9.1144409e-03,-1.1287241e-03,5.7160439e-04,-4.7912319e-02,-1.0326419e-02,-4.8020017e-02,4.7143347e-03,-7.7013330e-04,1.5545577e-03,1.4115080e-02,2.6151852e-02,-1.6079442e-02
2.5599205e+00,-9.6901353e-03,-1.2884047e-03,5.7319411e-04,-5.7587145e-02,-1.5738546e-02,-5.7615017e-02,4.7476933e-03,7.6300182e-04,9.9837112e-04,3.3358642e-03,1.5331366e-01,-5.5618715e-02
2.5699205e+00,-1.0065621e-02,-1.3126662e-03,7.2977424e-04,-3.7477223e-02,-2.3155570e-03,-3.7626734e-02,4.6596633e-03,1.7114616e-03,2.1877307e-03,-8.8030024e-03,9.4846072e-02,1.1893607e-01
2.5799205e+00,-1.0477246e-02,-9.8500423e-04,5.3119821e-04,-4.0923204e-02,3.3027568e-02,-4.1192476e-02,4.9867935e-03,-1.3704122e-03,1.8327990e-03,3.2713052e-02,-3.0818768e-01,-3.5493198e-02
2.5899205e+00,-1.0890601e-02,-1.0759034e-03,7.2256100e-04,-4.1295207e-02,-8.7758767e-03,-4.1443403e-02,5.2958310e-03,-2.2932385e-03,2.1219100e-03,3.0903774e-02,-9.2282716e-02,2.8911131e-02
2.5999205e+00,-1.1152637e-02,-1.2391199e-03,7.7777313e-04,-2.6234579e-02,-1.6089292e-02,-2.6316125e-02,6.4932898e-03,-2.3533252e-03,2.8381238e-03,1.1974599e-01,-6.0086787e-03,7.1621446e-02
2.6099205e+00,-1.1609021e-02,-1.6337785e-03,6.5761373e-04,-4.5788936e-02,-3.9245291e-02,-4.5678085e-02,5.9398894e-03,1.1198278e-03,1.8214772e-03,-5.5340088e-02,3.4731563e-01,-1.0166476e-01
2.6199205e+00,-1.2068989e-02,-1.7327881e-03,8.2198407e-04,-4.5951599e-02,-9.9018611e-03,-4.6041771e-02,4.2796694e-03,4.2948917e-03,1.8930315e-03,-1.6602216e-01,3.1750669e-01,7.1554386e-03
2.6299205e+00,-1.2622327e-02,-1.7591129e-03,8.2465000e-04,-5.5260771e-02,-2.6210107e-03,-5.5407325e-02,4.1832790e-03,3.9707832e-03,1.5093559e-03,-9.6390442e-03,-3.2410882e-02,-3.8367599e-02
2.6399207e+00,-1.3142493e-02,-1.7958725e-03,7.0788289e-04,-5.2004149e-02,-3.5448962e-03,-5.2035885e-02,3.9725540e-03,1.4542233e-03,4.9043734e-04,-2.1072020e-02,-2.5165023e-01,-1.0188952e-01
2.6499207e+00,-1.3487864e-02,-1.9788482e-03,8.5928193e-04,-3.4569665e-02,-1.8318932e-02,-3.4493156e-02,3.6325039e-03,4.2548346e-03,9.7424944e-04,-3.4005045e-02,2.8006140e-01,4.8381256e-02
2.6599207e+00,-1.3520678e-02,-1.9983618e-03,9.5779069e-04,-3.2847411e-03,-1.9495624e-03,-3.2790980e-03,4.7349637e-03,4.1901945e-03,1.7802789e-03,1.1024609e-01,-6.4640154e-03,8.0603025e-02
2.6699207e+00,-1.3582983e-02,-2.0909881e-03,9.0544660e-04,-6.2766129e-03,-9.2296549e-03,-6.2332022e-03,6.6673891e-03,1.4036424e-03,2.4880395e-03,1.9324272e-01,-2.7865548e-01,7.0776122e-02
2.6799207e+00,-1.4033385e-02,-2.0501194e-03,6.8520542e-04,-4.4975761e-02,4.1023623e-03,-4.5103216e-02,4.0957160e-03,3.7465049e-03,1.0509588e-03,-2.5716755e-01,2.3428648e-01,-1.4370820e-01
2.6899207e+00,-1.4556194e-02,-2.1481177e-03,6.9195356e-04,-5.2296429e-02,-9.7155691e-03,-5.2281307e-02,4.7474019e-03,3.1366614e-03,5.8341307e-04,6.5168651e-02,-6.0984413e-02,-4.6754618e-02
2.6999207e+00,-1.5067414e-02,-2.1544465e-03,9.7631207e-04,-5.1049947e-02,-3.1906777e-04,-5.1196843e-02,6.6431108e-03,5.0414324e-04,1.4682703e-03,1.8957107e-01,-2.6325206e-01,8.8485811e-02
2.7099206e+00,-1.5710524e-02,-2.4215792e-03,1.0109491e-03,-6.4380858e-02,-2.6418162e-02,-6.4363236e-02,6.5235570e-03,1.9408702e-03,1.6027525e-03,-1.1955389e-02,1.4367284e-01,1.3448228e-02
2.7199206e+00,-1.6183605e-02,-2.2814876e-03,9.8386441e-04,-4.7069918e-02,1.4373532e-02,-4.7436191e-02,7.6327155e-03,-7.7482584e-05,2.7413784e-03,1.1091596e-01,-2.0183548e-01,1.1386270e-01
2.7299206e+00,-1.6812788e-02,-2.5179864e-03,9.0519289e-04,-6.3006198e-02,-2.3369641e-02,-6.2935288e-02,6.3199685e-03,1.8718555e-03,9.5990191e-04,-1.3127482e-01,1.9493400e-01,-1.7814782e-01
2.7399206e+00,-1.7150499e-02,-2.5081209e-03,8.1772698e-04,-3.3754043e-02,1.0660906e-03,-3.3785714e-02,5.3711879e-03,3.0142666e-03,3.3342453e-04,-9.4878154e-02,1.1424122e-01,-6.2647798e-02
2.7499206e+00,-1.7594958e-02,-2.7505918e-03,8.6645175e-04,-4.4592112e-02,-2.4185122e-02,-4.4333242e-02,6.3483555e-03,4.9704306e-03,1.5525755e-04,9.7716857e-02,1.9561659e-01,-1.7816715e-02
2.7599206e+00,-1.7845753e-02,-2.6585342e-03,1.0872870e-03,-2.4962623e-02,9.3411275e-03,-2.5146000e-02,7.9094682e-03,2.4954656e-03,1.7248799e-03,1.5611142e-01,-2.4749674e-01,1.5696238e-01
2.7699206e+00,-1.8296552e-02,-2.7538496e-03,1.2571416e-03,-4.5038897e-02,-9.4655133e-03,-4.5134793e-02,6.8967010e-03,5.4270425e-03,2.3415452e-03,-1.0127682e-01,2.9315797e-01,6.1666594e-02
2.7799206e+00,-1.8998781e-02,-2.8627229e-03,1.2465425e-03,-7.0142012e-02,-1.0776858e-02,-7.0320965e-02,7.0228233e-03,5.4433977e-03,2.2153430e-03,1.2612237e-02,1.6355221e-03,-1.2620234e-02
2.7899206e+00,-1.9871236e-02,-2.7623789e-03,1.3080427e-03,-8.6936335e-02,1.0496381e-02,-8.7499428e-02,8.0951834e-03,2.7887215e-03,2.5766952e-03,1.0723612e-01,-2.6546787e-01,3.6135254e-02
2.7999206e+00,-2.0672088e-02,-2.9032048e-03,1.2873151e-03,-8.0053789e-02,-1.3745639e-02,-8.0175388e-02,7.7936179e-03,3.5860650e-03,1.7326018e-03,-3.0156586e-02,7.9734424e-02,-8.4409422e-02
2.8099205e+00,-2.1235192e-02,-3.0741378e-03,1.3188259e-03,-5.6350171e-02,-1.6859642e-02,-5.6340986e-02,7.7746184e-03,3.6301796e-03,1.6215977e-03,-1.8999524e-03,4.4114602e-03,-1.1100417e-02
2.8199205e+00,-2.1620895e-02,-3.2219576e-03,1.3940911e-03,-3.8606468e-02,-1.4630426e-02,-3.8592035e-02,7.9111560e-03,3.9880502e-03,2.0624945e-03,1.3653780e-02,3.5787094e-02,4.4089718e-02
2.8299205e+00,-2.1995385e-02,-3.3925100e-03,1.2228152e-03,-3.7527035e-02,-1.6812868e-02,-3.7480675e-02,8.6492007e-03,2.1908200e-03,1.8188641e-03,7.3804534e-02,-1.7972319e-01,-2.4363062e-02
2.8399205e+00,-2.2167586e-02,-3.1288904e-03,1.2941403e-03,-1.6890945e-02,2.6532445e-02,-1.7284204e-02,9.6390986e-03,-3.2971244e-04,4.3032294e-03,9.8989891e-02,-2.5205348e-01,2.4843677e-01
2.8499205e+00,-2.3066257e-02,-3.2435004e-03,1.1922918e-03,-8.9693803e-02,-1.0856832e-02,-9.0114953e-02,8.5599376e-03,1.8362270e-03,2.9791941e-03,-1.0791620e-01,2.1659415e-01,-1.3240366e-01
2.8599205e+00,-2.3946963e-02,-3.5298535e-03,1.5311883e-03,-8.8077466e-02,-2.8211569e-02,-8.8200651e-02,8.8950104e-03,4.0873269e-03,2.7721172e-03,3.3507309e-02,2.2511020e-01,-2.0707711e-02
2.8699205e+00,-2.4708247e-02,-3.8097708e-03,1.5287785e-03,-7.6232873e-02,-2.7202391e-02,-7.6309827e-02,1.1672860e-02,1.3253454e-03,2.8476442e-03,2.7778522e-01,-2.7619841e-01,7.5527093e-03
2.8799205e+00,-2.5710272e-02,-3.9867837e-03,1.3635082e-03,-1.0025681e-01,-1.6783673e-02,-1.0030637e-01,1.0950531e-02,1.8009285e-03,1.3332945e-03,-7.2232968e-02,4.7558350e-02,-1.5143512e-01
2.8899207e+00,-2.6453840e-02,-4.0542595e-03,1.3924982e-03,-7.4340463e-02,-6.0815804e-03,-7.4427076e-02,1.0850039e-02,1.8983287e-03,1.1215001e-03,-1.0048973e-02,9.7398009e-03,-2.1178952e-02
2.8999207e+00,-2.7101534e-02,-4.2474532e-03,1.5306470e-03,-6.4852798e-02,-1.9185847e-02,-6.4725703e-02,9.0238326e-03,6.9715469e-03,1.3628912e-03,-1.8262080e-01,5.0732231e-01,2.4139133e-02
2.9099207e+00,-2.7844777e-02,-4.4775928e-03,1.4074323e-03,-7.4447118e-02,-2.3059803e-02,-7.4187272e-02,8.7247377e-03,9.3567611e-03,1.0119721e-03,-2.9909521e-02,2.3852164e-01,-3.5091939e-02
2.9199207e+00,-2.8536887e-02,-4.2385097e-03,1.3818758e-03,-6.8902793e-02,2.4393853e-02,-6.9349076e-02,1.0239898e-02,3.2019917e-03,8.6394897e-04,1.5151620e-01,-6.1547753e-01,-1.4802331e-02
2.9299207e+00,-2.9181468e-02,-4.5010733e-03,1.4590881e-03,-6.4637006e-02,-2.5785800e-02,-6.4468964e-02,1.0057674e-02,2.7754341e-03,1.2702667e-03,-1.8222467e-02,-4.2655802e-02,4.0631809e-02
2.9399207e+00,-2.9848878e-02,-4.7323148e-03,1.4611675e-03,-6.6896364e-02,-2.2684390e-02,-6.6736513e-02,1.0223417e-02,3.6500227e-03,1.1623136e-03,1.6574344e-02,8.7458948e-02,-1.0795319e-02
2.9499066e+00,-3.0369959e-02,-4.6800206e-03,1.5918666e-03,-5.1992134e-02,5.7303198e-03,-5.2318644e-02,1.1845421e-02,2.3742885e-03,2.3688558e-03,1.6242908e-01,-1.2775325e-01,1.2082430e-01
2.9599066e+00,-3.0890117e-02,-4.6202751e-03,1.5872467e-03,-5.1728514e-02,6.6360483e-03,-5.2221797e-02,1.3707164e-02,9.7486204e-04,3.8483097e-03,1.8617439e-01,-1.3994278e-01,1.4794553e-01
2.9699066e+00,-3.1905232e-02,-5.0165673e-03,1.6942076e-03,-1.0164831e-01,-3.9057964e-02,-1.0159626e-01,1.1280705e-02,5.6666193e-03,2.9893459e-03,-2.4264613e-01,4.6917617e-01,-8.5896470e-02
2.9799066e+00,-3.2654108e-02,-5.0648629e-03,1.8450137e-03,-7.4655026e-02,-4.2605102e-03,-7.5153953e-02,1.2063803e-02,4.4530080e-03,3.8041439e-03,7.8309965e-02,-1.2136125e-01,8.1479882e-02
2.9899065e+00,-3.3410660e-02,-5.3180213e-03,1.8236971e-03,-7.5642650e-02,-2.4773192e-02,-7.5847283e-02,1.2454782e-02,5.2895310e-03,4.2477029e-03,3.9097924e-02,8.3652376e-02,4.4355942e-02
2.9999065e+00,-3.4513963e-02,-5.7367834e-03,1.7490145e-03,-1.1046447e-01,-4.1434831e-02,-1.1036285e-01,1.2206587e-02,8.2186139e-03,3.3374138e-03,-2.4819599e-02,2.9290857e-01,-9.1028993e-02
3.0099065e+00,-3.5416256e-02,-5.8168732e-03,1.9270233e-03,-8.9935482e-02,-7.4752358e-03,-9.0567926e-02,1.2896984e-02,6.9605026e-03,4.3093232e-03,6.9039787e-02,-1.2581125e-01,9.7191032e-02
3.0199065e+00,-3.6666855e-02,-6.0569266e-03,1.9518098e-03,-1.2497369e-01,-2.3323978e-02,-1.2527514e-01,1.2808607e-02,7.3578769e-03,3.0624219e-03,-8.8376704e-03,3.9737469e-02,-1.2469025e-01
3.0299065e+00,-3.7732132e-02,-6.2519192e-03,1.8532476e-03,-1.0647523e-01,-1.8618216e-02,-1.0673779e-01,1.3599597e-02,5.3324286e-03,2.8861418e-03,7.9099042e-02,-2.0254502e-01,-1.7628032e-02
3.0399065e+00,-3.8924083e-02,-6.4273487e-03,1.8852061e-03,-1.1903509e-01,-1.6221805e-02,-1.1954179e-01,1.5039696e-02,3.9591349e-03,3.4375183e-03,1.4401007e-01,-1.3732950e-01,5.5137711e-02
3.0499065e+00,-4.0520471e-02,-6.7356783e-03,1.7421896e-03,-1.5983383e-01,-2.9204510e-02,-1.5975031e-01,1.4799938e-02,4.6144346e-03,1.5275064e-03,-2.3975845e-02,6.5530033e-02,-1.9100138e-01
3.0599065e+00,-4.1673678e-02,-6.7999628e-03,1.8553945e-03,-1.1515056e-01,-4.8722761e-03,-1.1556688e-01,1.6256460e-02,2.7626564e-03,2.2476392e-03,1.4565237e-01,-1.8517800e-01,7.2013355e-02
3.0699065e+00,-4.2810119e-02,-6.9323376e-03,1.8297338e-03,-1.1364355e-01,-1.1741454e-02,-1.1380910e-01,1.6513892e-02,3.3593304e-03,1.7910593e-03,2.5743231e-02,5.9667462e-02,-4.5658031e-02
3.0799065e+00,-4.3862617e-02,-7.4466993e-03,2.0148792e-03,-1.0573390e-01,-5.0605748e-02,-1.0516736e-01,1.6544218e-02,8.7086437e-03,3.3439535e-03,3.0325469e-03,5.3493184e-01,1.5528956e-01
3.0899065e+00,-4.5024782e-02,-7.5381362e-03,2.2431689e-03,-1.1590325e-01,-7.9040670e-03,-1.1661983e-01,1.7338063e-02,6.6578545e-03,3.9027294e-03,7.9384585e-02,-2.0507912e-01,5.5877648e-02
3.0999064e+00,-4.6129285e-02,-7.6439400e-03,2.0519630e-03,-1.1030514e-01,-9.0254682e-03,-1.1073308e-01,1.8174701e-02,4.1003067e-03,2.8861632e-03,8.3663887e-02,-2.5575502e-01,-1.0165672e-01
3.1099064e+00,-4.7368105e-02,-7.9370095e-03,2.1313207e-03,-1.2383946e-01,-2.7272901e-02,-1.2438824e-01,1.9947800e-02,3.5582211e-03,4.8523496e-03,1.7731010e-01,-5.4208619e-02,1.9661882e-01
3.1199064e+00,-4.8818724e-02,-8.3397644e-03,2.2879433e-03,-1.4507659e-01,-3.8475420e-02,-1.4553530e-01,1.8954419e-02,6.5668000e-03,4.9697938e-03,-9.9338247e-02,3.0085818e-01,1.1744434e-02
3.1299064e+00,-5.0433963e-02,-8.4721270e-03,2.1660201e-03,-1.6127825e-01,-1.1629352e-02,-1.6189295e-01,1.8276823e-02,8.3195889e-03,2.8483774e-03,-6.7759595e-02,1.7527906e-01,-2.1214185e-01
3.1399066e+00,-5.1854580e-02,-8.8056724e-03,2.3943480e-03,-1.4206660e-01,-3.1788367e-02,-1.4240879e-01,1.9155872e-02,8.1508502e-03,4.2474682e-03,8.7902808e-02,-1.6873484e-02,1.3990589e-01
3.1499066e+00,-5.3542317e-02,-9.0391832e-03,2.2041534e-03,-1.6856476e-01,-2.0648871e-02,-1.6933415e-01,2.0947253e-02,4.9472578e-03,3.9099013e-03,1.7913827e-01,-3.2035955e-01,-3.3756724e-02
3.1599066e+00,-5.5273459e-02,-9.1625036e-03,2.0672672e-03,-1.7279125e-01,-9.6412642e-03,-1.7360725e-01,2.0632067e-02,5.0871607e-03,3.1184565e-03,-3.1518575e-02,1.3990311e-02,-7.9144559e-02
3.1699066e+00,-5.7040847e-02,-9.5708500e-03,2.1030054e-03,-1.7700378e-01,-3.7693074e-02,-1.7717150e-01,2.2108137e-02,4.3746986e-03,3.3595903e-03,1.4760716e-01,-7.1246286e-02,2.4113398e-02
3.1799066e+00,-5.8841911e-02,-9.7742702e-03,2.0831621e-03,-1.8011579e-01,-1.7188407e-02,-1.8042554e-01,2.2287404e-02,4.7942142e-03,2.2147589e-03,1.7926685e-02,4.1951608e-02,-1.1448325e-01
3.1899066e+00,-6.0551032e-02,-9.8670137e-03,2.1590894e-03,-1.7053580e-01,-5.8267483e-03,-1.7143988e-01,2.3802106e-02,3.6319690e-03,3.2059805e-03,1.5147038e-01,-1.1622464e-01,9.9122252e-02
