time, x, y, z, vx, vy, vz, yaw, pitch, roll, yaw_rate, pitch_rate, roll_rate
0.0000000e+00,0.0000000e+00,-0.0000000e+00,0.0000000e+00,0.0000000e+00,0.0000000e+00,0.0000000e+00,0.0000000e+00,0.0000000e+00,0.0000000e+00,0.0000000e+00,0.0000000e+00,0.0000000e+00
1.0000229e-02,-1.4795756e-05,5.4885701e-06,8.9240035e-06,-1.4794822e-03,5.4909715e-04,-1.4795076e-03,-7.2496663e-05,-2.4329412e-04,6.7153130e-05,-7.2495004e-03,-2.4328855e-02,6.7151593e-03
2.0000219e-02,-3.8484671e-05,-2.2444697e-05,2.2733473e-05,-2.3685010e-03,-2.7930173e-03,-2.3696543e-03,-9.8654622e-05,-2.3033739e-04,4.9455463e-05,-2.6157984e-03,1.2956741e-03,-1.7697684e-03
3.0000210e-02,5.0201184e-05,9.9064822e-06,3.9807979e-05,8.8671513e-03,3.2352411e-03,8.8699925e-03,-1.5947584e-04,-1.4590976e-04,1.0447058e-04,-6.0821281e-03,8.4427709e-03,5.5015166e-03
4.0000200e-02,7.5529016e-05,4.4986602e-05,1.4865372e-05,2.5321867e-03,3.5079830e-03,2.5334290e-03,-1.1941281e-04,-1.3211925e-04,7.1064354e-05,4.0063076e-03,1.3790525e-03,-3.3406254e-03
5.0000191e-02,8.8600301e-05,9.0191593e-05,1.4758644e-05,1.3064366e-03,4.5202469e-03,1.3087090e-03,-1.1842517e-04,-3.1445690e-04,1.2074926e-04,9.8763419e-05,-1.8233782e-02,4.9684952e-03
6.0000181e-02,7.4734396e-05,2.3674583e-04,9.1303246e-05,-1.3893886e-03,1.4657391e-02,-1.3629460e-03,-2.2027191e-04,-1.6428391e-03,3.1098478e-04,-1.0184684e-02,-1.3283835e-01,1.9023570e-02
7.0000172e-02,5.1302366e-05,-1.7301844e-04,-1.1523489e-04,-2.3470815e-03,-4.0982130e-02,-2.2379077e-03,8.6794422e-05,2.5617213e-03,-1.3645540e-04,3.0706663e-02,4.2045645e-01,-4.4744061e-02
8.0000162e-02,9.0082593e-05,-3.0227825e-04,-1.2542730e-04,3.8791180e-03,-1.2910590e-02,3.9279252e-03,7.8482229e-05,4.0256750e-03,-5.4323820e-04,-8.3122013e-04,1.4639551e-01,-4.0678319e-02
9.0000153e-02,1.1865455e-04,-2.5283090e-04,-1.1796291e-04,2.8586840e-03,4.9526579e-03,2.8419585e-03,1.1232254e-04,2.8917405e-03,-3.2549135e-04,3.3840341e-03,-1.1339356e-01,2.1774706e-02
1.0000014e-01,1.5737451e-04,9.0086720e-06,-6.5262382e-06,3.8653458e-03,2.6186199e-02,3.8636459e-03,-2.6234499e-04,3.1080814e-04,-5.5648509e-05,-3.7466789e-02,-2.5809348e-01,2.6984310e-02
1.1000013e-01,1.3346422e-04,1.3732568e-04,5.4725266e-05,-2.3944047e-03,1.2833432e-02,-2.3784004e-03,-2.6891986e-04,-9.9036952e-04,3.2392071e-05,-6.5748683e-04,-1.3011789e-01,8.8040664e-03
1.2000012e-01,7.0550336e-05,-1.7684227e-04,-5.4457019e-05,-6.2905105e-03,-3.1430625e-02,-6.2229853e-03,-1.3192609e-04,2.0732108e-03,-5.1842326e-04,1.3699389e-02,3.0635832e-01,-5.5081586e-02
1.3000011e-01,1.6149598e-05,2.3765699e-05,6.2277285e-05,-5.4403268e-03,2.0063625e-02,-5.4294637e-03,8.8907691e-06,-5.0787350e-04,-7.8338427e-05,1.4081700e-02,-2.5810868e-01,4.4008525e-02
1.4000010e-01,4.8857025e-05,-1.2841219e-04,-8.9144235e-05,3.2684769e-03,-1.5215127e-02,3.2854314e-03,1.7563309e-04,9.9161562e-04,-1.2349644e-04,1.6674248e-02,1.4994906e-01,-4.5158052e-03
1.5000010e-01,1.2173667e-04,-2.1701968e-04,-1.4706674e-04,7.2877553e-03,-8.8474705e-03,7.3043106e-03,1.5111965e-04,1.9721521e-03,-1.5414245e-04,-2.4513464e-03,9.8053745e-02,-3.0646043e-03
1.6000009e-01,9.7749978e-05,1.2189373e-05,1.0779536e-05,-2.4004444e-03,2.2920771e-02,-2.3983845e-03,-8.0339994e-05,-1.5485821e-05,2.8438743e-05,-2.3145987e-02,-1.9876399e-01,1.8258137e-02
1.7000008e-01,6.7380047e-05,6.1121662e-05,6.0673417e-05,-3.0377324e-03,4.8930458e-03,-3.0365621e-03,-2.3520639e-04,-1.7342074e-04,1.3646400e-04,-1.5486654e-02,-1.5793506e-02,1.0802536e-02
1.8000007e-01,3.7192350e-05,-2.1420813e-05,-1.1336373e-05,-3.0184760e-03,-8.2582043e-03,-3.0082503e-03,-4.9872222e-05,1.2605131e-03,-3.8129251e-05,1.8533434e-02,1.4339352e-01,-1.7459342e-02
1.9000006e-01,4.8327105e-06,1.7093952e-06,-3.4967179e-05,-3.2362733e-03,2.3097364e-03,-3.2380076e-03,-4.8263896e-05,9.6708890e-04,-6.0147584e-05,1.6083272e-04,-2.9342450e-02,-2.2018354e-03
2.0000005e-01,6.4626310e-06,-2.5376192e-04,-2.2339010e-04,1.5948311e-04,-2.5546523e-02,2.4501266e-04,1.3921127e-04,3.2124015e-03,-2.9064011e-04,1.8747535e-02,2.2453147e-01,-2.3049274e-02
2.1000004e-01,2.0231652e-05,-2.8900696e-04,-2.3341521e-04,1.3765876e-03,-3.5201936e-03,1.3882072e-03,1.9730882e-04,3.3167569e-03,-2.7570928e-04,5.8097606e-03,1.0435555e-02,1.4930837e-03
2.2000003e-01,3.4505128e-05,1.9463380e-05,8.8424531e-05,1.4284035e-03,3.0846405e-02,1.4404560e-03,5.3418694e-05,-4.0566376e-04,4.1554138e-04,-1.4389027e-02,-3.7224242e-01,6.9125132e-02
2.3000002e-01,7.2602888e-05,1.0404512e-04,1.2190054e-04,3.8083616e-03,8.4554945e-03,3.8171570e-03,-4.0279725e-05,-7.4499036e-04,2.8275914e-04,-9.3698508e-03,-3.3932693e-02,-1.3278236e-02
2.4000001e-01,4.3881884e-06,-3.2437966e-04,-1.1593351e-04,-6.8322215e-03,-4.2862803e-02,-6.6818721e-03,2.0726795e-04,3.2142301e-03,-2.7347878e-04,2.4754791e-02,3.9592242e-01,-5.5623845e-02
2.5000000e-01,3.2681736e-05,8.4952000e-05,3.2741445e-05,2.8269526e-03,4.0930110e-02,2.8761397e-03,-5.1347740e-05,-1.1355354e-03,1.0710978e-04,-2.5861593e-02,-4.3497697e-01,3.8058892e-02
2.6000023e-01,7.9831504e-05,1.2076963e-04,2.2482004e-05,4.7148153e-03,3.5765753e-03,4.7187964e-03,-6.0947721e-05,-1.1433086e-03,-3.4934469e-05,-9.5997615e-04,-7.7730361e-04,-1.4204100e-02
2.7000022e-01,9.7317631e-05,3.3222278e-05,6.2426354e-05,1.7502939e-03,-8.7544834e-03,1.7482345e-03,-1.2328080e-04,2.5245825e-05,-3.4333982e-04,-6.2333141e-03,1.1685556e-01,-3.0840565e-02
2.8000021e-01,9.5684849e-05,-1.0177114e-04,7.7844354e-06,-1.6241241e-04,-1.3499541e-02,-1.4799046e-04,-6.8408510e-05,1.1282489e-03,-3.5215477e-04,5.4872346e-03,1.1030042e-01,-8.8149611e-04
2.9000020e-01,1.1885520e-04,6.1832365e-05,8.3929646e-05,2.3153085e-03,1.6360423e-02,2.3183625e-03,-1.2670380e-04,-1.0204571e-04,-1.4863201e-04,-5.8295341e-03,-1.2302958e-01,2.0352296e-02
3.0000019e-01,1.3138758e-04,1.4755742e-04,6.9428111e-05,1.2518922e-03,8.5714934e-03,1.2615390e-03,-1.5210406e-04,-9.6313757e-04,3.4626918e-05,-2.5400289e-03,-8.6109269e-02,1.8325910e-02
3.1000018e-01,7.9889652e-05,3.5245145e-05,-3.2571891e-05,-5.1485289e-03,-1.1230199e-02,-5.1533314e-03,-1.0421402e-04,-3.0588170e-04,1.9090812e-05,4.7890087e-03,6.5725650e-02,-1.5536120e-03
3.2000017e-01,5.0766977e-05,-2.0497774e-04,-1.8490997e-04,-2.9170176e-03,-2.4026444e-02,-2.8731650e-03,1.9201226e-04,1.6221279e-03,-4.6312271e-05,2.9622656e-02,1.9280115e-01,-6.5403146e-03
3.3000016e-01,6.4329150e-05,-1.6123756e-04,-1.2855659e-04,1.3567936e-03,4.3757561e-03,1.3500367e-03,1.4658518e-04,1.4281719e-03,4.8727048e-05,-4.5427125e-03,-1.9395619e-02,9.5039410e-03
3.4000015e-01,9.8784465e-05,1.3230967e-04,1.0122580e-04,3.4454574e-03,2.9350649e-02,3.4803780e-03,2.2219024e-05,-1.1621965e-03,2.1173572e-04,-1.2436628e-02,-2.5903708e-01,1.6300883e-02
3.5000014e-01,4.7157391e-05,-5.3246269e-06,6.9538826e-05,-5.1642280e-03,-1.3762941e-02,-5.1625325e-03,1.2460186e-04,2.7547749e-05,3.8587661e-05,1.0238293e-02,1.1897453e-01,-1.7314823e-02
3.6000013e-01,7.6899056e-05,3.1995438e-05,2.6397337e-05,2.9738836e-03,3.7322574e-03,2.9741448e-03,-1.0338241e-04,-2.0217462e-05,-3.3656453e-05,-2.2798449e-02,-4.7765257e-03,-7.2244183e-03
3.7000012e-01,5.0405196e-05,4.1189706e-05,3.8203191e-05,-2.6493257e-03,9.1998943e-04,-2.6492565e-03,-1.4025297e-04,-3.5226966e-04,7.2393100e-05,-3.6870592e-03,-3.3205251e-02,1.0604965e-02
3.8000011e-01,4.8438789e-05,1.3608946e-04,9.5185814e-05,-1.9661715e-04,9.4902091e-03,-1.8549471e-04,-7.8317830e-07,-1.1777855e-03,1.5838936e-04,1.3946992e-02,-8.2551666e-02,8.5996343e-03
3.9000010e-01,3.5896993e-05,1.0942989e-04,6.8903238e-05,-1.2540762e-03,-2.6647545e-03,-1.2568426e-03,1.5987937e-05,-9.4341881e-04,1.1743482e-04,1.6771131e-03,2.3436694e-02,-4.0954583e-03
4.0000010e-01,-8.0864329e-06,-2.6647821e-04,-1.7523728e-04,-4.4077222e-03,-3.7601895e-02,-4.2932620e-03,2.2595490e-04,2.7716116e-03,-2.0047417e-04,2.0996716e-02,3.7150339e-01,-3.1790929e-02
4.1000009e-01,5.9815163e-05,-2.5818637e-04,-1.6825533e-04,6.7908491e-03,8.4825950e-04,6.7871263e-03,1.1641495e-04,2.9263490e-03,-8.6381269e-05,-1.0954005e-02,1.5473758e-02,1.1409301e-02
4.2000008e-01,7.9807467e-05,-2.2344866e-04,-1.8640235e-04,1.9996555e-03,3.4782953e-03,1.9909303e-03,1.5444276e-04,2.4210836e-03,5.6686260e-05,3.8027848e-03,-5.0526596e-02,1.4306766e-02
4.3000007e-01,5.7989992e-05,2.9988453e-05,2.4790964e-05,-2.1823244e-03,2.5344048e-02,-2.1775374e-03,-1.8362369e-05,-1.6188508e-04,-5.0154555e-05,-1.7280530e-02,-2.5829711e-01,-1.0684092e-02
4.4000006e-01,6.7615971e-05,4.0634575e-05,5.5780128e-05,9.6284110e-04,1.0648068e-03,9.6214235e-04,-1.2589064e-04,7.5302104e-05,-3.9095128e-04,-1.0752837e-02,2.3718741e-02,-3.4079705e-02
4.5000005e-01,6.7078917e-05,-1.8539607e-04,-4.7783833e-05,-4.9659877e-05,-2.2603158e-02,-4.1069635e-06,-1.8030704e-04,2.1931001e-03,-5.5615398e-04,-5.4416454e-03,2.1178000e-01,-1.6520286e-02
4.6000004e-01,1.1784857e-04,-3.9648563e-05,1.7930336e-05,5.0761180e-03,1.4580207e-02,5.0621727e-03,-2.2608067e-04,8.4749489e-04,-4.8131406e-04,-4.5773672e-03,-1.3456065e-01,7.4839999e-03
4.7000003e-01,1.0921341e-04,2.0030745e-05,1.0514408e-05,-8.6459292e-04,5.9678909e-03,-8.6275506e-04,-1.6310400e-04,-1.1049147e-04,-1.1868613e-04,6.2976731e-03,-9.5798727e-02,3.6262827e-02
4.8000002e-01,1.2940248e-04,1.4270009e-04,8.5131778e-05,2.0170995e-03,1.2265009e-02,2.0324419e-03,-1.3625049e-04,-1.0920080e-03,6.8464543e-05,2.6853535e-03,-9.8151747e-02,1.8715085e-02
4.9000001e-01,9.5122773e-05,1.4858016e-04,9.6429324e-05,-3.4276139e-03,5.9200258e-04,-3.4276464e-03,-5.6764454e-05,-1.2221311e-03,1.1475411e-04,7.9486112e-03,-1.3012320e-02,4.6289610e-03
5.0000000e-01,3.9357927e-05,-3.0726346e-06,2.0640707e-05,-5.5755773e-03,-1.5164951e-02,-5.5783363e-03,-1.6427000e-05,-7.8009980e-05,1.1896629e-04,4.0337492e-03,1.1441222e-01,4.2121830e-04
5.1000023e-01,-1.5950901e-05,-1.0140742e-04,-7.8376335e-05,-5.5304122e-03,-9.8395044e-03,-5.5199718e-03,6.1246610e-05,1.1926041e-03,1.7108285e-04,7.7671832e-03,1.2705850e-01,5.2115367e-03
5.2000022e-01,2.3500512e-05,-2.2126010e-04,-1.8586267e-04,3.9420893e-03,-1.1976479e-02,3.9748175e-03,2.4845517e-04,2.4700502e-03,1.9735293e-05,1.8720874e-02,1.2774473e-01,-1.5134770e-02
5.3000021e-01,4.7159041e-05,-5.3655423e-05,-1.2507951e-04,2.3683262e-03,1.6763314e-02,2.3432249e-03,1.4433041e-04,1.3470074e-03,-2.1993367e-05,-1.0412486e-02,-1.1230438e-01,-4.1728700e-03
5.4000020e-01,1.5191814e-05,-2.7359600e-04,-1.4787568e-04,-3.2015567e-03,-2.2004188e-02,-3.1214344e-03,1.7031226e-04,3.3731102e-03,-3.3950697e-04,2.5981884e-03,2.0261047e-01,-3.1751390e-02
5.5000019e-01,2.1653276e-05,-1.5651911e-04,-3.1872404e-05,6.4732346e-04,1.1709140e-02,6.1827636e-04,8.7939522e-05,2.3678127e-03,-2.2750831e-04,-8.2372821e-03,-1.0052984e-01,1.1199876e-02
5.6000018e-01,8.7725145e-05,1.3166152e-04,1.1783511e-04,6.6017484e-03,2.8812876e-02,6.6353155e-03,-1.4053021e-04,-9.2756620e-04,2.1108387e-04,-2.2846995e-02,-3.2953821e-01,4.3859260e-02
5.7000017e-01,1.2697691e-04,1.5282986e-04,6.7107815e-05,3.9246715e-03,2.1123582e-03,3.9280999e-03,-1.1412655e-04,-1.2542535e-03,6.8057704e-05,2.6403687e-03,-3.2668763e-02,-1.4302631e-02
5.8000016e-01,5.5366606e-05,-2.3764497e-04,-1.9730083e-04,-7.1661782e-03,-3.9060128e-02,-7.0867492e-03,9.4082216e-05,1.8646131e-03,-2.0492602e-04,2.0820896e-02,3.1188696e-01,-2.7298398e-02
5.9000015e-01,3.3153183e-05,-3.5223122e-04,-1.9786596e-04,-2.2244880e-03,-1.1465130e-02,-2.1843849e-03,1.6062986e-04,3.1107636e-03,-5.8677094e-04,6.6547703e-03,1.2461517e-01,-3.8184528e-02
6.0000014e-01,9.4109474e-05,2.2016614e-05,7.9132102e-05,6.0952764e-03,3.7422733e-02,6.1087881e-03,-3.3918250e-05,-3.7580122e-04,-1.4943276e-04,-1.9454829e-02,-3.4865682e-01,4.3733860e-02
6.1000013e-01,1.1108458e-04,8.6999412e-05,9.8681332e-05,1.6976740e-03,6.4963851e-03,1.7046115e-03,2.8529518e-05,-1.0890123e-03,1.3899922e-05,6.2447827e-03,-7.1321179e-02,1.6333283e-02
6.2000012e-01,9.8697583e-05,-7.6311746e-06,7.2419520e-05,-1.2401972e-03,-9.4629524e-03,-1.2380841e-03,1.1125082e-04,1.8249013e-05,-3.5813712e-04,8.2721384e-03,1.1072624e-01,-3.7203740e-02
6.3000011e-01,5.7817155e-05,-3.7177545e-04,-1.4936562e-04,-4.1035026e-03,-3.6426061e-02,-3.9674442e-03,3.5535954e-04,3.2421334e-03,-6.1561574e-04,2.4410895e-02,3.2238875e-01,-2.5747886e-02
6.4000010e-01,3.5352698e-05,-1.5558263e-04,-8.1583022e-05,-2.2409125e-03,2.1617486e-02,-2.2693360e-03,2.5346967e-04,1.0561696e-03,2.4635531e-05,-1.0188997e-02,-2.1859659e-01,6.4025188e-02
6.5000010e-01,2.0811381e-05,-2.8074639e-04,-1.4864451e-04,-1.4594978e-03,-1.2519380e-02,-1.4226531e-03,4.1765477e-04,2.5038495e-03,-9.4442444e-05,1.6418526e-02,1.4476812e-01,-1.1907809e-02
6.6000009e-01,-1.0192193e-06,-1.8945785e-04,-8.0665276e-05,-2.1791535e-03,9.1265008e-03,-2.1967971e-03,4.1035830e-04,1.4869336e-03,7.4355498e-05,-7.2964707e-04,-1.0169168e-01,1.6879810e-02
6.7000008e-01,6.7413440e-06,-2.1571684e-04,-1.0941360e-04,7.7478201e-04,-2.6249590e-03,7.8050739e-04,4.7836755e-04,1.6878019e-03,2.4261094e-05,6.8009310e-03,2.0086848e-02,-5.0094452e-03
6.8000007e-01,6.1641223e-06,-1.8401272e-04,-1.0429133e-04,-5.6311142e-05,3.1703564e-03,-6.2184844e-05,4.4436305e-04,1.4068915e-03,3.9227206e-05,-3.4004530e-03,-2.8091065e-02,1.4966127e-03
6.9000006e-01,4.4663263e-05,2.4118138e-05,1.1345151e-05,3.8508906e-03,2.0809909e-02,3.8661899e-03,6.8035317e-05,-7.6058968e-04,1.1509199e-04,-3.7632809e-02,-2.1674833e-01,7.5864860e-03
7.0000005e-01,4.1918715e-05,-2.0554861e-04,-1.0895660e-04,-2.7982085e-04,-2.2967080e-02,-2.3398180e-04,2.3114937e-04,1.7597115e-03,-2.0798810e-04,1.6311421e-02,2.5203036e-01,-3.2308040e-02
7.1000004e-01,7.3617765e-05,9.8881303e-06,8.0446602e-05,3.1742908e-03,2.1542635e-02,3.1727221e-03,1.8447782e-04,-1.4960897e-04,-1.2885178e-04,-4.6671598e-03,-1.9093223e-01,7.9136402e-03
7.2000003e-01,9.3354215e-05,4.2809060e-05,9.9361282e-05,1.9743912e-03,3.2911651e-03,1.9744549e-03,1.8524063e-04,-2.8639115e-04,-6.8164284e-05,7.6281495e-05,-1.3678231e-02,6.0687551e-03
7.3000002e-01,1.2925858e-04,1.2735464e-04,8.5894503e-05,3.5896319e-03,8.4502439e-03,3.6014053e-03,-3.8354930e-05,-1.2401371e-03,1.3465245e-04,-2.2359578e-02,-9.5374682e-02,2.0281693e-02
7.4000001e-01,1.1810883e-04,-2.1440804e-05,-3.8386209e-06,-1.1157451e-03,-1.4879399e-02,-1.1163377e-03,4.5741885e-05,-9.7437400e-05,-7.9175882e-05,8.4096895e-03,1.1427007e-01,-2.1382854e-02
7.5000000e-01,4.2144165e-05,-3.3415507e-04,-1.6350817e-04,-7.6105008e-03,-3.1290155e-02,-7.5048837e-03,3.1095812e-04,2.7902455e-03,-5.6670760e-04,2.6521649e-02,2.8876857e-01,-4.8753218e-02
7.6000023e-01,-1.5364457e-05,-1.3793677e-04,-6.8380013e-06,-5.7483776e-03,1.9621529e-02,-5.7525797e-03,2.7858535e-04,2.5284477e-04,-5.4155340e-04,-3.2372032e-03,-2.5373427e-01,2.5153620e-03
7.7000022e-01,8.2628919e-05,-6.4936750e-06,4.7259341e-05,9.8009393e-03,1.3132853e-02,9.8131219e-03,1.8441271e-04,-9.8521559e-04,8.4839017e-05,-9.4172724e-03,-1.2380615e-01,6.2639302e-02
7.8000021e-01,1.0347233e-04,-2.1474238e-06,6.2876678e-05,2.0839675e-03,4.3244202e-04,2.0851719e-03,1.1201662e-04,-9.3528176e-04,2.0334360e-04,-7.2396163e-03,4.9933884e-03,1.1850470e-02
7.9000020e-01,9.5337224e-05,-3.3641517e-04,-1.4700271e-04,-8.2376986e-04,-3.3428529e-02,-7.2792744e-04,3.0180830e-04,2.5551011e-03,-2.0961924e-04,1.8979186e-02,3.4903862e-01,-4.1296323e-02
8.0000019e-01,4.3355918e-05,-3.5540757e-04,-1.2296937e-04,-5.2006841e-03,-1.9116747e-03,-5.1910240e-03,4.2073959e-04,2.8149629e-03,-3.3670418e-04,1.1893140e-02,2.5986211e-02,-1.2708507e-02
8.1000018e-01,9.0311848e-06,-1.0094540e-04,2.2756289e-05,-3.4251237e-03,2.5447363e-02,-3.4315080e-03,2.8181213e-04,-4.5192032e-05,5.2948892e-05,-1.3892760e-02,-2.8601577e-01,3.8965345e-02
8.2000017e-01,6.4213617e-06,-6.7019675e-06,8.7222924e-05,-2.5950431e-04,9.4245583e-03,-2.5495762e-04,1.5230360e-04,-6.4380950e-04,1.6428750e-04,-1.2950865e-02,-5.9861804e-02,1.1133872e-02
8.3000016e-01,1.8384177e-05,-3.0859941e-05,4.0307205e-05,1.1956535e-03,-2.4165229e-03,1.1954507e-03,2.5137901e-04,-3.5337213e-04,1.8287504e-05,9.9075500e-03,2.9043765e-02,-1.4600014e-02
8.4000015e-01,5.8351251e-05,-4.1510739e-05,-7.6467889e-06,3.9963521e-03,-1.0661123e-03,3.9967952e-03,2.2002150e-04,-3.8072450e-05,3.1183224e-05,-3.1357533e-03,3.1529998e-02,1.2895732e-03
8.5000014e-01,4.1259498e-05,-2.3965570e-04,-1.5001334e-04,-1.7169447e-03,-1.9817376e-02,-1.6677209e-03,3.8126937e-04,2.0812770e-03,-1.2477044e-04,1.6124802e-02,2.1193515e-01,-1.5595381e-02
8.6000013e-01,7.9698201e-05,1.2066622e-04,8.7587959e-05,3.8451532e-03,3.6026510e-02,3.8958342e-03,7.6003862e-05,-1.4016500e-03,3.7958269e-04,-3.0526580e-02,-3.4829304e-01,5.0435361e-02
8.7000012e-01,2.7777495e-05,-3.9181258e-04,-1.8508302e-04,-5.2154727e-03,-5.1264210e-02,-5.0045137e-03,4.3586243e-04,3.6385998e-03,-2.0429547e-04,3.5985891e-02,5.0402546e-01,-5.8387872e-02
8.8000011e-01,-2.1172459e-05,-4.2877406e-04,-1.5829400e-04,-4.8989732e-03,-3.7109667e-03,-4.8797925e-03,5.2942686e-04,3.5623750e-03,-4.1214242e-04,9.3564518e-03,-7.6224853e-03,-2.0784715e-02
8.9000010e-01,5.2906864e-05,-4.0750244e-04,-1.6524175e-04,7.4139500e-03,2.1532547e-03,7.3943759e-03,4.0504553e-04,3.9321215e-03,-6.9539282e-04,-1.2438145e-02,3.6974690e-02,-2.8325067e-02
9.0000010e-01,9.1714927e-05,4.1799231e-05,3.4180684e-05,3.8853696e-03,4.4925955e-02,3.9252592e-03,1.0261772e-04,-9.8821240e-04,1.3113435e-05,-3.0242810e-02,-4.9203386e-01,7.0850693e-02
9.1000009e-01,1.0476598e-04,9.2424149e-05,6.9001195e-05,1.3054731e-03,5.0604492e-03,1.3126594e-03,9.0276665e-05,-1.4742232e-03,6.9611516e-05,-1.2341069e-03,-4.8601124e-02,5.6498135e-03
9.2000008e-01,6.9147010e-05,-2.6838271e-04,-7.8451300e-05,-3.5708504e-03,-3.6086427e-02,-3.4944933e-03,2.0842896e-04,1.8283950e-03,-4.0140391e-04,1.1815241e-02,3.3026213e-01,-4.7101588e-02
9.3000007e-01,-1.4723555e-05,-1.6102112e-04,1.7974216e-05,-8.3892427e-03,1.0732094e-02,-8.3901013e-03,6.8541452e-05,5.5445252e-04,-3.4751526e-04,-1.3988764e-02,-1.2739437e-01,5.3888704e-03
9.4000006e-01,8.0890858e-05,8.2359048e-06,5.2095037e-05,9.5668652e-03,1.6911558e-02,9.5810717e-03,2.9654526e-04,-1.1832702e-03,-4.1420625e-05,2.2800403e-02,-1.7377243e-01,3.0609493e-02
9.5000005e-01,1.1308481e-04,7.1730252e-05,3.9638537e-05,3.2204292e-03,6.3446346e-03,3.2278322e-03,1.8303476e-04,-1.3080595e-03,4.0871504e-05,-1.1351061e-02,-1.2478942e-02,8.2292208e-03
9.6000004e-01,8.1813543e-05,-2.8319726e-04,-1.5910744e-04,-3.1383312e-03,-3.5498717e-02,-3.0475715e-03,2.9369047e-04,2.2194030e-03,-2.4862024e-04,1.1065582e-02,3.5274659e-01,-2.8949202e-02
9.7000003e-01,2.4142126e-05,-3.0752544e-04,-1.2488707e-04,-5.7697040e-03,-2.4457590e-03,-5.7591114e-03,3.3193971e-04,2.5777348e-03,-3.0342170e-04,3.8249272e-03,3.5833207e-02,-5.4801507e-03
9.8000002e-01,2.4777899e-05,-7.0457370e-05,2.2179732e-05,6.7527056e-05,2.3706827e-02,6.0570880e-05,1.6697448e-04,1.2721510e-04,1.3822875e-04,-1.6496539e-02,-2.4505220e-01,4.4165087e-02
9.9000001e-01,2.2851458e-05,-1.3766835e-04,-6.6108995e-05,-1.9514467e-04,-6.7212745e-03,-1.8399382e-04,3.7534796e-04,1.2904299e-03,1.1620072e-04,2.0837368e-02,1.1632159e-01,-2.2028046e-03
1.0000000e+00,5.4702899e-05,-3.6536803e-04,-2.2985399e-04,3.1764666e-03,-2.2760095e-02,3.2635706e-03,4.1289538e-04,3.4764055e-03,-2.2650003e-04,3.7547461e-03,2.1859777e-01,-3.4270108e-02
1.0100002e+00,3.9623873e-05,-2.5612539e-04,-1.8423789e-04,-1.5047763e-03,1.0920920e-02,-1.5331484e-03,3.0644757e-04,2.3378598e-03,-1.6974327e-04,-1.0644538e-02,-1.1385197e-01,5.6755460e-03
1.0200002e+00,5.7029822e-05,-1.6522534e-04,-1.0687474e-04,1.7431208e-03,9.0923117e-03,1.7260106e-03,2.6460406e-04,1.5913438e-03,-6.8365934e-05,-4.1843553e-03,-7.4651665e-02,1.0137743e-02
1.0300002e+00,7.7224250e-05,-1.4539655e-04,-6.0316188e-05,2.0194936e-03,1.9854735e-03,2.0168462e-03,1.7278939e-04,1.4577886e-03,1.4543546e-04,-9.1814760e-03,-1.3355535e-02,2.1380160e-02
1.0400002e+00,9.8351646e-05,-2.4832311e-04,-8.5854095e-05,2.1102997e-03,-1.0289357e-02,2.1312140e-03,2.1848446e-04,1.7762274e-03,9.1382871e-05,4.5695114e-03,3.1843913e-02,-5.4052639e-03
1.0500002e+00,5.6701333e-05,-3.6711618e-04,-1.3267405e-04,-4.1700599e-03,-1.1889839e-02,-4.1298399e-03,3.2176837e-04,2.8602874e-03,-2.8874759e-04,1.0328401e-02,1.0840610e-01,-3.8013083e-02
1.0600002e+00,8.8550380e-05,-9.7914173e-06,2.1840136e-06,3.1917668e-03,3.5728484e-02,3.2229755e-03,1.9058928e-04,-1.0667888e-03,-1.5319218e-05,-1.3117922e-02,-3.9270799e-01,2.7342863e-02
1.0700002e+00,8.3119466e-05,-8.3010666e-05,-3.7033803e-05,-5.4431560e-04,-7.3217384e-03,-5.4447375e-04,1.5996186e-04,-1.9588402e-04,-9.6423110e-05,-3.0627445e-03,8.7090558e-02,-8.1103969e-03
1.0800002e+00,6.2477215e-05,-6.0999841e-06,4.5828909e-05,-2.0632499e-03,7.6928480e-03,-2.0585913e-03,1.9543271e-04,-6.6430664e-04,-2.5485904e-04,3.5470882e-03,-4.6842306e-02,-1.5843608e-02
1.0900002e+00,-6.5710707e-06,-8.8486901e-05,4.7803914e-05,-6.9104539e-03,-8.2394184e-03,-6.8983532e-03,2.4298527e-04,3.4738400e-04,-5.2399193e-04,4.7552610e-03,1.0116916e-01,-2.6913315e-02
1.1000001e+00,1.4488396e-06,-1.2687652e-04,2.3077574e-05,8.0120697e-04,-3.8387515e-03,8.0379895e-04,2.8104316e-04,5.4728358e-04,-3.6681112e-04,3.8057918e-03,1.9989978e-02,1.5718096e-02
1.1100001e+00,4.6072248e-05,-1.6551610e-04,-5.2462869e-05,4.4614423e-03,-3.8632066e-03,4.4639016e-03,2.7176166e-04,4.4095216e-04,-3.3045738e-05,-9.2815060e-04,-1.0633152e-02,3.3376570e-02
1.1200001e+00,4.1106087e-05,-4.2879568e-04,-2.5307647e-04,-5.1033625e-04,-2.6329042e-02,-4.2079935e-04,5.2058753e-04,2.8791400e-03,-2.7609954e-05,2.4882611e-02,2.4381902e-01,5.4357887e-04
1.1300001e+00,-1.6401522e-05,-3.6343174e-04,-1.9838466e-04,-5.7474559e-03,6.5268805e-03,-5.7648714e-03,6.3121125e-04,2.2838037e-03,-1.4200460e-04,1.1062382e-02,-5.9533693e-02,-1.1439475e-02
1.1400001e+00,-5.5329704e-05,-2.3386425e-04,-1.1896626e-04,-3.8863440e-03,1.2953673e-02,-3.9095375e-03,5.3150988e-04,1.3216857e-03,-1.0514145e-04,-9.9701465e-03,-9.6211892e-02,3.6863181e-03
1.1500001e+00,-2.2846508e-05,-1.7731108e-04,-4.0757351e-05,3.2502824e-03,5.6577557e-03,3.2421199e-03,4.1520138e-04,1.1653753e-03,1.1947131e-04,-1.1630861e-02,-1.5631048e-02,2.2461297e-02
1.1600001e+00,5.7583975e-05,-1.0711610e-04,-1.0943975e-05,8.0448073e-03,7.0228730e-03,8.0383626e-03,3.2339007e-04,7.4242365e-04,6.4438197e-05,-9.1811404e-03,-4.2295210e-02,-5.5033161e-03
1.1700001e+00,9.5931140e-05,8.9421516e-05,1.1767253e-04,3.8404287e-03,1.9646773e-02,3.8647973e-03,3.3191027e-04,-1.4891587e-03,2.1238548e-04,8.5202117e-04,-2.2315845e-01,1.4794742e-02
1.1800001e+00,8.0737408e-05,-5.1234572e-05,2.0556938e-05,-1.5244734e-03,-1.4064470e-02,-1.5249264e-03,3.6265148e-04,-3.9459539e-04,1.2873849e-06,3.0741243e-03,1.0945643e-01,-2.1109829e-02
1.1900001e+00,2.5799547e-05,-1.1714207e-04,-1.5911195e-06,-5.4972327e-03,-6.5870490e-03,-5.4947953e-03,4.1551149e-04,-2.5921862e-04,-1.2801988e-04,5.2860053e-03,1.3537690e-02,-1.2930739e-02
1.2000000e+00,5.8117448e-05,-1.5421245e-05,5.8110741e-05,3.2347306e-03,1.0167503e-02,3.2432758e-03,2.8349177e-04,-1.1344440e-03,-1.6668854e-05,-1.3201984e-02,-8.7522617e-02,1.1135114e-02
1.2100000e+00,7.4136750e-05,1.2146165e-05,6.9440701e-05,1.6025932e-03,2.7542643e-03,1.6055309e-03,3.0679156e-04,-1.2393985e-03,1.1500453e-04,2.3299815e-03,-1.0495465e-02,1.3167351e-02
1.2200000e+00,-2.8767871e-05,-4.9291237e-04,-2.0100832e-04,-1.0325759e-02,-5.0540287e-02,-1.0084234e-02,5.2929494e-04,3.9123353e-03,-8.3174598e-04,2.2250358e-02,5.1517387e-01,-9.4675141e-02
1.2300000e+00,5.8730630e-05,-9.4290747e-05,2.3921673e-05,8.7625033e-03,3.9859765e-02,8.7482978e-03,2.9572813e-04,1.7627923e-05,-9.7928030e-05,-2.3356703e-02,-3.8947111e-01,7.3381865e-02
1.2400000e+00,6.3616676e-05,-9.4165353e-06,5.7356778e-05,4.9097202e-04,8.4867920e-03,4.9722598e-04,2.8216642e-04,-1.0124670e-03,5.7125199e-05,-1.3561717e-03,-1.0300959e-01,1.5505338e-02
1.2500000e+00,5.8012532e-05,-5.6182148e-06,5.8255367e-05,-5.6028021e-04,3.8069761e-04,-5.5996246e-04,3.3357568e-04,-1.2108023e-03,1.4328594e-05,5.1409304e-03,-1.9833553e-02,-4.2796645e-03
1.2600002e+00,6.0039835e-05,-1.0771273e-04,2.4716813e-05,1.9928670e-04,-1.0209298e-02,2.0211144e-04,3.4458039e-04,-5.2552512e-05,-3.8971634e-04,1.1004465e-03,1.1582233e-01,-4.0403568e-02
1.2700002e+00,-3.6426468e-05,-3.9348276e-04,-1.6672447e-04,-9.6703277e-03,-2.8595667e-02,-9.5673700e-03,5.8313146e-04,2.5268564e-03,-7.2857137e-04,2.3855130e-02,2.5794114e-01,-3.3885536e-02
1.2800002e+00,7.1889531e-05,-2.1319931e-04,-9.3464972e-05,1.0844787e-02,1.8034060e-02,1.0808919e-02,5.9893595e-04,1.1264962e-03,-2.1979042e-04,1.5804497e-03,-1.4003615e-01,5.0878144e-02
1.2900002e+00,8.4267857e-05,5.0003454e-05,1.0063853e-04,1.2448189e-03,2.6318117e-02,1.2766585e-03,2.7533140e-04,-1.4651662e-03,2.1126121e-04,-3.2360485e-02,-2.5916648e-01,4.3105204e-02
1.3000002e+00,3.6380012e-05,-9.6918716e-05,4.9374342e-05,-4.7932475e-03,-1.4689100e-02,-4.7939302e-03,3.0548025e-04,-3.4796979e-04,6.1578188e-06,3.0148882e-03,1.1171974e-01,-2.0510359e-02
1.3100002e+00,2.2823868e-05,-1.4563745e-04,4.9021665e-06,-1.3577819e-03,-4.8709754e-03,-1.3566924e-03,4.4840886e-04,-2.1724768e-04,1.3522629e-05,1.4292874e-02,1.3072223e-02,7.3648177e-04
1.3200002e+00,1.9975454e-05,-2.4728325e-04,-9.8121215e-05,-2.9253673e-04,-1.0164634e-02,-2.7532544e-04,7.5296745e-04,9.3202531e-04,-1.4583872e-04,3.0455888e-02,1.1492741e-01,-1.5936150e-02
1.3300002e+00,3.4097866e-05,-1.6732533e-04,-8.0241619e-05,1.4176094e-03,7.9955773e-03,1.4081191e-03,6.6240680e-04,5.0687821e-04,-5.0000733e-05,-9.0560742e-03,-4.2514751e-02,9.5838077e-03
1.3400002e+00,2.3645554e-05,-7.6448186e-05,3.1204336e-05,-1.0413347e-03,9.0889190e-03,-1.0387054e-03,4.0172469e-04,-7.4517731e-04,2.3594858e-04,-2.6068235e-02,-1.2520567e-01,2.8594958e-02
1.3500001e+00,2.8164180e-05,-3.6866100e-04,-1.1928971e-04,4.3665947e-04,-2.9220147e-02,5.3442272e-04,5.2423487e-04,2.8291859e-03,-2.5539688e-04,1.2251029e-02,3.5743666e-01,-4.9134593e-02
1.3600001e+00,-7.0932843e-05,-4.2435295e-04,-1.0435708e-04,-9.9199663e-03,-5.5941326e-03,-9.8853787e-03,7.3630213e-04,3.2574365e-03,-6.2146553e-04,2.1206746e-02,4.2825106e-02,-3.6606900e-02
1.3700001e+00,-2.8062629e-05,-2.8489865e-04,-7.7737011e-05,4.2983548e-03,1.3952967e-02,4.2510530e-03,5.8555389e-04,2.3516000e-03,-7.3835597e-04,-1.5074839e-02,-9.0583739e-02,-1.1689055e-02
1.3800001e+00,9.7611517e-05,-6.0632933e-05,2.7994778e-05,1.2578405e-02,2.2421972e-02,1.2564689e-02,3.1974169e-04,-4.7879038e-05,-3.0304303e-04,-2.6581245e-02,-2.3994813e-01,4.3531336e-02
1.3900001e+00,8.3565439e-05,-7.6775160e-06,2.9309884e-05,-1.4031232e-03,5.2974306e-03,-1.3989796e-03,2.6650913e-04,-1.0769120e-03,5.3107306e-05,-5.3232611e-03,-1.0290340e-01,3.5615068e-02
1.4000001e+00,7.0706848e-05,-4.2698375e-05,4.4794165e-05,-1.2871511e-03,-3.5002373e-03,-1.2896059e-03,3.8117743e-04,-1.0572822e-03,3.4264341e-05,1.1466841e-02,1.9629884e-03,-1.8842983e-03
1.4100001e+00,-1.0204663e-05,-1.9892402e-04,1.8088340e-05,-8.1012792e-03,-1.5623536e-02,-8.0791767e-03,4.1737218e-04,5.3624582e-04,-4.4511287e-04,3.6194785e-03,1.5935295e-01,-4.7937767e-02
1.4200001e+00,7.0778515e-06,-1.3638587e-04,5.3421198e-06,1.7316210e-03,6.2524914e-03,1.7296926e-03,4.6232101e-04,-3.0664425e-04,-2.7597653e-04,4.4948875e-03,-8.4289088e-02,1.6913651e-02
1.4300001e+00,8.7886874e-05,-7.8046899e-06,3.1229726e-05,8.0861813e-03,1.2843514e-02,8.0988606e-03,4.6743872e-04,-1.3395698e-03,9.1340796e-05,5.1177183e-04,-1.0329266e-01,3.6731767e-02
1.4400001e+00,7.1035612e-05,-8.8134372e-06,3.0973166e-05,-1.6849971e-03,-9.7837936e-05,-1.6854375e-03,3.8732807e-04,-1.4146342e-03,1.0064889e-04,-8.0110731e-03,-7.5064421e-03,9.3081001e-04
1.4500000e+00,6.5372762e-05,-1.5286816e-04,-1.0852320e-05,-5.7183774e-04,-1.4405350e-02,-5.6416343e-04,3.8583187e-04,1.4772174e-04,1.0303870e-05,-1.4962054e-04,1.5623574e-01,-9.0345103e-03
1.4600000e+00,-3.6213298e-05,-1.7974690e-04,3.6976858e-05,-1.0164902e-02,-2.6870529e-03,-1.0152544e-02,5.2403776e-04,4.4323913e-04,-4.8040813e-04,1.3820602e-02,2.9551767e-02,-4.9071247e-02
1.4700000e+00,5.3075455e-05,-1.0786006e-04,2.5313428e-05,8.9319684e-03,7.1814441e-03,8.9316302e-03,5.1943394e-04,-2.9204911e-04,7.2607562e-05,-4.6038171e-04,-7.3528894e-02,5.5301622e-02
1.4800000e+00,4.2188209e-05,-1.0414801e-04,2.5445551e-06,-1.0883858e-03,3.7212734e-04,-1.0887507e-03,4.1254472e-04,-4.3421058e-04,1.7135426e-04,-1.0688932e-02,-1.4216161e-02,9.8746796e-03
1.4900000e+00,4.4561287e-05,-3.2658727e-04,-1.6677894e-04,2.2368422e-04,-2.2243462e-02,2.9011529e-04,6.1449105e-04,2.3759278e-03,-1.8941750e-04,2.0194652e-02,2.8101410e-01,-3.6077211e-02
1.5000000e+00,1.5095626e-05,-1.2035635e-04,-2.0469373e-06,-2.9385094e-03,2.0624508e-02,-2.9448408e-03,3.7268465e-04,-1.0184730e-04,1.2671663e-04,-2.4180663e-02,-2.4777774e-01,3.1613443e-02
1.5100002e+00,3.1514037e-05,-7.0119397e-05,1.5925977e-05,1.6445754e-03,5.0225836e-03,1.6420775e-03,5.6414839e-04,-4.2219654e-05,3.7655265e-05,1.9145935e-02,5.9626284e-03,-8.9059323e-03
1.5200002e+00,3.1248852e-05,-2.9217719e-04,-1.4699628e-04,-4.0696691e-05,-2.2205793e-02,1.0489719e-05,6.3848380e-04,1.6665845e-03,-8.1214200e-06,7.4335488e-03,1.7088057e-01,-4.5776729e-03
1.5300002e+00,7.2796063e-05,-1.0567169e-04,-3.9299850e-05,4.1600594e-03,1.8648986e-02,4.1564885e-03,3.1974675e-04,-6.0797346e-05,1.5134632e-04,-3.1873735e-02,-1.7273834e-01,1.5946789e-02
1.5400002e+00,9.2029751e-05,1.4601626e-05,2.2779111e-05,1.9254720e-03,1.2023694e-02,1.9439759e-03,2.2966800e-04,-1.6584785e-03,3.4354287e-04,-9.0078841e-03,-1.5976827e-01,1.9219674e-02
1.5500002e+00,7.7655994e-05,-1.6449746e-04,-9.0305932e-06,-1.4455619e-03,-1.7908978e-02,-1.4409632e-03,4.5854177e-04,-1.9870007e-04,1.9076834e-05,2.2887399e-02,1.4597798e-01,-3.2446635e-02
1.5600002e+00,3.0330886e-05,-2.1004662e-04,2.4818956e-05,-4.7373473e-03,-4.5572204e-03,-4.7254618e-03,3.2023021e-04,8.0704895e-04,-7.1311953e-04,-1.3831169e-02,1.0057500e-01,-7.3219706e-02
1.5700002e+00,6.0408295e-05,-1.8372309e-04,1.9727892e-05,3.0108516e-03,2.6335746e-03,3.0035643e-03,3.4773176e-04,7.5386237e-04,-7.2927758e-04,2.7501569e-03,-5.3186637e-03,-1.6158063e-03
1.5799692e+00,1.1752326e-04,-9.1330045e-05,5.1733067e-05,5.7345616e-03,9.2663205e-03,5.7267337e-03,3.2565144e-04,2.5737988e-05,-3.9886065e-04,-2.2148985e-03,-7.3038887e-02,3.3144454e-02
1.5899692e+00,1.0537769e-04,-1.1136749e-05,4.4409051e-05,-1.2124341e-03,8.0207768e-03,-1.2071510e-03,2.6531144e-04,-9.2297052e-04,-3.4508079e-06,-6.0340060e-03,-9.4870941e-02,3.9541021e-02
1.5999691e+00,1.0614914e-04,1.0528951e-06,5.7242381e-05,7.7554756e-05,1.2188483e-03,7.8574226e-05,3.4457036e-04,-1.1640889e-03,1.3305269e-04,7.9258998e-03,-2.4111865e-02,1.3650363e-02
1.6099691e+00,8.0964848e-06,-2.9251070e-04,-9.7499087e-05,-9.8277072e-03,-2.9361637e-02,-9.7670242e-03,7.3554468e-04,1.2742728e-03,-8.5875992e-05,3.9097469e-02,2.4383640e-01,-2.1892889e-02
1.6199691e+00,-4.1224873e-05,-3.0474489e-04,-9.9437986e-05,-4.9335417e-03,-1.2249097e-03,-4.9303691e-03,8.6909557e-04,1.1713952e-03,-6.8903398e-05,1.3355102e-02,-1.0287762e-02,1.6972610e-03
1.6299691e+00,-5.9860608e-05,-2.8402083e-04,-1.2862024e-04,-1.8620774e-03,2.0714768e-03,-1.8661067e-03,7.5983773e-04,1.2586790e-03,-4.1539785e-05,-1.0925795e-02,8.7283827e-03,2.7363639e-03
1.6399691e+00,-7.5469481e-07,-3.3996353e-04,-1.8725694e-04,5.9070813e-03,-5.5839875e-03,5.9238253e-03,7.0210078e-04,2.4398493e-03,-6.9979336e-05,-5.7737011e-03,1.1811715e-01,-2.8439577e-03
1.6499691e+00,3.2555245e-05,-1.9533242e-04,-1.0360613e-04,3.3394488e-03,1.4465321e-02,3.3129521e-03,5.9894916e-04,1.2622388e-03,6.3179851e-05,-1.0315172e-02,-1.1776116e-01,1.3315931e-02
1.6599691e+00,-6.0884296e-05,-5.1339352e-04,-2.0572324e-04,-9.3761104e-03,-3.1837822e-02,-9.2028004e-03,7.8849610e-04,4.2135107e-03,-7.5706252e-04,1.8954712e-02,2.9512747e-01,-8.2024315e-02
1.6699691e+00,8.9692766e-05,-7.9778263e-05,8.8160111e-05,1.5077769e-02,4.3362453e-02,1.5035090e-02,3.4715581e-04,4.0654648e-04,-3.3187134e-04,-4.4134071e-02,-3.8069679e-01,4.2519158e-02
1.6799691e+00,7.9134242e-05,-7.0049941e-06,1.1921483e-04,-1.0537504e-03,7.2788734e-03,-1.0473069e-03,2.8204356e-04,-1.1811756e-03,4.7806638e-05,-6.5112314e-03,-1.5877236e-01,3.7967834e-02
1.6899691e+00,1.0916408e-04,2.2359510e-05,9.5984769e-05,3.0038772e-03,2.9307012e-03,3.0077105e-03,2.8750543e-04,-1.6266060e-03,-1.5595890e-05,5.4618753e-04,-4.4543082e-02,-6.3402589e-03
1.6999691e+00,4.5104830e-05,-3.2195092e-04,-7.2700043e-05,-6.4278262e-03,-3.4439452e-02,-6.3386184e-03,4.9065777e-04,1.8090686e-03,-7.8119896e-04,2.0315253e-02,3.4356779e-01,-7.6560380e-02
1.7099690e+00,-1.3869124e-05,-5.0865982e-04,-2.6350315e-04,-5.9149607e-03,-1.8688279e-02,-5.8243386e-03,7.0059429e-04,3.6711838e-03,-7.6001172e-04,2.0993673e-02,1.8621169e-01,2.1187269e-03
1.7199690e+00,7.3294876e-05,-2.1794573e-05,2.4484461e-05,8.7379894e-03,4.8674388e-02,8.7627191e-03,4.6041482e-04,-9.3418660e-04,9.5675765e-05,-2.4017971e-02,-4.6053748e-01,8.5568830e-02
1.7299690e+00,5.2932101e-05,-7.8232913e-06,6.3200947e-05,-2.0355354e-03,1.4001079e-03,-2.0349771e-03,2.9780937e-04,-1.1651941e-03,1.6099549e-04,-1.6260560e-02,-2.3100769e-02,6.5319790e-03
1.7399690e+00,3.5050979e-05,-9.6192584e-05,2.6722721e-05,-1.7923888e-03,-8.8345839e-03,-1.7954500e-03,4.9980317e-04,-8.1423878e-04,7.9217303e-05,2.0199399e-02,3.5095562e-02,-8.1778267e-03
1.7499690e+00,-3.6165880e-05,-2.3538891e-04,-2.3067007e-05,-7.1347694e-03,-1.3917763e-02,-7.1122775e-03,6.8923593e-04,4.2570945e-04,-4.8939471e-04,1.8943294e-02,1.2399494e-01,-5.6861256e-02
1.7599692e+00,-3.0480613e-05,-4.4685739e-04,-1.6423738e-04,5.5319227e-04,-2.1144916e-02,6.3375177e-04,7.5135443e-04,3.1112402e-03,-9.9804108e-04,6.2117078e-03,2.6854693e-01,-5.0863472e-02
1.7699692e+00,1.0049913e-04,-5.4720327e-05,6.3176438e-05,1.3113751e-02,3.9207479e-02,1.3100969e-02,3.3450622e-04,-1.4367606e-04,-2.0218080e-04,-4.1684861e-02,-3.2549194e-01,7.9586104e-02
1.7799692e+00,5.9352970e-05,-1.1657889e-04,1.4076736e-05,-4.1167911e-03,-6.1852308e-03,-4.1133967e-03,2.9940134e-04,1.4604533e-04,-7.7672437e-05,-3.5104912e-03,2.8972167e-02,1.2450848e-02
1.7899692e+00,5.0310006e-05,2.6466530e-06,9.7263517e-05,-9.0027808e-04,1.1923855e-02,-8.9120872e-04,3.2787573e-04,-1.1069039e-03,1.2161921e-04,2.8474421e-03,-1.2529505e-01,1.9929184e-02
1.7999692e+00,1.4276630e-05,-2.8171106e-04,-2.0689009e-05,-3.6263791e-03,-2.8436667e-02,-3.5732439e-03,8.2252217e-04,1.0708429e-03,9.7071450e-05,4.9464691e-02,2.1777490e-01,-2.4547788e-03
1.8099692e+00,3.2979129e-05,-2.3004012e-04,-9.4013498e-05,1.8737660e-03,5.1675339e-03,1.8655244e-03,6.5319698e-04,8.8788351e-04,-7.4624119e-05,-1.6932535e-02,-1.8295960e-02,-1.7169573e-02
1.8199692e+00,3.9684396e-05,-4.4959682e-04,-1.3617133e-04,6.5892207e-04,-2.1953409e-02,7.5181994e-04,5.5028178e-04,3.7240626e-03,-7.1102480e-04,-1.0291530e-02,2.8361818e-01,-6.3640129e-02
1.8299341e+00,4.5550915e-05,-1.7076503e-04,-4.4168014e-06,6.0159224e-04,2.7981260e-02,5.7617321e-04,4.5833373e-04,4.4635285e-04,-8.8107709e-05,-9.2271528e-03,-3.2892408e-01,6.2510854e-02
1.8399341e+00,2.3992879e-05,-2.6394743e-04,-8.9222905e-05,-2.1607652e-03,-9.3205795e-03,-2.1407123e-03,5.5407849e-04,1.6415118e-03,9.4211336e-05,9.5744851e-03,1.1951601e-01,1.8231922e-02
1.8499341e+00,3.9066502e-05,-3.3173769e-04,-8.5316830e-05,1.5046564e-03,-6.7755521e-03,1.5256058e-03,4.8036150e-04,2.7723725e-03,-3.6440222e-04,-7.3717055e-03,1.1308618e-01,-4.5861400e-02
1.8599341e+00,2.5376654e-05,-1.6857704e-04,3.1233178e-05,-1.3643079e-03,1.6315339e-02,-1.3824240e-03,3.4140730e-04,8.7810502e-04,-6.5198803e-04,-1.3895433e-02,-1.8942693e-01,-2.8758608e-02
1.8699341e+00,1.3050386e-04,-6.8336345e-05,7.0233770e-05,1.0520927e-02,1.0020265e-02,1.0508165e-02,3.5847725e-04,-4.2867505e-06,-4.3806601e-04,1.7069959e-03,-8.8239261e-02,2.1392222e-02
1.8799341e+00,9.1918574e-05,-3.8206405e-05,6.8247223e-05,-3.8579606e-03,3.0186840e-03,-3.8546564e-03,3.4641080e-04,-1.1281877e-03,-1.2246838e-04,-1.2066462e-03,-1.1239020e-01,3.1559793e-02
1.8899341e+00,9.3718119e-05,-8.8700400e-05,7.7168516e-05,1.7871203e-04,-5.0495099e-03,1.7822134e-04,2.5848555e-04,-3.3094603e-04,-3.4800256e-04,-8.7925328e-03,7.9724242e-02,-2.2553440e-02
1.8999341e+00,-1.3307811e-05,-1.7678609e-04,1.6199511e-05,-1.0712153e-02,-8.8050311e-03,-1.0695964e-02,4.9917073e-04,1.6805463e-04,-4.8174251e-04,2.4068541e-02,4.9900113e-02,-1.3374008e-02
1.9099340e+00,-9.1368154e-05,-5.7308758e-04,-2.4144413e-04,-7.8485357e-03,-3.9652344e-02,-7.6493373e-03,8.9497282e-04,3.7751092e-03,-9.0087920e-04,3.9580247e-02,3.6070581e-01,-4.1913709e-02
1.9199340e+00,-5.2491898e-05,-4.8419601e-04,-1.9632285e-04,3.8972289e-03,8.8971020e-03,3.8597610e-03,8.7663394e-04,2.9303764e-03,-4.6531647e-04,-1.8338901e-03,-8.4473362e-02,4.3556315e-02
1.9299340e+00,-2.1334010e-05,-1.7035874e-04,-2.5658275e-05,3.1319438e-03,3.1381218e-02,3.1251573e-03,5.2728529e-04,-2.8576765e-04,1.2698340e-04,-3.4934898e-02,-3.2161471e-01,5.9230044e-02
1.9399340e+00,-1.5155272e-05,-3.8548336e-04,-1.6748673e-04,6.0082775e-04,-2.1511437e-02,6.6896838e-04,7.9513632e-04,2.3777777e-03,-9.5337601e-05,2.6785129e-02,2.6635479e-01,-2.2232122e-02
1.9499340e+00,3.2583233e-05,-2.5316482e-04,-8.7248620e-05,4.7834829e-03,1.3236191e-02,4.7521815e-03,6.9585470e-04,1.6059899e-03,-8.8317216e-05,-9.9281716e-03,-7.7178861e-02,7.0203919e-04
1.9599340e+00,5.6829602e-05,-2.8712157e-04,-8.9955887e-05,2.4231846e-03,-3.3917098e-03,2.4316390e-03,6.5877786e-04,2.2925427e-03,-3.2290532e-04,-3.7076874e-03,6.8655351e-02,-2.3458833e-02
1.9699340e+00,8.7155398e-05,-5.4360323e-05,1.1608939e-04,3.0403635e-03,2.3274353e-02,3.0385546e-03,3.1100805e-04,-2.7994245e-04,-1.7876820e-04,-3.4777014e-02,-2.5724876e-01,1.4413726e-02
1.9799340e+00,7.9466207e-05,-4.9658141e-05,7.1726352e-05,-7.6879170e-04,4.7105619e-04,-7.6853508e-04,3.5192558e-04,-7.3758080e-04,-4.8719126e-05,4.0917567e-03,-4.5763878e-02,1.3004920e-02
1.9899340e+00,7.4320041e-05,-8.7386556e-05,5.2486474e-05,-5.1582699e-04,-3.7726270e-03,-5.1500448e-04,2.8739092e-04,-1.3605515e-04,-2.4413902e-04,-6.4534716e-03,6.0152622e-02,-1.9542008e-02
1.9999340e+00,7.6703057e-06,-2.2587350e-04,-2.3665252e-05,-6.6748616e-03,-1.3848124e-02,-6.6562970e-03,5.9554160e-04,5.0880172e-04,-2.4539890e-04,3.0815097e-02,6.4485749e-02,-1.2598825e-04
2.0099342e+00,-5.2124968e-05,-5.4058286e-04,-2.0838899e-04,-6.0063888e-03,-3.1488603e-02,-5.8542197e-03,6.9744810e-04,3.8153463e-03,-8.4508721e-04,1.0190417e-02,3.3064689e-01,-5.9967458e-02
2.0199342e+00,5.2826884e-05,-3.8550409e-04,-1.6414486e-04,1.0509462e-02,1.5531200e-02,1.0446338e-02,6.4343772e-04,2.8718562e-03,-4.0894225e-04,-5.4010438e-03,-9.4349103e-02,4.3614538e-02
2.0299342e+00,5.0454697e-06,-9.8231404e-05,-3.3862980e-05,-4.7648026e-03,2.8733030e-02,-4.7569422e-03,4.1578919e-04,-7.8654662e-04,2.9263662e-04,-2.2764875e-02,-3.6584063e-01,7.0157954e-02
2.0399342e+00,-6.9462026e-06,-1.8379240e-04,-4.1427941e-05,-1.2036893e-03,-8.5554677e-03,-1.1992038e-03,5.3335167e-04,8.3035127e-07,3.5303278e-05,1.1756260e-02,7.8737773e-02,-2.5733359e-02
2.0499341e+00,-3.9553304e-05,-3.7444975e-04,-5.7764758e-05,-3.2709267e-03,-1.9070573e-02,-3.2220751e-03,4.3806187e-04,1.9284476e-03,-5.7112687e-04,-9.5289892e-03,1.9276191e-01,-6.0643072e-02
2.0599341e+00,3.0451023e-05,-2.1409160e-04,1.6530364e-05,7.0128086e-03,1.6037931e-02,6.9832259e-03,4.7080191e-04,7.7233992e-04,-6.8881212e-04,3.2740064e-03,-1.1561088e-01,-1.1768537e-02
2.0699341e+00,1.3136319e-04,-8.0213841e-05,6.9270672e-05,1.0100745e-02,1.3383611e-02,1.0087246e-02,3.6743943e-04,-4.6559562e-05,-4.5587738e-04,-1.0336258e-02,-8.1890026e-02,2.3293497e-02
2.0799341e+00,1.1743066e-04,-3.3522032e-05,8.8527630e-05,-1.3909234e-03,4.6712043e-03,-1.3888100e-03,5.2260720e-04,-9.2852335e-04,-7.7940481e-05,1.5516792e-02,-8.8196463e-02,3.7793725e-02
2.0899341e+00,1.1406889e-04,-2.4427642e-05,9.2474959e-05,-3.3586649e-04,9.0994852e-04,-3.3510841e-04,3.5442939e-04,-1.1606984e-03,-3.6432481e-05,-1.6817797e-02,-2.3217525e-02,4.1508039e-03
2.0999341e+00,9.6239248e-05,-4.6576208e-05,9.1450626e-05,-1.7841361e-03,-2.2114362e-03,-1.7860415e-03,5.8658678e-04,-1.3315309e-03,7.2365230e-05,2.3215761e-02,-1.7083271e-02,1.0879782e-02
2.1099341e+00,2.4282223e-05,-2.1170573e-04,-1.6863292e-05,-7.2088142e-03,-1.6505267e-02,-7.2002588e-03,7.7655489e-04,-2.9284089e-04,-3.9432322e-05,1.8996830e-02,1.0386910e-01,-1.1179766e-02
2.1199341e+00,-1.6426894e-05,-3.1298514e-04,-9.0631357e-05,-4.0803489e-03,-1.0129184e-02,-4.0583828e-03,8.6136429e-04,1.1672184e-03,-1.7465501e-04,8.4809480e-03,1.4600607e-01,-1.3522281e-02
2.1299341e+00,-2.4560269e-06,-4.0846825e-04,-1.7174008e-04,1.3901770e-03,-9.5455272e-03,1.4228295e-03,7.6292266e-04,2.7351303e-03,-2.6770859e-04,-9.8441720e-03,1.5679134e-01,-9.3053669e-03
2.1399159e+00,-1.5551034e-05,-5.2920927e-04,-2.4535046e-04,-1.3237097e-03,-1.2099926e-02,-1.2631739e-03,9.5761048e-04,4.0054058e-03,-1.8908161e-04,1.9504141e-02,1.2725827e-01,7.8769785e-03
2.1498618e+00,-1.2737378e-05,-3.8315127e-04,-1.6522949e-04,2.9438816e-04,1.4685830e-02,2.3999423e-04,7.7965817e-04,2.9184710e-03,-1.4799273e-04,-1.7892082e-02,-1.0928505e-01,4.1312504e-03
2.1598618e+00,3.6188428e-06,-2.5575394e-04,-7.8254100e-05,1.6444080e-03,1.2742055e-02,1.6085972e-03,6.5909442e-04,2.0907132e-03,-2.3721475e-04,-1.2056386e-02,-8.2775860e-02,-8.9222102e-03
2.1698618e+00,3.5484469e-05,-2.0968130e-04,-5.8674348e-05,3.1904231e-03,4.6086019e-03,3.1807722e-03,7.9319027e-04,1.2132788e-03,-6.4025998e-05,1.3409598e-02,-8.7743528e-02,1.7318891e-02
2.1798618e+00,6.0972839e-05,-1.0858446e-05,5.8037834e-05,2.5606858e-03,1.9877531e-02,2.5740694e-03,5.9347570e-04,-1.2715382e-03,-1.8455972e-05,-1.9971477e-02,-2.4848194e-01,4.5570069e-03
2.1898618e+00,5.5335816e-05,-2.3444962e-04,-7.6374031e-05,-5.7352965e-04,-2.2359297e-02,-5.4728093e-04,4.3173448e-04,7.2656042e-04,-3.0809994e-04,-1.6174137e-02,1.9981006e-01,-2.8964425e-02
2.1998618e+00,2.6687026e-05,-1.7791775e-04,4.6158084e-05,-2.8652410e-03,5.6520323e-03,-2.8668121e-03,2.7384361e-04,6.7893311e-04,-6.6601344e-04,-1.5789102e-02,-4.7627350e-03,-3.5791384e-02
2.2098618e+00,1.0753439e-04,2.7529934e-05,9.2988339e-05,8.0902364e-03,2.0523279e-02,8.1337306e-03,4.0107924e-04,-2.2519099e-03,3.3975742e-04,1.2723574e-02,-2.9308458e-01,1.0057718e-01
2.2198617e+00,7.4399405e-05,2.1132504e-06,4.7290157e-05,-3.3132468e-03,-2.5329771e-03,-3.3204068e-03,4.3250189e-04,-2.1884216e-03,4.0854151e-04,3.1422679e-03,6.3488379e-03,6.8784153e-03
2.2298617e+00,-5.6445600e-06,-4.7995282e-04,-2.3944043e-04,-8.0497470e-03,-4.8215750e-02,-7.9035011e-03,9.1598806e-04,2.0682808e-03,-1.4862592e-04,4.8348664e-02,4.2567064e-01,-5.5716796e-02
2.2398617e+00,-2.4411738e-05,-5.4093101e-04,-2.1281366e-04,-1.8835972e-03,-6.1015388e-03,-1.8576623e-03,9.7587641e-04,2.9720696e-03,-4.9453265e-04,5.9888407e-03,9.0378963e-02,-3.4590706e-02
2.2498617e+00,5.2863147e-05,-6.7473564e-05,4.3284667e-05,7.7620844e-03,4.7329908e-02,7.7898651e-03,7.4603185e-04,-1.3021088e-03,9.4554111e-05,-2.2984477e-02,-4.2741824e-01,5.8908732e-02
2.2598619e+00,3.1242605e-05,-1.4725793e-04,-4.2713061e-06,-2.1675474e-03,-7.9764265e-03,-2.1631955e-03,6.8016376e-04,-1.6395557e-04,-5.3976622e-05,-6.5866586e-03,1.1381272e-01,-1.4852733e-02
2.2698619e+00,3.8992619e-06,-2.8487401e-04,-8.9384973e-05,-2.7446449e-03,-1.3763939e-02,-2.7122560e-03,7.1496059e-04,1.5702450e-03,-1.7179462e-04,3.4796861e-03,1.7342022e-01,-1.1781811e-02
2.2798619e+00,-4.8703200e-08,-2.2855207e-04,-5.5823733e-05,-3.9045448e-04,5.6320732e-03,-4.0086286e-04,7.5710104e-04,1.0632765e-03,1.9794651e-04,4.2140495e-03,-5.0696896e-02,3.6974148e-02
2.2898619e+00,3.7434706e-05,-2.2928757e-04,-5.6817910e-05,3.7480951e-03,-7.1123475e-05,3.7486407e-03,6.1747125e-04,1.2647793e-03,5.4229220e-05,-1.3962993e-02,2.0150300e-02,-1.4371743e-02
2.2998619e+00,2.5981090e-05,-2.9233910e-04,-9.1608885e-05,-1.1501277e-03,-6.3059582e-03,-1.1361505e-03,7.5453359e-04,1.4598179e-03,-6.8247698e-06,1.3706247e-02,1.9503874e-02,-6.1054048e-03
2.3098619e+00,1.4193211e-05,-2.7538770e-04,-5.0346021e-06,-1.1783930e-03,1.6940809e-03,-1.1807081e-03,5.6330730e-04,1.4619407e-03,-4.7436517e-04,-1.9122647e-02,2.1228257e-04,-4.6754085e-02
2.3198619e+00,-4.7523287e-06,-4.3409504e-04,-1.3898405e-04,-1.9067289e-03,-1.5874353e-02,-1.8516668e-03,7.2789745e-04,2.6628019e-03,-3.2802571e-04,1.6459031e-02,1.2008623e-01,1.4633959e-02
2.3298619e+00,2.3451472e-05,-4.6319338e-04,-2.0604964e-04,2.8179911e-03,-2.9050211e-03,2.8277278e-03,8.4726181e-04,2.5509599e-03,-2.6526619e-05,1.1936447e-02,-1.1184214e-02,3.0149938e-02
2.3398619e+00,9.3793848e-05,-1.9824930e-05,5.1997220e-05,7.0537000e-03,4.4321219e-02,7.1130608e-03,4.9011163e-04,-1.7266210e-03,3.2316495e-04,-3.5715052e-02,-4.2775850e-01,3.4969191e-02
2.3498619e+00,6.4200647e-05,-2.3232815e-04,4.0783721e-06,-2.9717245e-03,-2.1251603e-02,-2.9377660e-03,4.9518708e-04,9.2563735e-04,-6.3515724e-04,5.0754456e-04,2.6522609e-01,-9.5832311e-02
2.3598619e+00,5.2947834e-05,-2.0642962e-04,3.6012577e-05,-1.1247601e-03,2.5895671e-03,-1.1264667e-03,5.0999176e-04,7.6548519e-04,-7.0996200e-04,1.4804695e-03,-1.6015232e-02,-7.4804829e-03
2.3698618e+00,7.8352947e-05,-1.1700631e-04,8.5550605e-05,2.5459608e-03,8.9404017e-03,2.5418806e-03,4.7706914e-04,-2.8528347e-04,-4.6509079e-04,-3.2922647e-03,-1.0507697e-01,2.4487144e-02
2.3798618e+00,1.0198909e-04,-6.9213157e-05,7.9424229e-05,2.3656062e-03,4.7767671e-03,2.3667856e-03,2.9409341e-04,-7.8559001e-04,-2.4708473e-04,-1.8297590e-02,-5.0030702e-02,2.1800627e-02
2.3898618e+00,5.4146042e-05,-1.2414400e-04,6.1276711e-05,-4.7888138e-03,-5.4870292e-03,-4.7867571e-03,6.5208703e-04,-6.1430356e-04,-1.9298968e-04,3.5799396e-02,1.7128661e-02,5.4095096e-03
2.3998618e+00,-7.5386439e-05,-4.7379261e-04,-1.3579311e-04,-1.2996072e-02,-3.4989706e-02,-1.2842911e-02,9.3736857e-04,2.8673415e-03,-7.7556135e-04,2.8528181e-02,3.4816484e-01,-5.8257223e-02
2.4098618e+00,-1.1351962e-04,-5.7369721e-04,-2.1387884e-04,-3.8264448e-03,-9.9991768e-03,-3.7771837e-03,1.0139422e-03,3.3156400e-03,-7.8573079e-04,7.6573714e-03,4.4829888e-02,-1.0169443e-03
2.4198618e+00,-3.9217016e-05,-3.0217906e-04,-9.1655307e-05,7.4500858e-03,2.7154654e-02,7.4000825e-03,7.4767718e-04,1.1295294e-03,6.4694739e-05,-2.6626528e-02,-2.1861127e-01,8.5042634e-02
2.4298618e+00,-3.4042718e-05,-5.7474236e-04,-2.6208581e-04,4.8891521e-04,-2.7254720e-02,6.2096415e-04,1.0505275e-03,3.8027152e-03,-2.2964087e-04,3.0285059e-02,2.6731884e-01,-2.9433589e-02
2.4398618e+00,8.6997365e-06,-4.0990736e-04,-1.9198849e-04,4.2911485e-03,1.6489121e-02,4.2355222e-03,1.0130301e-03,2.3370147e-03,-4.7452887e-05,-3.7497446e-03,-1.4657019e-01,1.8218816e-02
2.4498618e+00,8.2350295e-05,-2.6998263e-04,-9.2328708e-05,7.3755561e-03,1.3996076e-02,7.3477223e-03,8.8347848e-04,1.3729710e-03,2.5332877e-04,-1.2955172e-02,-9.6404455e-02,3.0078195e-02
2.4598618e+00,4.9125542e-05,-1.7975928e-04,3.8584420e-05,-3.3153134e-03,9.0241626e-03,-3.3246931e-03,6.4360980e-04,9.5298915e-05,4.0851118e-04,-2.3986891e-02,-1.2776733e-01,1.5518255e-02
2.4698617e+00,-2.9081638e-05,-8.8133179e-05,1.1760053e-04,-7.8137533e-03,9.1700504e-03,-7.8189846e-03,4.3164587e-04,-5.1861745e-04,3.8563254e-04,-2.1196414e-02,-6.1391696e-02,-2.2878657e-03
2.4798515e+00,-2.2579647e-04,-5.4390244e-06,1.8162703e-04,-1.9674784e-02,8.3326408e-03,-1.9685505e-02,7.5625303e-04,-2.0230323e-03,5.4020526e-04,3.2494060e-02,-1.5059602e-01,1.5473149e-02
2.4898515e+00,-5.9128333e-04,-1.8913302e-04,1.5517562e-04,-3.6557386e-02,-1.8276663e-02,-3.6586534e-02,1.0304805e-03,-1.5060819e-03,2.8023883e-04,2.7422774e-02,5.1695093e-02,-2.5996667e-02
2.4998515e+00,-8.2654532e-04,-3.2445628e-04,1.2262013e-04,-2.3541013e-02,-1.3492667e-02,-2.3534210e-02,1.2207349e-03,-4.6504844e-04,7.2686714e-05,1.9025462e-02,1.0410344e-01,-2.0755232e-02
2.5098517e+00,-1.1793064e-03,-2.9773805e-04,9.9487999e-05,-3.5260728e-02,2.7671749e-03,-3.5282510e-02,1.3622082e-03,-1.3423050e-03,3.0890623e-04,1.4147001e-02,-8.7723651e-02,2.3621411e-02
2.5198517e+00,-1.5623355e-03,-4.3001973e-04,1.1376942e-04,-3.8315106e-02,-1.3139634e-02,-3.8321258e-02,1.5845268e-03,-7.2655930e-04,2.2846804e-04,2.2231880e-02,6.1574631e-02,-8.0438272e-03
2.5298517e+00,-2.0338356e-03,-7.7559553e-04,-1.0956958e-06,-4.7223877e-02,-3.4552731e-02,-4.7079715e-02,1.6524169e-03,1.5513108e-03,-3.5586062e-04,6.7890148e-03,2.2778723e-01,-5.8432921e-02
2.5398517e+00,-2.4260904e-03,-9.0696672e-04,5.4557818e-05,-3.9245006e-02,-1.3109971e-02,-3.9215101e-02,1.8816041e-03,1.1898584e-03,1.3145464e-04,2.2918741e-02,-3.6145280e-02,4.8731572e-02
2.5498517e+00,-2.8462788e-03,-1.1055165e-03,1.8174705e-05,-4.2064718e-02,-1.9820670e-02,-4.1989210e-02,2.5528047e-03,1.7379714e-03,1.1208934e-04,6.7120130e-02,5.4811352e-02,-1.9365314e-03
2.5598516e+00,-3.4123997e-03,-1.3151025e-03,8.0439690e-05,-5.6679741e-02,-2.0976256e-02,-5.6537926e-02,2.8351024e-03,3.1503111e-03,-1.4849734e-04,2.8229798e-02,1.4123411e-01,-2.6058693e-02
2.5698516e+00,-4.0095109e-03,-1.3592209e-03,1.5474895e-04,-5.9718297e-02,-4.3465870e-03,-5.9708845e-02,3.1793764e-03,2.0868677e-03,1.1063065e-04,3.4427429e-02,-1.0634444e-01,2.5912824e-02
2.5798516e+00,-4.6735841e-03,-1.4786488e-03,2.5637872e-04,-6.6453158e-02,-1.1775888e-02,-6.6391404e-02,3.5833565e-03,1.0712128e-03,-5.1251943e-05,4.0398053e-02,-1.0156559e-01,-1.6188275e-02
2.5898516e+00,-5.5516910e-03,-2.1832448e-03,2.1591461e-05,-8.8304041e-02,-7.0459560e-02,-8.7314805e-02,4.9827504e-03,5.0096388e-03,-1.6330226e-03,1.3993952e-01,3.9384298e-01,-1.5817722e-01
2.5998516e+00,-6.1472797e-03,-2.4902959e-03,-9.8024625e-05,-5.9856679e-02,-3.0716135e-02,-5.9253987e-02,5.6646434e-03,5.8788226e-03,-2.0971095e-03,6.8189369e-02,8.6918461e-02,-4.6408732e-02
2.6098516e+00,-6.5146794e-03,-2.3441315e-03,-8.1184838e-06,-3.6718994e-02,1.4663906e-02,-3.6742084e-02,5.5410495e-03,4.2465674e-03,-1.6494362e-03,-1.2359404e-02,-1.6322568e-01,4.4767377e-02
2.6198516e+00,-6.8230178e-03,-2.2788821e-03,2.0224326e-05,-3.0823482e-02,6.6267212e-03,-3.0822557e-02,5.9502236e-03,2.6476187e-03,-9.4029159e-04,4.0917456e-02,-1.5989502e-01,7.0914526e-02
2.6298516e+00,-7.1832260e-03,-2.4384004e-03,6.7454870e-05,-3.6126545e-02,-1.5817292e-02,-3.5974326e-02,6.4924893e-03,2.7680492e-03,-7.9938037e-05,5.4226613e-02,1.2043062e-02,8.6035437e-02
2.6398516e+00,-7.7390132e-03,-2.7050439e-03,6.0397079e-06,-5.5787969e-02,-2.6513649e-02,-5.5441097e-02,6.9719814e-03,4.2780247e-03,-4.4370300e-04,4.7949264e-02,1.5099769e-01,-3.6376531e-02
2.6498516e+00,-8.4068513e-03,-2.9349202e-03,1.8514820e-05,-6.6934077e-02,-2.2821559e-02,-6.6690403e-02,7.4072218e-03,4.9322907e-03,2.7305542e-04,4.3524082e-02,6.5426659e-02,7.1675910e-02
2.6598516e+00,-9.2296891e-03,-3.0244630e-03,7.4825813e-05,-8.2340413e-02,-8.6762294e-03,-8.2257071e-02,7.4423780e-03,4.0665393e-03,9.4890202e-05,3.5156230e-03,-8.6575217e-02,-1.7816539e-02
2.6698515e+00,-1.0280714e-02,-3.3305982e-03,6.3111514e-05,-1.0545745e-01,-3.0147499e-02,-1.0488170e-01,8.5245788e-03,4.1070031e-03,-9.2974038e-04,1.0822018e-01,4.0463793e-03,-1.0246316e-01
2.6798515e+00,-1.0941094e-02,-3.3852372e-03,2.3477971e-04,-6.6123520e-02,-5.0592854e-03,-6.5984680e-02,8.9388977e-03,2.8170463e-03,-5.9525644e-04,4.1431929e-02,-1.2899580e-01,3.3448426e-02
2.6898515e+00,-1.1724226e-02,-3.8769922e-03,1.7069309e-04,-7.8857239e-02,-4.8834007e-02,-7.7980508e-02,9.8250634e-03,5.5080248e-03,-8.2474015e-04,8.8616656e-02,2.6909811e-01,-2.2948393e-02
2.6998515e+00,-1.2352246e-02,-4.1043380e-03,1.7058466e-04,-6.3041532e-02,-2.2432038e-02,-6.2670706e-02,1.0572515e-02,5.7809698e-03,-4.2493585e-05,7.4745267e-02,2.7294524e-02,7.8224731e-02
2.7098515e+00,-1.3110095e-02,-4.3326451e-03,1.1859779e-04,-7.6046317e-02,-2.2388209e-02,-7.5655119e-02,1.1201668e-02,5.3860425e-03,-1.3653657e-04,6.2915329e-02,-3.9492769e-02,-9.4043072e-03
2.7198515e+00,-1.4048965e-02,-4.3603446e-03,2.1572746e-04,-9.3881901e-02,-1.9902880e-03,-9.3912053e-02,1.1495360e-02,3.1918297e-03,3.2835100e-04,2.9369263e-02,-2.1942149e-01,4.6488801e-02
2.7298515e+00,-1.5284933e-02,-4.5771650e-03,2.6351833e-04,-1.2392583e-01,-2.0481947e-02,-1.2347221e-01,1.2245006e-02,2.5499826e-03,-5.8829845e-04,7.4964611e-02,-6.4184771e-02,-9.1665032e-02
2.7398515e+00,-1.6338782e-02,-4.9204458e-03,3.1313837e-04,-1.0593584e-01,-3.3163882e-02,-1.0520528e-01,1.3471092e-02,2.4561220e-03,-9.3062188e-04,1.2260878e-01,-9.3860721e-03,-3.4232375e-02
2.7498515e+00,-1.7318974e-02,-5.4069908e-03,2.6193441e-04,-9.8840109e-02,-4.7500374e-02,-9.7760948e-02,1.4866716e-02,3.1519308e-03,-1.1052242e-03,1.3956246e-01,6.9580950e-02,-1.7460253e-02
2.7598517e+00,-1.7865542e-02,-5.5265120e-03,4.1319836e-04,-5.4807990e-02,-1.1179201e-02,-5.4666224e-02,1.5574896e-02,1.4636087e-03,4.9365110e-04,7.0816409e-02,-1.6882834e-01,1.5988388e-01
2.7698517e+00,-1.8605322e-02,-5.9290300e-03,3.5281326e-04,-7.4540169e-02,-3.9210001e-02,-7.3973541e-02,1.6479852e-02,2.4685405e-03,1.2327991e-03,9.0495719e-02,1.0049327e-01,7.3914872e-02
2.7798517e+00,-1.9410079e-02,-6.0840462e-03,2.9320491e-04,-8.0592003e-02,-1.4482548e-02,-8.0549131e-02,1.6304288e-02,3.6613322e-03,1.5611625e-03,-1.7556461e-02,1.1927929e-01,3.2836372e-02
2.7898517e+00,-2.0466734e-02,-6.2735456e-03,4.4757114e-04,-1.0581495e-01,-1.7485518e-02,-1.0576869e-01,1.6573410e-02,2.7348577e-03,1.4208694e-03,2.6912227e-02,-9.2647535e-02,-1.4029330e-02
2.7998517e+00,-2.1775690e-02,-6.7480864e-03,5.0457006e-04,-1.3156374e-01,-4.5604096e-02,-1.3088352e-01,1.7623821e-02,3.5436940e-03,1.1291346e-03,1.0504124e-01,8.0883708e-02,-2.9173504e-02
2.8098516e+00,-2.3263782e-02,-7.4070315e-03,3.3271706e-04,-1.5011068e-01,-6.3885319e-02,-1.4837792e-01,1.9125708e-02,5.7129262e-03,-4.5915055e-04,1.5018886e-01,2.1692343e-01,-1.5882867e-01
2.8198516e+00,-2.4545425e-02,-7.5168000e-03,3.6429440e-04,-1.2842231e-01,-8.7888271e-03,-1.2807491e-01,1.9803248e-02,2.7483439e-03,-5.1260216e-04,6.7754037e-02,-2.9645851e-01,-5.3451656e-03
2.8298516e+00,-2.5821331e-02,-8.3651077e-03,3.6623868e-05,-1.2955811e-01,-8.2962941e-02,-1.2683414e-01,2.1339325e-02,6.8746831e-03,-1.4616569e-03,1.5360782e-01,4.1263431e-01,-9.4905565e-02
2.8398516e+00,-2.6693611e-02,-8.8870593e-03,7.1761374e-05,-8.8485561e-02,-5.1035908e-02,-8.6645679e-02,2.2263285e-02,9.1559775e-03,-1.3434928e-03,9.2396079e-02,2.2812966e-01,1.1816424e-02
2.8498516e+00,-2.7456063e-02,-9.2962008e-03,1.7160716e-04,-7.7207450e-02,-3.9856912e-02,-7.5835859e-02,2.3513600e-02,9.8206894e-03,-2.7997540e-04,1.2503165e-01,6.6471252e-02,1.0635184e-01
2.8598516e+00,-2.8307626e-02,-9.0819598e-03,4.4097918e-04,-8.4506621e-02,2.2900795e-02,-8.5419037e-02,2.3696052e-02,6.2685028e-03,1.3880169e-03,1.8245240e-02,-3.5521900e-01,1.6679939e-01
2.8698516e+00,-2.9465384e-02,-9.2536831e-03,4.8179899e-04,-1.1596585e-01,-1.4956003e-02,-1.1589323e-01,2.4106619e-02,4.9972849e-03,1.6425729e-03,4.1056735e-02,-1.2712191e-01,2.5455624e-02
2.8798516e+00,-3.0913462e-02,-9.5412656e-03,4.5041038e-04,-1.4539762e-01,-2.5590954e-02,-1.4481136e-01,2.5368948e-02,3.5563582e-03,6.4322864e-04,1.2623303e-01,-1.4409281e-01,-9.9934524e-02
2.8898516e+00,-3.2386228e-02,-1.0114141e-02,4.9569564e-04,-1.4883639e-01,-5.3717594e-02,-1.4705417e-01,2.7526261e-02,3.4331483e-03,-2.6260197e-04,2.1573149e-01,-1.2321002e-02,-9.0583146e-02
2.8998516e+00,-3.3558526e-02,-1.0700024e-02,5.8472306e-04,-1.1890492e-01,-5.5701964e-02,-1.1694949e-01,2.8833649e-02,4.4219305e-03,-2.9610585e-04,1.3073894e-01,9.8878316e-02,-3.3503920e-03
2.9098516e+00,-3.4457744e-02,-1.1154821e-02,6.9425502e-04,-9.1098875e-02,-4.3190708e-02,-8.9865831e-02,2.9810455e-02,4.5720665e-03,1.5406683e-03,9.7680655e-02,1.5013612e-02,1.8367759e-01
2.9198515e+00,-3.5429257e-02,-1.1398966e-02,7.1135636e-04,-9.7627164e-02,-2.1975502e-02,-9.7256805e-02,3.0124341e-02,5.1204922e-03,2.2163233e-03,3.1388597e-02,5.4842622e-02,6.7565568e-02
2.9298515e+00,-3.6885345e-02,-1.1537631e-02,6.1231281e-04,-1.4560191e-01,-9.6383537e-03,-1.4595678e-01,3.1120287e-02,2.1183773e-03,2.5239083e-03,9.9594765e-02,-3.0021177e-01,3.0758528e-02
2.9398515e+00,-3.8334003e-02,-1.1972043e-02,6.6494664e-04,-1.4578729e-01,-3.8972477e-02,-1.4521240e-01,3.2582110e-02,1.8828186e-03,2.8738749e-03,1.4618240e-01,-2.3555892e-02,3.4996688e-02
2.9498515e+00,-4.0240149e-02,-1.2571871e-02,5.8154457e-04,-1.9217973e-01,-5.3932061e-02,-1.9085125e-01,3.4262599e-02,2.6927647e-03,1.9806849e-03,1.6804901e-01,8.0994687e-02,-8.9319085e-02
2.9598515e+00,-4.2111742e-02,-1.3344440e-02,6.9710430e-04,-1.8980053e-01,-7.1491545e-02,-1.8679063e-01,3.5668357e-02,5.1232899e-03,-2.6750503e-05,1.4057600e-01,2.4305275e-01,-2.0074373e-01
2.9698515e+00,-4.3852263e-02,-1.3947177e-02,7.6073753e-04,-1.7620869e-01,-5.4010734e-02,-1.7393857e-01,3.8530616e-02,2.7951469e-03,2.0780490e-04,2.8622611e-01,-2.3281452e-01,2.3455563e-02
2.9798515e+00,-4.5509519e-02,-1.4925307e-02,5.9360295e-04,-1.6964016e-01,-9.2172653e-02,-1.6499655e-01,4.0162042e-02,6.6096315e-03,-7.2876706e-04,1.6314276e-01,3.8144882e-01,-9.3657286e-02
2.9898515e+00,-4.6632308e-02,-1.5170105e-02,7.1904685e-04,-1.1311311e-01,-2.0396529e-02,-1.1225783e-01,4.1530425e-02,5.3371931e-03,7.6074486e-04,1.3683849e-01,-1.2724396e-01,1.4895133e-01
2.9998515e+00,-4.7898578e-02,-1.5206125e-02,8.2646144e-04,-1.2637926e-01,1.1714284e-03,-1.2692016e-01,4.1302269e-02,3.6098262e-03,2.2763512e-03,-2.2815647e-02,-1.7273685e-01,1.5156077e-01
3.0098517e+00,-4.9470682e-02,-1.5671985e-02,7.9327388e-04,-1.5866302e-01,-4.0410003e-02,-1.5745222e-01,4.2521375e-02,3.4904491e-03,2.4267013e-03,1.2190786e-01,-1.1937433e-02,1.5034668e-02
3.0198517e+00,-5.1294270e-02,-1.6309413e-02,8.4503626e-04,-1.8456851e-01,-5.6284937e-02,-1.8259031e-01,4.4371645e-02,3.7973899e-03,2.4013525e-03,1.8502709e-01,3.0694112e-02,-2.5348778e-03
3.0298517e+00,-5.3551589e-02,-1.7108301e-02,8.6870473e-04,-2.2888276e-01,-7.0061327e-02,-2.2582352e-01,4.7079624e-02,3.9137002e-03,1.5887856e-03,2.7079818e-01,1.1631033e-02,-8.1256771e-02
3.0398517e+00,-5.5668023e-02,-1.8092735e-02,7.3931899e-04,-2.1618792e-01,-8.9013154e-02,-2.1122648e-01,4.9328895e-02,5.3216945e-03,2.4763406e-04,2.2492733e-01,1.4079957e-01,-1.3411528e-01
3.0498517e+00,-5.7499775e-02,-1.8738045e-02,8.9368570e-04,-1.8602545e-01,-5.5963381e-02,-1.8312110e-01,5.0793099e-02,4.4511391e-03,1.0368863e-03,1.4642055e-01,-8.7055620e-02,7.8925302e-02
3.0598516e+00,-5.9216882e-02,-1.9351163e-02,9.4283694e-04,-1.7465061e-01,-5.3039923e-02,-1.7150015e-01,5.2638974e-02,4.9377530e-03,2.8119244e-04,1.8458764e-01,4.8661434e-02,-7.5569462e-02
3.0698516e+00,-6.1060988e-02,-2.0194722e-02,7.7938024e-04,-1.8858627e-01,-7.5118109e-02,-1.8418216e-01,5.4865293e-02,5.4328618e-03,9.3705158e-04,2.2263213e-01,4.9510924e-02,6.5585977e-02
3.0798516e+00,-6.2823321e-02,-2.0657859e-02,7.8753728e-04,-1.7840780e-01,-3.7296420e-02,-1.7618484e-01,5.6476157e-02,5.6963105e-03,9.0160681e-04,1.6108661e-01,2.6344901e-02,-3.5444795e-03
3.0898516e+00,-6.4451723e-02,-2.0708250e-02,9.5622448e-04,-1.6251945e-01,3.8344682e-03,-1.6319330e-01,5.6727112e-02,2.2493177e-03,2.1141039e-03,2.5095527e-02,-3.4469962e-01,1.2124983e-01
3.0998516e+00,-6.6324046e-02,-2.1391800e-02,1.0250995e-03,-1.9052985e-01,-5.8058756e-02,-1.8738188e-01,5.8129231e-02,3.7159383e-03,1.9079121e-03,1.4021204e-01,1.4666220e-01,-2.0619199e-02
3.1098516e+00,-6.8456077e-02,-2.2380148e-02,1.1643689e-03,-2.1828472e-01,-8.6337981e-02,-2.1348818e-01,6.0920939e-02,3.1219851e-03,2.5318289e-03,2.7917101e-01,-5.9395369e-02,6.2391735e-02
3.1198516e+00,-7.0516214e-02,-2.3308905e-02,1.1127032e-03,-2.1109869e-01,-8.0854594e-02,-2.0593506e-01,6.3041266e-02,5.5397666e-03,1.7318881e-03,2.1203289e-01,2.4177838e-01,-7.9994159e-02
3.1298516e+00,-7.2489740e-02,-2.3845655e-02,1.1270588e-03,-2.0010283e-01,-4.1829303e-02,-1.9744967e-01,6.4423296e-02,4.9148754e-03,1.4988492e-03,1.3820316e-01,-6.2489176e-02,-2.3303907e-02
3.1398516e+00,-7.4457455e-02,-2.4344268e-02,1.1909654e-03,-1.9923677e-01,-3.7114739e-02,-1.9710799e-01,6.6321545e-02,2.0473696e-03,2.0651468e-03,1.8982511e-01,-2.8675086e-01,5.6629812e-02
3.1498516e+00,-7.6579794e-02,-2.4967735e-02,1.2012648e-03,-2.1562767e-01,-4.8235779e-02,-2.1248956e-01,6.7764412e-02,1.8962874e-03,1.6056049e-03,1.4428685e-01,-1.5108229e-02,-4.5954240e-02
3.1598217e+00,-7.8646447e-02,-2.5907627e-02,1.2922813e-03,-2.1304061e-01,-7.9640937e-02,-2.0758263e-01,7.0712924e-02,1.2123077e-03,1.8562710e-03,2.9573279e-01,-6.8602490e-02,2.5141567e-02
3.1698217e+00,-8.0547845e-02,-2.6844511e-02,1.5324827e-03,-1.9603681e-01,-8.0134187e-02,-1.9034720e-01,7.2632229e-02,2.5774840e-03,2.1051134e-03,1.9193067e-01,1.3651777e-01,2.4884267e-02
3.1798217e+00,-8.2659442e-02,-2.7778919e-02,1.4448491e-03,-2.1702067e-01,-7.8520605e-02,-2.1129296e-01,7.4110994e-02,4.5922163e-03,2.2620872e-03,1.4787664e-01,2.0147342e-01,1.5697395e-02
