time, x, y, z, vx, vy, vz, yaw, pitch, roll, yaw_rate, pitch_rate, roll_rate
0.0000000e+00,0.0000000e+00,0.0000000e+00,0.0000000e+00,0.0000000e+00,0.0000000e+00,0.0000000e+00,0.0000000e+00,0.0000000e+00,0.0000000e+00,0.0000000e+00,0.0000000e+00,0.0000000e+00
9.9999905e-03,-6.3785198e-06,-1.0118297e-05,-4.4834058e-06,-6.3802909e-04,-1.0117195e-03,-6.3785238e-04,1.2057796e-04,-5.3678380e-05,-8.5451723e-05,1.2057807e-02,-5.3678432e-03,-8.5451805e-03
2.0000219e-02,-5.5765098e-06,1.4137539e-04,9.2565429e-05,7.3306878e-05,1.5148931e-02,1.0130357e-04,-4.5531276e-04,-1.3934406e-03,-6.5693513e-05,-5.7587754e-02,-1.3397315e-01,1.9757758e-03
3.0000210e-02,1.6025130e-05,1.5034491e-04,8.5999634e-05,2.1600744e-03,8.9359566e-04,2.1616485e-03,-2.9981451e-04,-1.8533679e-03,-8.2130791e-05,1.5549840e-02,-4.5992773e-02,-1.6437293e-03
4.0000200e-02,-6.0576643e-06,1.3078048e-04,1.0531848e-04,-2.2072157e-03,-1.9543167e-03,-2.2112297e-03,-4.4186232e-04,-1.4045829e-03,9.1079344e-05,-1.4204795e-02,4.4878537e-02,1.7321030e-02
5.0000191e-02,-7.7881373e-05,9.8977511e-05,-4.5095019e-05,-7.1895151e-03,-3.1852252e-03,-7.1730482e-03,-6.7509883e-04,1.0740482e-05,-1.2937359e-03,-2.3323673e-02,1.4153248e-01,-1.3848165e-01
6.0000181e-02,-6.2519833e-05,6.7782710e-05,-6.2401931e-05,1.5402225e-03,-3.1182072e-03,1.5346726e-03,-6.8028751e-04,1.4994969e-04,-1.2671387e-03,-5.1886802e-04,1.3920934e-02,2.6597174e-03
7.0000172e-02,-8.4441740e-05,2.9587345e-05,-8.9189955e-05,-2.1928467e-03,-3.8217230e-03,-2.1877297e-03,-6.3128010e-04,3.6545353e-04,-1.3993991e-03,4.9007455e-03,2.1550404e-02,-1.3226049e-02
8.0000162e-02,8.3965172e-05,1.2118886e-04,-8.9939506e-05,1.6868851e-02,9.2032653e-03,1.6788959e-02,-1.5490054e-03,1.0140626e-03,-2.5180812e-03,-9.1772620e-02,6.4860967e-02,-1.1186832e-01
9.0000153e-02,-2.9880843e-05,1.6189737e-04,-9.6634384e-05,-1.1404528e-02,4.0730636e-03,-1.1363870e-02,-5.3276157e-04,-7.2807571e-04,-1.5602271e-03,1.0162448e-01,-1.7421399e-01,9.5785493e-02
1.0000014e-01,2.6099603e-05,1.4795943e-04,-1.1091639e-05,5.6008676e-03,-1.3975031e-03,5.5943057e-03,-4.2433725e-04,-1.0873640e-03,-3.9785791e-04,1.0842443e-02,-3.5928860e-02,1.1623703e-01
1.1000013e-01,1.6225379e-05,9.4794434e-05,6.4000527e-05,-9.8675441e-04,-5.3153941e-03,-9.9405065e-04,-1.5310897e-04,-1.2739420e-03,-1.4695096e-04,2.7122853e-02,-1.8657818e-02,2.5090719e-02
1.2000012e-01,1.5256328e-05,4.3136698e-05,8.7365750e-05,-9.6730069e-05,-5.1656497e-03,-1.0371109e-04,-3.4607838e-05,-1.3182217e-03,-3.7756703e-05,1.1850125e-02,-4.4279730e-03,1.0919436e-02
1.3000011e-01,3.8644979e-05,-1.4742249e-05,3.5757225e-05,2.3390557e-03,-5.7912244e-03,2.3304351e-03,6.7602931e-05,-1.3563049e-03,-2.4787624e-04,1.0221087e-02,-3.8083267e-03,-2.1011974e-02
1.4000010e-01,-5.5292138e-06,-3.0174693e-05,2.3241657e-05,-4.4184582e-03,-1.5386763e-03,-4.4179826e-03,-6.5899386e-05,-1.1003904e-03,-2.5729225e-04,-1.3350244e-02,2.5591476e-02,-9.4160147e-04
1.5000010e-01,-1.1815244e-04,-2.9068209e-05,-6.0243454e-05,-1.1278352e-02,1.1003708e-04,-1.1246298e-02,-3.1849018e-04,-2.6457854e-04,-1.4202433e-03,-2.5259104e-02,8.3581263e-02,-1.1629522e-01
1.6000009e-01,-8.1499888e-05,-6.8881623e-05,-2.1118819e-05,3.6662006e-03,-3.9849986e-03,3.6603424e-03,5.0307232e-04,-4.9437703e-04,-8.0397361e-04,8.2156329e-02,-2.2979872e-02,6.1627027e-02
1.7000008e-01,-1.8333958e-04,-1.4305183e-04,-4.5332827e-05,-1.0193999e-02,-7.4259161e-03,-1.0167463e-02,4.8249838e-05,9.2220321e-04,-9.4922963e-04,-4.5482292e-02,1.4165816e-01,-1.4525616e-02
1.8000007e-01,-1.2552549e-04,-4.7941171e-05,2.2552125e-05,5.7857705e-03,9.5076032e-03,5.7827671e-03,-1.0447161e-04,-7.0521385e-04,-9.2574870e-04,-1.5272160e-02,-1.6274186e-01,2.3480947e-03
1.9000006e-01,-5.0865228e-05,-4.9550491e-05,-3.5224584e-05,7.4831976e-03,-1.3936126e-04,7.4492647e-03,-1.3462309e-03,1.5464493e-03,-2.2734263e-03,-1.2417605e-01,2.2516653e-01,-1.3476788e-01
2.0000005e-01,-1.4120432e-04,-4.7536977e-06,-5.2268735e-05,-9.0465179e-03,4.4825673e-03,-9.0198677e-03,-1.5720529e-04,-4.7709672e-04,-1.3176764e-03,1.1890268e-01,-2.0235480e-01,9.5575073e-02
2.1000004e-01,-1.3880086e-04,2.2105392e-05,-5.0406653e-05,2.4007091e-04,2.6858673e-03,2.4111359e-04,-2.3055038e-04,-4.1358814e-04,-1.4319154e-03,-7.3345159e-03,6.3508645e-03,-1.1423905e-02
2.2000003e-01,-3.4954856e-05,7.0247780e-05,2.3421464e-05,1.0387875e-02,4.7969058e-03,1.0389367e-02,1.3572025e-04,-1.5336668e-03,-2.5146878e-04,3.6627098e-02,-1.1200798e-01,1.1804477e-01
2.3000002e-01,-2.4019744e-05,1.1091177e-04,1.2234232e-05,1.0930603e-03,4.0652079e-03,1.0983949e-03,-2.0306869e-04,-1.2927843e-03,-3.4191935e-04,-3.3878927e-02,2.4088282e-02,-9.0450657e-03
2.4000001e-01,-6.7978716e-06,5.5543817e-05,3.7559933e-06,1.7242037e-03,-5.5381846e-03,1.7157095e-03,-2.3022656e-04,-1.0363243e-03,-4.2983619e-04,-2.7157899e-03,2.5646020e-02,-8.7916927e-03
2.5000000e-01,-4.7804556e-06,2.1188897e-07,7.3721510e-05,2.0177564e-04,-5.5334340e-03,1.9512712e-04,-4.2965725e-06,-1.1936050e-03,-4.9928007e-05,2.2593021e-02,-1.5728086e-02,3.7990855e-02
2.5999999e-01,-5.8845655e-06,2.1741629e-05,1.4751617e-05,-1.1046721e-04,2.1531244e-03,-1.0742186e-04,-1.4818372e-05,-1.3771208e-03,-2.1932480e-04,-1.0521810e-03,-1.8351593e-02,-1.6939695e-02
2.7000022e-01,1.3868540e-05,7.5178053e-05,-6.5895875e-05,1.9757915e-03,5.3407592e-03,1.9821938e-03,-6.6757930e-05,-1.4622221e-03,-4.4703663e-04,-5.1938370e-03,-8.5099372e-03,-2.2770662e-02
2.8000021e-01,-1.0310408e-04,9.3251968e-05,-1.0640325e-04,-1.1711962e-02,1.8194266e-03,-1.1680699e-02,-8.1502867e-05,-1.1117101e-03,-1.2438979e-03,-1.4744950e-03,3.5051235e-02,-7.9686202e-02
2.8997540e-01,-1.3527749e-04,-4.3585863e-05,-6.4380507e-05,-3.2264119e-03,-1.3717696e-02,-3.2247539e-03,-2.4250287e-04,-2.7789783e-04,-1.3644284e-03,-1.6140036e-02,8.3588566e-02,-1.2083019e-02
2.9997540e-01,-1.7352516e-04,-1.4554843e-04,-4.9733251e-05,-3.8286456e-03,-1.0199967e-02,-3.8110039e-03,-8.5484260e-05,8.8406836e-04,-1.2417051e-03,1.5701876e-02,1.1619673e-01,1.2272336e-02
3.0997539e-01,-1.9215955e-04,-1.6852878e-04,-5.5316647e-05,-1.8658005e-03,-2.2996943e-03,-1.8590302e-03,-7.8982569e-05,8.1186105e-04,-1.3645914e-03,6.5016969e-04,-7.2207386e-03,-1.2288645e-02
3.1997538e-01,-6.0557811e-05,-4.1001887e-05,-2.0231914e-06,1.3159621e-02,1.2745350e-02,1.3167872e-02,-2.3579053e-04,-7.9421025e-04,-1.8556610e-04,-1.5680811e-02,-1.6060728e-01,1.1790265e-01
3.2997537e-01,5.3158943e-05,2.7561755e-06,7.4721215e-05,1.1370877e-02,4.3474422e-03,1.1383370e-02,2.3145279e-04,-2.2618254e-03,1.6014388e-04,4.6724376e-02,-1.4676165e-01,3.4571031e-02
3.3997536e-01,-1.3096120e-05,-6.7873819e-05,1.2708066e-04,-6.6258229e-03,-7.0546237e-03,-6.6341273e-03,3.9019005e-04,-8.7418408e-04,3.6896939e-04,1.5873741e-02,1.3876426e-01,2.0882571e-02
3.4997535e-01,-7.7488525e-06,4.1181479e-05,8.8874138e-05,5.3559597e-04,1.0904882e-02,5.4714431e-04,8.2220980e-05,-1.1360756e-03,5.2207651e-05,-3.0796937e-02,-2.6189175e-02,-3.1676204e-02
3.5997534e-01,-7.3475431e-05,5.6290109e-05,-5.9196551e-05,-6.5833845e-03,1.5094445e-03,-6.5622529e-03,-5.1431279e-04,-2.9877642e-04,-1.5141171e-03,-5.9653433e-02,8.3729995e-02,-1.5663262e-01
3.6997533e-01,-6.9719719e-05,5.0217515e-05,-7.6061654e-05,3.7644575e-04,-6.0707135e-04,3.7500073e-04,-5.3131635e-04,-2.9401181e-05,-1.4699087e-03,-1.7003579e-03,2.6937550e-02,4.4208424e-03
3.7997532e-01,-6.3994570e-05,2.1609845e-05,-6.0894670e-05,5.7374580e-04,-2.8609194e-03,5.7053260e-04,-1.5849863e-04,-4.2093295e-04,-1.3580010e-03,3.7281807e-02,-3.9153214e-02,1.1190784e-02
3.8997531e-01,-3.8371015e-05,1.5288295e-05,-6.4523071e-05,2.5656407e-03,-6.3358461e-04,2.5587175e-03,-5.1494833e-05,-6.1001411e-04,-1.2692673e-03,1.0700390e-02,-1.8908135e-02,8.8733805e-03
3.9997530e-01,-5.5099268e-05,2.2997451e-05,-7.1014916e-05,-1.6750886e-03,7.7145438e-04,-1.6703137e-03,-1.0993438e-04,-4.3218869e-04,-1.3022331e-03,-5.8439607e-03,1.7782559e-02,-3.2965824e-03
4.0997529e-01,-3.7333188e-05,1.2742626e-04,-5.1266314e-05,1.7785319e-03,1.0441171e-02,1.7847774e-03,6.5975952e-06,-9.5986205e-04,-1.0436767e-03,1.1653209e-02,-5.2767386e-02,2.5855659e-02
4.1997528e-01,6.2612510e-05,1.0825007e-04,-6.0215475e-05,1.0001052e-02,-1.9193996e-03,9.9877609e-03,-6.2146350e-04,-7.9991136e-04,-5.2870630e-04,-6.2806169e-02,1.5995084e-02,5.1497091e-02
4.2997527e-01,1.9729977e-05,-8.8826294e-06,3.4176676e-05,-4.2880186e-03,-1.1710573e-02,-4.2958834e-03,-8.0504694e-05,-7.1125089e-04,-1.6423496e-04,5.4095932e-02,8.8660550e-03,3.6447169e-02
4.3997526e-01,3.9539828e-05,1.7693184e-05,3.2335379e-05,1.9813088e-03,2.6557811e-03,1.9830817e-03,-4.4626118e-05,-9.5424577e-04,-2.2235422e-04,3.5878610e-03,-2.4299511e-02,-5.8119320e-03
4.4997525e-01,6.8331715e-05,4.3970534e-05,-1.7970162e-05,2.8805313e-03,2.6237789e-03,2.8814606e-03,-8.9089561e-05,-1.4638215e-03,-5.4681925e-04,-4.4463486e-03,-5.0957625e-02,-3.2446534e-02
4.5997524e-01,-3.4353073e-06,-4.5577218e-06,9.8371931e-05,-7.1766356e-03,-4.8440095e-03,-7.1827392e-03,-8.9506278e-05,-1.3180663e-03,-5.0281862e-05,-4.1671771e-05,1.4575540e-02,4.9653786e-02
4.6997523e-01,2.1170573e-05,-5.5875324e-05,1.2970891e-04,2.4595643e-03,-5.1353669e-03,2.4540932e-03,1.4101048e-04,-1.3244910e-03,1.2292137e-04,2.3051697e-02,-6.4247403e-04,1.7320340e-02
4.7997522e-01,-8.7963030e-05,-2.6305897e-05,-8.6771641e-06,-1.0927781e-02,2.9549650e-03,-1.0899479e-02,-3.1220891e-04,-1.3091514e-04,-1.2366176e-03,-4.5321982e-02,1.1935770e-01,-1.3595403e-01
4.8997521e-01,-1.1229949e-04,-6.0499041e-05,-5.9956185e-05,-2.4358964e-03,-3.4207647e-03,-2.4293615e-03,-2.9527430e-04,2.9984218e-04,-1.3396459e-03,1.6934632e-03,4.3075773e-02,-1.0302832e-02
4.9997520e-01,-8.9903879e-05,5.8254243e-05,-6.4153528e-05,2.2330593e-03,1.1876545e-02,2.2396648e-03,-8.0698688e-04,-2.6716787e-04,-1.3763310e-03,-5.1171307e-02,-5.6701059e-02,-3.6685218e-03
5.0997519e-01,-1.1476620e-04,-1.1810286e-04,-4.1335840e-05,-2.4919479e-03,-1.7635743e-02,-2.4803983e-03,1.7093047e-04,1.7748478e-04,-1.0863637e-03,9.7791828e-02,4.4465307e-02,2.8996758e-02
5.1997542e-01,-1.2678877e-04,-2.2700783e-05,-3.9609444e-06,-1.2055173e-03,9.5400533e-03,-1.1984297e-03,-2.0568833e-04,-2.5915566e-04,-1.1024867e-03,-3.7661018e-02,-4.3663044e-02,-1.6122640e-03
5.2997541e-01,-6.5274860e-05,8.0171124e-05,-3.6978066e-05,6.1562345e-03,1.0284823e-02,6.1505331e-03,-2.5406935e-04,-6.4089607e-04,-1.2120230e-03,-4.8381066e-03,-3.8174078e-02,-1.0953633e-02
5.3997540e-01,7.9194771e-06,1.1794380e-05,2.1302838e-05,7.3204085e-03,-6.8458027e-03,7.3108761e-03,4.7326142e-05,-1.0629985e-03,-1.7645892e-04,3.0139578e-02,-4.2210279e-02,1.0355650e-01
5.4997540e-01,7.3231916e-06,-2.4844274e-05,9.1576539e-05,-6.1025566e-05,-3.6637969e-03,-6.2561814e-05,3.8257511e-04,-7.9926039e-04,7.9573445e-05,3.3524928e-02,2.6373832e-02,2.5603261e-02
5.5997539e-01,2.9121493e-05,-9.8434786e-06,2.9795479e-05,2.1808973e-03,1.4973239e-03,2.1806622e-03,1.1664751e-04,-1.1481472e-03,-4.0842588e-04,-2.6592785e-02,-3.4888712e-02,-4.8799979e-02
5.6997538e-01,4.9276816e-05,7.9599189e-05,-1.7254649e-05,2.0163911e-03,8.9412140e-03,2.0282195e-03,-4.2788384e-05,-1.5571711e-03,-6.1523934e-04,-1.5943605e-02,-4.0902435e-02,-2.0681366e-02
5.7997537e-01,3.2047308e-05,4.4035525e-05,-5.8060308e-05,-1.7236768e-03,-3.5542601e-03,-1.7265774e-03,-1.2263882e-04,-1.3461111e-03,-6.7379668e-04,-7.9850515e-03,2.1106019e-02,-5.8557402e-03
5.8997536e-01,2.5999199e-05,-3.8785188e-05,-1.7646466e-05,-6.0479472e-04,-8.2814058e-03,-6.1397954e-04,-2.3551644e-05,-1.1285632e-03,-2.9494325e-04,9.9087273e-03,2.1754816e-02,3.7885379e-02
5.9997535e-01,-1.0511932e-04,-1.1052694e-04,-9.0610732e-05,-1.3129223e-02,-7.1865198e-03,-1.3087717e-02,-7.7242745e-05,8.6507572e-04,-1.3670684e-03,-5.3691152e-03,1.9936408e-01,-1.0721262e-01
6.0997534e-01,-9.1362998e-05,1.1509462e-05,-8.6097124e-05,1.3713164e-03,1.2204720e-02,1.3704610e-03,-5.1867780e-04,2.5947828e-04,-1.4639790e-03,-4.4143547e-02,-6.0559801e-02,-9.6910729e-03
6.1997533e-01,-9.0341015e-05,1.1068028e-05,-8.6783166e-05,1.0236250e-04,-4.4100454e-05,1.0205252e-04,-4.8667872e-04,-6.6425171e-05,-1.3970642e-03,3.1999113e-03,-3.2590376e-02,6.6914916e-03
6.2997532e-01,-1.3398085e-04,-1.1067640e-04,-5.0557406e-05,-4.3653740e-03,-1.2177087e-02,-4.3552469e-03,-3.2502963e-04,2.7881452e-04,-1.2252829e-03,1.6164924e-02,3.4524002e-02,1.7178143e-02
6.3997531e-01,-4.3623566e-05,-9.0275334e-05,6.9831108e-05,9.0336820e-03,2.0175425e-03,9.0428554e-03,1.3824537e-03,-1.1140170e-03,5.3844017e-04,1.7074850e-01,-1.3928329e-01,1.7637248e-01
6.4997530e-01,5.7800875e-05,8.4632188e-05,1.3180783e-04,1.0162211e-02,1.7441510e-02,1.0207298e-02,1.7987558e-03,-3.0436625e-03,1.1516980e-03,4.1630249e-02,-1.9296473e-01,6.1325845e-02
6.5997529e-01,-1.5702029e-05,4.0447978e-05,1.3747349e-05,-7.3515881e-03,-4.4107654e-03,-7.3536063e-03,-2.0215275e-04,-1.2441569e-03,-2.9718428e-04,-2.0009105e-01,1.7995073e-01,-1.4488837e-01
6.6997528e-01,-9.2569814e-06,-1.1601799e-05,9.6752681e-05,6.4425780e-04,-5.2058710e-03,6.3754059e-04,3.0119111e-05,-1.3554192e-03,1.4088145e-04,2.3227208e-02,-1.1126233e-02,4.3806614e-02
6.7997527e-01,2.3818239e-05,-2.6173371e-05,8.7348695e-05,3.3067665e-03,-1.4610751e-03,3.3065559e-03,2.2087492e-04,-9.6333254e-04,1.3203973e-04,1.9075599e-02,3.9208699e-02,-8.8417287e-04
6.8997526e-01,-1.9043681e-05,-3.4600868e-05,1.6297433e-05,-4.2892835e-03,-8.3988418e-04,-4.2836695e-03,2.4861789e-04,-4.2038605e-04,-6.7168376e-04,2.7742988e-03,5.4294701e-02,-8.0372425e-02
6.9997525e-01,-3.8916371e-05,8.5667318e-05,-7.4530792e-05,-1.9950032e-03,1.2026823e-02,-1.9795523e-03,-3.8956726e-04,-3.8743433e-04,-1.5345559e-03,-6.3818575e-02,3.2951756e-03,-8.6287299e-02
7.0997524e-01,-5.0149042e-05,2.7015050e-05,-1.2909424e-04,-1.1241723e-03,-5.8650301e-03,-1.1234197e-03,-1.6046105e-04,-3.4072129e-04,-1.6441533e-03,2.2910643e-02,4.6713083e-03,-1.0959745e-02
7.1997523e-01,4.2889281e-05,1.5707676e-04,-4.9082076e-05,9.2974042e-03,1.3006556e-02,9.3097532e-03,-9.4847483e-04,-9.0780959e-04,-6.3470439e-04,-7.8801453e-02,-5.6708884e-02,1.0094498e-01
7.2997522e-01,-3.7161112e-05,-6.9072883e-06,-1.0048613e-05,-8.0071203e-03,-1.6399275e-02,-8.0012209e-03,-2.8977442e-04,-1.8300992e-04,-8.5302250e-04,6.5870104e-02,7.2480037e-02,-2.1831832e-02
7.3997521e-01,-3.2549880e-05,-8.2320734e-06,-6.5694617e-06,4.6145513e-04,-1.3267489e-04,4.6073554e-04,-8.1477047e-05,-5.0746388e-04,-6.9561383e-04,2.0829757e-02,-3.2445427e-02,1.5740882e-02
7.4997520e-01,-5.2583835e-06,2.1121738e-05,-7.0394568e-05,2.7305427e-03,2.9350029e-03,2.7281710e-03,-3.6259457e-04,-5.0244116e-04,-8.9993425e-04,-2.8111779e-02,5.0227272e-04,-2.0432062e-02
7.5997519e-01,1.3145294e-05,-3.5066411e-05,1.9331590e-05,1.8409403e-03,-5.6201034e-03,1.8358754e-03,-7.9122608e-05,-7.7729438e-04,-6.8564993e-05,2.8347224e-02,-2.7485349e-02,8.3137005e-02
7.6997542e-01,1.3622659e-05,-4.7092616e-05,1.3941900e-05,4.7747970e-05,-1.2026315e-03,4.6741217e-05,3.3355853e-08,-8.1611061e-04,-2.6529444e-04,7.9154152e-03,-3.8815342e-03,-1.9672494e-02
7.7992845e-01,-5.1517601e-05,3.3808735e-06,-4.5032898e-05,-6.5551233e-03,5.0733945e-03,-6.5326790e-03,-1.3819520e-04,-4.7854132e-04,-1.4756368e-03,-1.3888099e-02,3.3916261e-02,-1.2160551e-01
7.8992844e-01,7.6075762e-06,3.6023302e-05,-3.2389242e-06,5.9193030e-03,3.2592993e-03,5.9084673e-03,-1.3618748e-04,-9.7375298e-04,-1.2226125e-03,2.0077245e-04,-4.9521214e-02,2.5302454e-02
7.9992843e-01,-2.2992969e-05,1.0791248e-04,-7.2775335e-05,-3.0757882e-03,7.1846465e-03,-3.0543282e-03,-1.1644448e-03,2.3248390e-04,-2.4086608e-03,-1.0282583e-01,1.2062380e-01,-1.1860494e-01
8.0992842e-01,-1.2778349e-04,-1.4794623e-04,-7.2398685e-05,-1.0498529e-02,-2.5598162e-02,-1.0429501e-02,2.3481610e-04,1.4096965e-03,-1.2852926e-03,1.3992623e-01,1.1772138e-01,1.1233692e-01
8.1992841e-01,-8.5716027e-05,-1.5993095e-05,-1.5593534e-05,4.2119825e-03,1.3192967e-02,4.2089137e-03,-3.2161515e-05,-5.9326163e-04,-1.3456187e-03,-2.6697787e-02,-2.0029601e-01,-6.0326136e-03
8.2992840e-01,6.0142099e-05,7.5056658e-05,-1.0973276e-05,1.4590036e-02,9.0826399e-03,1.4595544e-02,-2.8565719e-04,-1.8173509e-03,-4.6706287e-04,-2.5349592e-02,-1.2240904e-01,8.7855668e-02
8.3990049e-01,-6.3668061e-05,-1.1685372e-04,3.8561663e-05,-1.2439315e-02,-1.9226104e-02,-1.2420855e-02,7.3639778e-04,-7.6422143e-04,-7.6427051e-04,1.0249149e-01,1.0560764e-01,-2.9803930e-02
8.4990048e-01,-1.5151440e-04,-2.8891735e-04,-1.2670164e-04,-8.8050551e-03,-1.7218766e-02,-8.7398200e-03,4.9711701e-04,1.9135845e-03,-1.3510808e-03,-2.3928100e-02,2.6778084e-01,-5.8681085e-02
8.5990047e-01,-8.3299694e-05,-4.4665648e-05,-5.1496016e-05,6.8244139e-03,2.4427677e-02,6.8096352e-03,-2.1962222e-04,1.4476544e-04,-1.2177310e-03,-7.1673992e-02,-1.7688207e-01,1.3334989e-02
8.6990047e-01,-8.6195192e-05,6.3162029e-05,-6.1078195e-05,-2.8968002e-04,1.0782935e-02,-2.8349153e-04,1.7344197e-05,-5.3245778e-04,-1.0953257e-03,2.3696664e-02,-6.7722387e-02,1.2240547e-02
8.7990046e-01,-5.0228131e-05,5.9298871e-05,-7.3738458e-05,3.6019432e-03,-3.8772260e-04,3.5913167e-03,-2.2805307e-04,-6.2000396e-04,-1.4316854e-03,-2.4539750e-02,-8.7546266e-03,-3.3636007e-02
8.8990045e-01,-5.9245605e-05,-1.4921219e-04,-1.1200331e-04,-9.1629606e-04,-2.0850958e-02,-8.9090963e-04,6.3913235e-04,4.6028982e-04,-1.3554460e-03,8.6718625e-02,1.0802948e-01,7.6239498e-03
8.9990044e-01,1.8852271e-05,1.9391198e-06,7.3553591e-05,7.8118942e-03,1.5106511e-02,7.8243888e-03,9.7150127e-05,-1.0075658e-03,-8.0769857e-05,-5.4198274e-02,-1.4678570e-01,1.2746774e-01
9.0990043e-01,6.1570946e-05,1.1013656e-04,-6.1180091e-05,4.2745114e-03,1.0814040e-02,4.2836849e-03,-2.0995955e-05,-1.3573159e-03,-6.7135098e-04,-1.1814619e-02,-3.4975046e-02,-5.9058169e-02
9.1990042e-01,1.9066304e-05,7.6228689e-05,-5.5583237e-05,-4.2523110e-03,-3.3888073e-03,-4.2502067e-03,-2.6363953e-04,-7.3045416e-04,-6.4409598e-04,-2.4264381e-02,6.2686234e-02,2.7255034e-03
9.2990041e-01,2.0174961e-05,-4.3129941e-05,6.7411148e-05,1.1083984e-04,-1.1935960e-02,1.0122399e-04,3.5914077e-06,-8.0638273e-04,-1.5244520e-04,2.6723119e-02,-7.5928645e-03,4.9165125e-02
9.3990040e-01,5.0904759e-05,2.2177664e-05,2.4934288e-04,3.0801507e-03,6.5182029e-03,3.0924203e-03,1.8169873e-03,-2.2591466e-03,1.5260901e-03,1.8133976e-01,-1.4527653e-01,1.6785369e-01
9.4990039e-01,-2.4520200e-05,-1.6511950e-05,-3.2868524e-06,-7.5518509e-03,-3.8586475e-03,-7.5384338e-03,1.9607300e-04,-1.1728336e-03,-1.1394485e-03,-1.6209158e-01,1.0863141e-01,-2.6655411e-01
9.5990038e-01,-4.4452804e-05,5.3755919e-05,-1.1132931e-04,-1.9983104e-03,7.0275686e-03,-1.9854605e-03,-3.0724920e-04,-6.9807979e-04,-1.4505424e-03,-5.0332268e-02,4.7475427e-02,-3.1109428e-02
9.6990037e-01,-1.3054467e-04,-9.5996703e-05,-8.7376533e-05,-8.6151247e-03,-1.4982950e-02,-8.5898901e-03,-3.7963579e-04,5.1276254e-04,-1.3500992e-03,-7.2386655e-03,1.2108435e-01,1.0044334e-02
9.7990036e-01,-1.5674334e-04,-3.4147591e-04,-3.4644893e-05,-2.6352996e-03,-2.4551754e-02,-2.5681832e-03,5.2851514e-04,2.0047409e-03,-9.3818622e-04,9.0815179e-02,1.4919798e-01,4.1191336e-02
9.8990035e-01,-2.9077539e-05,-2.6883534e-04,-5.8267179e-05,1.2789748e-02,7.3162404e-03,1.2713511e-02,-7.9262389e-04,3.3051122e-03,-2.2676445e-03,-1.3211403e-01,1.3003725e-01,-1.3294596e-01
9.9990034e-01,-1.0863430e-04,-9.0046022e-05,-5.7916807e-05,-7.9696882e-03,1.7876939e-02,-7.9461777e-03,-1.4888165e-04,1.0380950e-04,-1.4267044e-03,6.4374285e-02,-3.2013057e-01,8.4094092e-02
1.0098853e+00,-2.5952893e-05,1.2562730e-04,-9.4721174e-05,8.2792469e-03,2.1597983e-02,8.2866534e-03,-6.6099357e-04,-8.7973090e-04,-1.5638139e-03,-5.1288278e-02,-9.8502088e-02,-1.3731589e-02
1.0198855e+00,2.4922983e-05,3.2411945e-05,-2.8791132e-05,5.0899024e-03,-9.3265950e-03,5.0753610e-03,-6.6958686e-05,-1.1049423e-03,-3.5526339e-04,5.9402129e-02,-2.2520625e-02,1.2085229e-01
1.0298855e+00,2.7450784e-06,-4.3798831e-05,-2.4427831e-05,-2.2211241e-03,-7.6199294e-03,-2.2184286e-03,3.9725696e-04,-1.2344489e-04,-1.3716391e-04,4.6421609e-02,9.8149835e-02,2.1809968e-02
1.0398855e+00,-1.5617565e-05,-4.6276178e-05,1.7539330e-05,-1.8382488e-03,-2.4552775e-04,-1.8345780e-03,3.4709700e-04,-8.5577775e-04,-1.0335427e-03,-5.0160004e-03,-7.3233356e-02,-8.9637962e-02
1.0498855e+00,7.4634513e-05,4.9111089e-05,-1.6743038e-06,9.0275042e-03,9.5290719e-03,9.0331334e-03,-1.1234825e-04,-1.1828122e-03,-3.7231076e-04,-4.5944569e-02,-3.2703481e-02,6.6123255e-02
1.0598855e+00,4.0644943e-05,6.3109824e-05,-3.5894425e-05,-3.4011577e-03,1.4014706e-03,-3.3961032e-03,-2.5313737e-04,-7.2314427e-04,-5.4244427e-04,-1.4078926e-02,4.5966842e-02,-1.7013367e-02
1.0698855e+00,1.9055053e-05,7.2655181e-06,7.2272229e-06,-2.1600015e-03,-5.5822377e-03,-2.1636602e-03,1.0973797e-04,-9.0752551e-04,-1.8417802e-04,3.6287569e-02,-1.8438142e-02,3.5826659e-02
1.0798855e+00,1.1579864e-04,2.1414427e-05,3.5964537e-05,9.6752477e-03,1.3892482e-03,9.6772048e-03,5.0636733e-04,-2.1440378e-03,-1.6980720e-05,3.9662973e-02,-1.2365135e-01,1.6719746e-02
1.0898855e+00,1.6372323e-06,-2.0818168e-05,5.4729978e-05,-1.1416649e-02,-4.2122327e-03,-1.1419730e-02,-5.9820010e-05,-1.0259419e-03,-6.5634119e-05,-5.6618788e-02,1.1180970e-01,-4.8653445e-03
1.0998855e+00,-2.9361676e-05,-8.8679173e-05,1.8976136e-05,-3.0997831e-03,-6.7851378e-03,-3.1021251e-03,-1.2996400e-04,-4.4247663e-04,-2.4883696e-04,-7.0144061e-03,5.8346578e-02,-1.8320302e-02
1.1098855e+00,-1.1693674e-04,-1.1534455e-04,-5.0200836e-05,-8.7689818e-03,-2.6716588e-03,-8.7444707e-03,-2.0906140e-04,3.7597015e-04,-1.3740020e-03,-7.9097473e-03,8.1844757e-02,-1.1251661e-01
1.1198854e+00,-1.1312343e-04,-1.1605049e-04,-4.8660665e-05,3.8186467e-04,-7.0317241e-05,3.8084956e-04,-3.4574332e-04,3.8032667e-04,-1.3340944e-03,-1.3668205e-02,4.3565221e-04,3.9907650e-03
1.1298854e+00,-7.3586462e-05,-4.9541445e-05,1.6694520e-05,3.9624350e-03,6.6444568e-03,3.9558067e-03,1.2373782e-03,-3.9359885e-04,-1.2850014e-04,1.5831231e-01,-7.7392626e-02,1.2055954e-01
1.1398854e+00,-9.7987283e-05,-1.8565751e-05,-4.7354057e-05,-2.4394475e-03,3.1007746e-03,-2.4366519e-03,8.3763582e-04,-4.7566828e-04,-8.0294739e-04,-3.9974280e-02,-8.2069510e-03,-6.7444789e-02
1.1498854e+00,-4.0500097e-05,3.8729845e-05,-1.0191185e-05,5.7539852e-03,5.7255542e-03,5.7474566e-03,-3.7610103e-04,-1.0745372e-03,-1.2909240e-03,-1.2137380e-01,-5.9886949e-02,-4.8797703e-02
1.1598854e+00,5.0677818e-05,-2.7376297e-05,1.1306072e-04,9.1161379e-03,-6.6276870e-03,9.1070663e-03,1.2611067e-04,-1.7466307e-03,9.0861980e-05,5.0221218e-02,-6.7209414e-02,1.3817872e-01
1.1698854e+00,-4.1250819e-05,-1.8386991e-06,9.6571795e-06,-9.2013526e-03,2.5544987e-03,-9.1841796e-03,-2.8335084e-04,-3.6379794e-04,-8.4415485e-04,-4.0946190e-02,1.3828341e-01,-9.3501772e-02
1.1798854e+00,1.8144835e-06,-7.4369441e-05,-3.0498254e-05,4.3025260e-03,-7.2569245e-03,4.3040653e-03,6.6765307e-04,-2.2526785e-04,-1.9395964e-04,9.5100482e-02,1.3853022e-02,6.5019583e-02
1.1898854e+00,9.7321870e-05,3.5033875e-05,-1.2173228e-05,9.5577812e-03,1.0919135e-02,9.5679655e-03,4.0005315e-04,-1.8189424e-03,-2.7828114e-04,-2.6760017e-02,-1.5936761e-01,-8.4321584e-03
1.1998854e+00,4.2219983e-05,1.4530307e-04,-2.2579439e-05,-5.5101785e-03,1.1038711e-02,-5.4865687e-03,1.5393846e-04,-1.9888359e-03,-3.0529983e-04,-2.4611493e-02,-1.6989364e-02,-2.7018717e-03
1.2098854e+00,-7.3007573e-05,8.0805083e-05,-4.8068914e-05,-1.1536456e-02,-6.4447795e-03,-1.1511875e-02,-1.0349058e-04,-5.4016682e-04,-1.2467859e-03,-2.5742929e-02,1.4486704e-01,-9.4148693e-02
1.2198853e+00,-2.0085299e-05,3.7358288e-05,-8.7333755e-05,5.3020046e-03,-4.3428937e-03,5.2839139e-03,-4.0338855e-04,-6.5347500e-05,-1.5165763e-03,-2.9989826e-02,4.7481977e-02,-2.6979064e-02
1.2298853e+00,-4.9398476e-05,1.7018920e-06,-1.0809219e-04,-2.9368193e-03,-3.5644245e-03,-2.9272958e-03,1.7999108e-04,-2.3603005e-04,-1.6583125e-03,5.8338018e-02,-1.7068271e-02,-1.4173639e-02
1.2398853e+00,-4.0867420e-05,3.6246945e-05,-1.2172443e-04,8.5249826e-04,3.4552680e-03,8.5063527e-04,-5.7546020e-04,3.1610588e-04,-1.6188435e-03,-7.5545199e-02,5.5213645e-02,3.9469027e-03
1.2498853e+00,-2.6710306e-06,-1.5542010e-05,3.7955488e-05,3.8200793e-03,-5.1819879e-03,3.8150156e-03,-4.2057456e-05,-8.5091054e-04,-5.7313307e-05,5.3340325e-02,-1.1670175e-01,1.5615317e-01
1.2598853e+00,2.9301622e-05,-3.6284708e-05,8.9851423e-05,3.1965077e-03,-2.0798704e-03,3.1943904e-03,2.1509259e-04,-1.5366229e-03,9.8311628e-05,2.5715029e-02,-6.8571298e-02,1.5562508e-02
1.2698855e+00,4.5006992e-05,-2.2288990e-05,-1.0224557e-05,1.5712852e-03,1.3969726e-03,1.5720016e-03,4.7075635e-05,-1.5871384e-03,-4.5743073e-04,-1.6801311e-02,-5.0514395e-03,-5.5572964e-02
1.2798855e+00,1.9638748e-05,-1.3125385e-04,-1.0229925e-04,-2.5437645e-03,-1.0894825e-02,-2.5370579e-03,5.1971875e-04,-1.3854167e-04,-5.0266931e-04,4.7264356e-02,1.4485981e-01,-4.5238614e-03
1.2898855e+00,1.6822345e-06,-3.6200068e-05,4.4719475e-05,-1.7966325e-03,9.5067974e-03,-1.7871887e-03,-9.4384465e-05,-8.8175427e-04,-4.5844512e-05,-6.1410380e-02,-7.4321331e-02,4.5682523e-02
1.2998855e+00,4.7434583e-05,-3.4314694e-06,8.9903916e-05,4.5753724e-03,3.2655884e-03,4.5831602e-03,5.8393917e-04,-1.8781961e-03,3.8885302e-04,6.7832429e-02,-9.9644275e-02,4.3469795e-02
1.3098855e+00,-2.8385299e-05,-5.1094357e-05,2.3500172e-05,-7.5901118e-03,-4.7579156e-03,-7.5791359e-03,2.2998356e-04,-8.7551763e-04,-9.2636672e-04,-3.5395595e-02,1.0026794e-01,-1.3152210e-01
1.3198855e+00,-1.0116884e-04,-7.8125179e-05,-4.5822448e-05,-7.2880775e-03,-2.7030423e-03,-7.2686474e-03,1.6508246e-04,1.5946013e-04,-1.2744941e-03,-6.4901165e-03,1.0349788e-01,-3.4812773e-02
1.3298855e+00,-1.2683570e-05,-8.1094770e-05,-2.4904633e-06,8.8547336e-03,-3.0956175e-04,8.8419007e-03,8.1376565e-04,-6.1092186e-04,-7.2837726e-04,6.4868381e-02,-7.7038273e-02,5.4611738e-02
1.3398855e+00,-9.8883946e-05,-3.9346506e-05,-5.6900418e-05,-8.6318669e-03,4.1735984e-03,-8.6088060e-03,-1.1256080e-04,3.0405254e-05,-1.3177065e-03,-9.2632733e-02,6.4132772e-02,-5.8932976e-02
1.3498855e+00,-1.4945305e-09,1.3217592e-04,-3.4554965e-05,9.8886203e-03,1.7141621e-02,9.9063196e-03,-1.3822739e-04,-1.2131040e-03,-2.7680306e-04,-2.5666612e-03,-1.2435104e-01,1.0409044e-01
1.3598855e+00,1.9275275e-05,7.2392849e-06,3.6732028e-05,1.9276315e-03,-1.2495822e-02,1.9137637e-03,3.2353605e-05,-1.0851143e-03,-1.8514893e-04,1.7058116e-02,1.2798980e-02,9.1654213e-03
1.3698854e+00,5.0753009e-05,-4.0410730e-05,5.3050861e-05,3.1474002e-03,-4.7701247e-03,3.1403913e-03,1.9949368e-04,-1.4284523e-03,-1.8250437e-04,1.6714023e-02,-3.4333830e-02,2.6445669e-04
1.3798854e+00,4.1785336e-05,-3.7221397e-05,1.6194305e-05,-8.9703863e-04,3.1994239e-04,-8.9613815e-04,1.3086854e-04,-9.9461717e-04,-3.4817537e-04,-6.8625199e-03,4.3383554e-02,-1.6567116e-02
1.3898854e+00,3.8733679e-05,2.9491707e-05,-6.4795877e-05,-3.0720229e-04,6.6714062e-03,-3.0114222e-04,-2.7877219e-04,-5.7650675e-04,-5.7864120e-04,-4.0964112e-02,4.1811082e-02,-2.3046605e-02
1.3998854e+00,1.3106061e-05,-4.4713278e-06,-6.6032743e-06,-2.5630122e-03,-3.3941272e-03,-2.5654023e-03,-5.3254030e-05,-9.0331816e-04,-1.6735285e-04,2.2551838e-02,-3.2681173e-02,4.1128874e-02
1.4098854e+00,1.5476306e-05,5.0738553e-05,-6.5230226e-05,2.3542604e-04,5.5207998e-03,2.4305016e-04,-3.5196880e-04,-1.1533520e-03,-1.4545357e-03,-2.9871506e-02,-2.5003412e-02,-1.2871840e-01
1.4198854e+00,-1.8009755e-05,-1.4930645e-04,-2.3919277e-05,-3.3680451e-03,-2.0001067e-02,-3.3497389e-03,8.2002165e-04,-2.0898549e-04,-9.0608787e-04,1.1719916e-01,9.4436745e-02,5.4844830e-02
1.4298854e+00,-8.7164709e-05,-1.9289685e-04,-9.1246510e-05,-6.9263682e-03,-4.3622177e-03,-6.9026146e-03,4.5059646e-04,9.1090141e-04,-1.2881819e-03,-3.6942555e-02,1.1198880e-01,-3.8209435e-02
1.4398854e+00,-2.5317009e-05,-1.0725423e-04,-6.3140568e-06,6.1936169e-03,8.5594330e-03,6.1826248e-03,2.4289983e-04,-5.3959459e-04,-1.0937590e-03,-2.0769682e-02,-1.4504974e-01,1.9442300e-02
1.4498854e+00,4.6494005e-05,-9.5578927e-05,1.1731790e-04,7.1782673e-03,1.1474652e-03,7.1871806e-03,9.3396505e-04,-1.8589844e-03,5.4688348e-04,6.9106587e-02,-1.3193911e-01,1.6406441e-01
1.4598854e+00,5.5808039e-05,-2.9291895e-05,1.0178978e-04,9.4072546e-04,6.6252278e-03,9.4668398e-04,1.5140723e-03,-2.1970956e-03,7.6634946e-04,5.8010778e-02,-3.3811148e-02,2.1946620e-02
1.4698853e+00,1.3827711e-04,-1.8513603e-05,1.5853700e-04,8.2406614e-03,1.0311762e-03,8.2591223e-03,2.1592286e-03,-3.4932152e-03,1.0376017e-03,6.4515694e-02,-1.2961209e-01,2.7125247e-02
1.4798853e+00,4.9638394e-05,-1.1319036e-04,1.6894647e-04,-8.8674093e-03,-9.4428554e-03,-8.8868062e-03,7.1050498e-04,-2.0873541e-03,3.6040281e-04,-1.4487250e-01,1.4058625e-01,-6.7719951e-02
1.4898853e+00,-3.6052061e-06,2.3150000e-05,-1.0869965e-05,-5.3326462e-03,1.3636619e-02,-5.3094745e-03,-4.1593160e-04,-9.0036311e-04,-4.9045964e-04,-1.1264377e-01,1.1869921e-01,-8.5086325e-02
1.4998853e+00,-9.9382748e-05,-3.9857577e-05,-8.4492393e-05,-9.5901782e-03,-6.3053265e-03,-9.5623253e-03,-3.1439822e-04,1.6227344e-04,-1.5042296e-03,1.0153348e-02,1.0626376e-01,-1.0137710e-01
1.5098853e+00,-8.6097487e-05,-9.9199258e-05,-6.3507079e-05,1.3305625e-03,-5.9339239e-03,1.3276060e-03,-4.2317818e-05,1.4582641e-04,-1.3437212e-03,2.7208066e-02,-1.6447047e-03,1.6050863e-02
1.5198855e+00,1.7928051e-05,-9.7858827e-05,-7.9938304e-05,1.0413440e-02,1.1744658e-04,1.0391380e-02,8.6791328e-04,-7.2801462e-04,-1.0591649e-03,9.1021026e-02,-8.7382103e-02,2.8454973e-02
1.5298855e+00,-4.2484968e-05,2.0189400e-05,-7.8374598e-05,-6.0449334e-03,1.1812433e-02,-6.0227981e-03,3.2306464e-04,-9.3696890e-04,-1.2322500e-03,-5.4484916e-02,-2.0895448e-02,-1.7308521e-02
1.5398855e+00,-6.2716900e-05,4.1588209e-05,-9.3276963e-05,-2.0252436e-03,2.1422662e-03,-2.0186185e-03,2.8039670e-04,-8.9917951e-04,-1.3099336e-03,-4.2667974e-03,3.7789425e-03,-7.7683729e-03
1.5498855e+00,3.7342839e-05,3.1905656e-06,-9.1999451e-05,1.0011875e-02,-3.8522574e-03,9.9952839e-03,1.2306892e-04,-1.1260883e-03,-6.3624805e-04,-1.5732794e-02,-2.2690903e-02,6.7368620e-02
1.5598855e+00,8.1379864e-06,-4.9811299e-05,1.4790247e-05,-2.9224904e-03,-5.2964765e-03,-2.9252209e-03,2.7593861e-04,-9.9532337e-04,-1.8490084e-04,1.5286984e-02,1.3076508e-02,4.5134764e-02
1.5698855e+00,2.6942523e-05,-1.0131462e-04,3.8462601e-05,1.8773444e-03,-5.1528218e-03,1.8767526e-03,6.0265510e-04,-7.2000918e-04,3.6026344e-06,3.2671680e-02,2.7531445e-02,1.8850366e-02
1.5798435e+00,7.8810082e-05,-6.5615263e-05,1.0678631e-04,5.2094507e-03,3.5730965e-03,5.2159454e-03,4.9980630e-04,-1.7806195e-03,1.8381403e-04,-1.0328229e-02,-1.0650806e-01,1.8097095e-02
1.5898435e+00,1.1425374e-04,-3.3003380e-05,9.1988955e-05,3.5461508e-03,3.2513792e-03,3.5515951e-03,5.6563333e-04,-2.2003298e-03,1.7713741e-05,6.5827098e-03,-4.1971070e-02,-1.6610044e-02
1.5998435e+00,4.4070425e-05,-6.5314862e-05,2.9821158e-05,-7.0205630e-03,-3.2196737e-03,-7.0213879e-03,2.3212029e-04,-1.4030883e-03,-2.1012907e-04,-3.3351336e-02,7.9724223e-02,-2.2784303e-02
1.6098435e+00,5.4648821e-05,-1.0511722e-04,3.4865355e-05,1.0551489e-03,-3.9824134e-03,1.0523328e-03,6.6275049e-04,-1.3967214e-03,5.0690802e-05,4.3063061e-02,6.3669182e-04,2.6082012e-02
1.6198435e+00,-3.6868993e-05,-2.4994651e-04,-8.5554315e-06,-9.1721954e-03,-1.4473069e-02,-9.1469803e-03,8.6157141e-04,-2.1683458e-04,-8.6693525e-04,1.9882111e-02,1.1798880e-01,-9.1762693e-02
1.6298435e+00,-5.5850362e-05,-2.1783340e-04,7.9241239e-06,-1.8978731e-03,3.2122907e-03,-1.8967500e-03,5.7589255e-04,6.0722576e-05,-8.3486905e-04,-2.8567913e-02,2.7755742e-02,3.2066228e-03
1.6398435e+00,-9.2828588e-05,-1.0754923e-04,1.5655257e-05,-3.6974284e-03,1.1032515e-02,-3.6860127e-03,3.4991677e-04,-7.5716573e-04,-9.3651225e-04,-2.2597600e-02,-8.1788908e-02,-1.0164330e-02
1.6498435e+00,7.1840862e-05,-6.7004320e-05,-7.7598855e-05,1.6502496e-02,4.0805636e-03,1.6424895e-02,-8.2313886e-04,7.6190835e-04,-2.3637561e-03,-1.1730567e-01,1.5190755e-01,-1.4272452e-01
1.6598434e+00,-5.2625716e-05,3.5593095e-06,-3.4658270e-05,-1.2449104e-02,7.0810877e-03,-1.2430186e-02,8.4120777e-04,-1.1460506e-03,-6.7308371e-04,1.6643482e-01,-1.9079608e-01,1.6906740e-01
1.6698434e+00,-5.6324423e-05,1.3247766e-06,-2.3151276e-05,-3.7030627e-04,-2.2286949e-04,-3.6978799e-04,8.3667169e-04,-7.4242468e-04,-6.7171450e-04,-4.5360815e-04,4.0362635e-02,1.3692129e-04
1.6798434e+00,5.3873351e-05,-2.0657062e-05,3.4730250e-05,1.1020303e-02,-2.2148004e-03,1.1015946e-02,3.1436867e-04,-1.1936054e-03,-1.0949675e-04,-5.2230352e-02,-4.5118116e-02,5.6221829e-02
1.6898434e+00,5.3639085e-05,4.8108878e-05,-1.4308430e-05,-2.3326977e-05,6.8766238e-03,-1.5267653e-05,1.6325835e-05,-1.1846546e-03,-5.3869267e-04,-2.9804312e-02,8.9508048e-04,-4.2919632e-02
1.6998434e+00,4.7861816e-05,3.4143683e-05,-1.5663946e-05,-5.7802861e-04,-1.3959901e-03,-5.7870817e-04,-4.7856877e-05,-9.6606699e-04,-6.3716280e-04,-6.4182773e-03,2.1858783e-02,-9.8470228e-03
1.7098434e+00,5.2362646e-05,-5.9142847e-05,5.4386196e-05,4.4810980e-04,-9.3291369e-03,4.4213550e-04,2.2433383e-04,-8.3925582e-04,-2.6464951e-04,2.7219097e-02,1.2681130e-02,3.7251364e-02
1.7198434e+00,6.6193651e-05,-7.9818549e-05,1.3873853e-05,1.3818966e-03,-2.0696327e-03,1.3812234e-03,6.7917393e-04,-8.1158884e-04,-1.4416685e-04,4.5484053e-02,2.7667005e-03,1.2048278e-02
1.7298434e+00,-5.9990215e-06,-2.4167269e-05,-9.0713473e-05,-7.2314044e-03,5.5640507e-03,-7.2079592e-03,-2.0567195e-04,-5.5816832e-05,-1.5228996e-03,-8.8484673e-02,7.5577273e-02,-1.3787341e-01
1.7398434e+00,-2.1113705e-05,-2.3802027e-05,-5.5934851e-05,-1.5131085e-03,3.8335113e-05,-1.5097845e-03,3.9428134e-04,-8.0471878e-04,-1.0943535e-03,5.9995386e-02,-7.4890266e-02,4.2854648e-02
1.7498434e+00,-1.3853520e-04,-1.8233024e-04,-1.8881757e-05,-1.1762118e-02,-1.5847377e-02,-1.1729548e-02,5.2942611e-04,6.4777680e-05,-9.8550099e-04,1.3514490e-02,8.6949729e-02,1.0885266e-02
1.7598433e+00,-3.6935497e-05,-2.0433112e-04,3.9257712e-06,1.0166380e-02,-2.2062293e-03,1.0152243e-02,5.7324197e-04,-3.1064364e-05,-7.5458030e-04,4.3815901e-03,-9.5842135e-03,2.3092091e-02
1.7698436e+00,2.9476109e-05,-1.7493009e-04,2.6463428e-05,6.6448987e-03,2.9282472e-03,6.6423253e-03,8.0411592e-04,-9.7073772e-04,-2.3012971e-04,2.3086867e-02,-9.3965185e-02,5.2443859e-02
1.7798436e+00,-1.8943287e-05,-1.1521052e-04,2.6001211e-05,-4.8413230e-03,5.9787959e-03,-4.8341275e-03,4.6681708e-04,-9.4537433e-04,-4.4764994e-04,-3.3729916e-02,2.5363418e-03,-2.1752044e-02
1.7898436e+00,-2.7955343e-05,-9.6915995e-05,5.0777048e-05,-9.0080453e-04,1.8307604e-03,-8.9895203e-04,4.3665128e-04,-1.0148621e-03,-4.4067005e-04,-3.0165828e-03,-6.9487854e-03,6.9799045e-04
1.7998435e+00,7.2650846e-05,-2.6032085e-05,1.0265009e-04,1.0064384e-02,7.0586755e-03,1.0077755e-02,6.2313920e-04,-2.3289854e-03,6.5555930e-05,1.8648809e-02,-1.3141245e-01,5.0622646e-02
1.8098435e+00,2.7851153e-05,-7.8865739e-05,7.2553683e-05,-4.4836748e-03,-5.2740630e-03,-4.4872319e-03,7.2772183e-04,-1.3484441e-03,3.1771579e-05,1.0458273e-02,9.8054221e-02,-3.3784383e-03
1.8198435e+00,-2.7587756e-05,-1.4636182e-04,-7.4183017e-05,-5.5567738e-03,-6.7424072e-03,-5.5397719e-03,8.0299139e-04,-4.9713006e-04,-1.3464424e-03,7.5269636e-03,8.5131484e-02,-1.3782153e-01
1.8298435e+00,-1.4030996e-05,1.1297059e-05,-1.2070854e-04,1.3508017e-03,1.5767101e-02,1.3465826e-03,-5.2326263e-04,3.6357565e-04,-2.4921646e-03,-1.3262553e-01,8.6070653e-02,-1.1457234e-01
1.8398435e+00,-3.0183584e-05,1.9058717e-05,-9.4896105e-05,-1.6178776e-03,7.7587259e-04,-1.6127801e-03,-1.5567011e-04,2.6317088e-05,-1.5468050e-03,3.6759287e-02,-3.3725889e-02,9.4536052e-02
1.8498435e+00,-4.5731722e-05,-2.3946486e-05,-9.0258298e-05,-1.5562786e-03,-4.3009519e-03,-1.5521667e-03,-2.0771079e-04,6.7392861e-05,-1.5167744e-03,-5.2040730e-03,4.1075813e-03,3.0030645e-03
1.8598435e+00,-6.9426053e-05,-9.5600561e-05,-4.1458491e-05,-2.3730243e-03,-7.1648610e-03,-2.3675164e-03,9.6259030e-05,-1.3742004e-04,-1.2243389e-03,3.0397011e-02,-2.0481309e-02,2.9243577e-02
1.8698435e+00,7.1740645e-05,-8.3424229e-05,-4.2954825e-05,1.4122607e-02,1.1909445e-03,1.4113035e-02,4.0554545e-04,-1.4855908e-03,-3.8476641e-04,3.0928671e-02,-1.3481721e-01,8.3957331e-02
1.8798435e+00,6.7937636e-05,-4.5964598e-05,-7.2625106e-05,-3.7924394e-04,3.7465886e-03,-3.7519655e-04,3.7314558e-04,-1.2719729e-03,-8.9561433e-04,-3.2399894e-03,2.1361816e-02,-5.1084841e-02
1.8898435e+00,1.5034218e-05,-3.2062206e-06,-2.8437262e-05,-5.2907251e-03,4.2834904e-03,-5.2837769e-03,3.0084037e-04,-1.1458587e-03,-3.1475770e-04,-7.2305279e-03,1.2611427e-02,5.8085719e-02
1.8998435e+00,2.1644931e-05,-3.5778009e-05,5.1967930e-05,6.6095110e-04,-3.2579774e-03,6.5726200e-04,9.5130221e-05,-1.1115286e-03,-2.8598956e-04,-2.0571035e-02,3.4330130e-03,2.8768160e-03
1.9098434e+00,2.1103720e-05,-9.0011729e-05,9.5201157e-05,-5.5512135e-05,-5.4233072e-03,-5.9460074e-05,2.5570791e-04,-9.8520001e-04,-7.6007807e-05,1.6057785e-02,1.2632874e-02,2.0998196e-02
1.9198434e+00,-5.1176262e-05,-1.4768454e-04,2.8714198e-05,-7.2392107e-03,-5.7564307e-03,-7.2254444e-03,6.2732108e-04,-8.7512018e-04,-1.0505239e-03,3.7161352e-02,1.1007993e-02,-9.7451699e-02
1.9298434e+00,-6.7095160e-05,-1.0854181e-04,-5.0382365e-07,-1.5922827e-03,3.9158733e-03,-1.5875685e-03,3.4668093e-04,-6.5743861e-04,-1.0988922e-03,-2.8064042e-02,2.1768178e-02,-4.8368329e-03
1.9398434e+00,-1.2236030e-05,9.4418691e-05,-1.0331817e-05,5.4908984e-03,2.0287903e-02,5.5110867e-03,-1.1329698e-04,-1.5993609e-03,-1.3278463e-03,-4.5997834e-02,-9.4192320e-02,-2.2895440e-02
1.9498434e+00,-6.4464241e-05,6.8302306e-05,-7.2680517e-05,-5.2285105e-03,-2.6063154e-03,-5.2197981e-03,1.9621559e-04,-8.2410263e-04,-9.9077109e-04,3.0951286e-02,7.7525902e-02,3.3707556e-02
1.9598434e+00,-5.7270283e-05,-9.3907740e-05,-9.8951995e-05,7.1968398e-04,-1.6220509e-02,7.3055648e-04,3.7325603e-05,7.4307215e-04,-1.2419582e-03,-1.5889014e-02,1.5671763e-01,-2.5118738e-02
1.9698434e+00,-2.8124354e-05,-1.9461255e-04,2.9056475e-05,2.9054633e-03,-1.0074660e-02,2.9093013e-03,1.0637188e-03,-3.6904234e-04,-5.4275949e-04,1.0263942e-01,-1.1121156e-01,6.9919942e-02
1.9798434e+00,9.5021115e-06,-9.3833406e-05,7.3789752e-05,3.7683444e-03,1.0071373e-02,3.7744754e-03,4.4536199e-04,-1.2937793e-03,-3.2063954e-04,-6.1835745e-02,-9.2473782e-02,2.2212016e-02
1.9898434e+00,-1.3570947e-05,-4.5587594e-05,1.6999803e-06,-2.3079499e-03,4.8265903e-03,-2.3024687e-03,1.9607534e-04,-6.7368248e-04,-6.8841670e-04,-2.4928689e-02,6.2009739e-02,-3.6777751e-02
1.9998434e+00,6.1362559e-05,-3.1997568e-05,-3.2326621e-05,7.5003475e-03,1.3443553e-03,7.4890058e-03,4.9943134e-04,-1.4564578e-03,-8.4269772e-04,3.0335629e-02,-7.8277607e-02,-1.5428116e-02
2.0098433e+00,3.5543234e-05,-3.8856255e-05,6.9163365e-05,-2.5825656e-03,-6.8155068e-04,-2.5824479e-03,3.6447877e-04,-1.3081092e-03,-1.4749208e-04,-1.3495269e-02,1.4834874e-02,6.9520630e-02
2.0198436e+00,7.0629930e-05,-3.3607298e-05,1.1281515e-05,3.5100933e-03,5.1934172e-04,3.5079096e-03,3.7307692e-04,-1.2067749e-03,-3.7298485e-04,8.5979484e-04,1.0133202e-02,-2.2548761e-02
2.0298436e+00,4.8212169e-05,1.9305100e-06,-7.0961773e-05,-2.2453392e-03,3.5538428e-03,-2.2381185e-03,-3.0156749e-04,-3.2822400e-04,-1.1110767e-03,-6.7464505e-02,8.7855171e-02,-7.3809260e-02
2.0398436e+00,5.9434007e-05,7.4328600e-05,-8.1777771e-05,1.1190293e-03,7.2398414e-03,1.1251676e-03,-6.0842365e-04,-5.8407862e-04,-1.1141322e-03,-3.0685645e-02,-2.5585487e-02,-3.0554296e-04
2.0498435e+00,-6.0710163e-05,-8.8465583e-05,-7.8000038e-05,-1.2031379e-02,-1.6282509e-02,-1.1993281e-02,-5.0270610e-05,2.0600643e-04,-1.4800307e-03,5.5815357e-02,7.9008580e-02,-3.6589883e-02
2.0598435e+00,-9.6750088e-05,-1.0611936e-04,-7.1933002e-05,-3.6092383e-03,-1.7668188e-03,-3.5980394e-03,-5.7298755e-05,3.4265570e-04,-1.4837647e-03,-7.0281521e-04,1.3664941e-02,-3.7340984e-04
2.0698435e+00,-6.8314689e-05,-1.1784305e-04,-7.7734957e-05,2.8477623e-03,-1.1723732e-03,2.8393153e-03,5.5805107e-05,5.4687488e-05,-1.5080917e-03,1.1310397e-02,-2.8796849e-02,-2.4326938e-03
2.0798435e+00,4.8135158e-06,-1.2631898e-04,3.1240352e-05,7.3157150e-03,-8.5691879e-04,7.3088514e-03,3.9298096e-04,-8.8254904e-04,-4.4059492e-04,3.3717617e-02,-9.3723743e-02,1.0674978e-01
2.0898435e+00,-4.3255703e-05,-1.3422191e-04,-8.9178364e-06,-4.8100857e-03,-7.8846669e-04,-4.8040653e-03,1.6075789e-04,-2.1941255e-04,-6.3101407e-04,-2.3222329e-02,6.6313712e-02,-1.9041933e-02
2.0998435e+00,-1.9286680e-05,-1.2224427e-05,8.6634770e-05,2.4108013e-03,1.2193004e-02,2.4172572e-03,1.2123497e-03,-1.5953879e-03,3.7201847e-04,1.0515928e-01,-1.3759767e-01,1.0030335e-01
2.1098435e+00,9.0565004e-05,-3.6950495e-05,2.2557535e-04,1.0965226e-02,-2.5255425e-03,1.0993069e-02,1.9964480e-03,-2.8196793e-03,1.3640400e-03,7.8409906e-02,-1.2242926e-01,9.9202251e-02
2.1198435e+00,4.4167404e-05,-6.7678452e-05,5.2967175e-05,-4.6412419e-03,-3.0665514e-03,-4.6424190e-03,4.2055803e-04,-9.2558718e-04,-4.0024668e-05,-1.5758915e-01,1.8940940e-01,-1.4040660e-01
2.1298435e+00,-3.4050757e-05,4.5322108e-05,-3.2830896e-05,-7.8386195e-03,1.1299111e-02,-7.8063747e-03,-4.4590138e-04,-3.2445010e-04,-1.5043629e-03,-8.6646023e-02,6.0113766e-02,-1.4643397e-01
2.1398435e+00,-1.2644429e-05,-6.8486213e-05,-1.6479774e-05,2.1406356e-03,-1.1382514e-02,2.1317292e-03,2.3757859e-04,-5.4481248e-04,-1.2642778e-03,6.8348062e-02,-2.2036259e-02,2.4008535e-02
2.1498435e+00,4.4794364e-05,-2.6472919e-06,1.1614387e-05,5.7552129e-03,6.5701688e-03,5.7482649e-03,6.6487288e-04,-1.7255543e-03,-1.2110448e-03,4.2729470e-02,-1.1807429e-01,5.3233063e-03
2.1598434e+00,-8.0454948e-05,-9.9202691e-05,-8.0905065e-05,-1.2543879e-02,-9.6612486e-03,-1.2501576e-02,-2.7645238e-05,4.2813206e-04,-1.5343516e-03,-6.9251878e-02,2.1536884e-01,-3.2330709e-02
2.1698434e+00,-5.5043857e-05,-2.8795788e-05,-8.2671834e-05,2.5431876e-03,7.0414405e-03,2.5369713e-03,-2.3769228e-04,5.5028807e-05,-1.4767004e-03,-2.1004725e-02,-3.7310361e-02,5.7651238e-03
2.1798434e+00,8.4710822e-05,-3.5702523e-06,4.1900637e-06,1.3979075e-02,2.4939358e-03,1.3977023e-02,2.8941679e-04,-1.7585440e-03,-2.0498411e-04,5.2710958e-02,-1.8135745e-01,1.2717175e-01
2.1898434e+00,3.9874511e-06,-3.7549504e-05,-5.9889291e-05,-8.0803406e-03,-3.3935972e-03,-8.0661646e-03,4.0464466e-05,-4.9651121e-04,-9.7396340e-04,-2.4895257e-02,1.2620340e-01,-7.6898003e-02
2.1998434e+00,1.0184648e-05,-5.0287861e-05,-6.4938525e-05,6.1990038e-04,-1.2744468e-03,6.1828446e-04,2.9546094e-04,-6.8993216e-04,-8.9840395e-04,2.5499672e-02,-1.9342114e-02,7.5559522e-03
2.2098434e+00,-2.4542438e-05,-9.2558000e-05,-2.9293842e-05,-3.4765312e-03,-4.2249998e-03,-3.4713463e-03,2.5215407e-04,-3.2914887e-04,-7.9320247e-04,-4.3306916e-03,3.6078364e-02,1.0520158e-02
2.2198434e+00,8.5059511e-05,-6.1531449e-05,8.4316451e-05,1.0960899e-02,3.0795698e-03,1.0966021e-02,5.4783883e-04,-1.5581855e-03,9.1604517e-05,2.9568504e-02,-1.2290378e-01,8.8480783e-02
2.2298434e+00,6.4546539e-05,-1.0469303e-04,1.1657341e-04,-2.0528144e-03,-4.3121594e-03,-2.0581902e-03,4.4145851e-04,-1.5069956e-03,1.9010603e-04,-1.0638041e-02,5.1189944e-03,9.8501610e-03
2.2398434e+00,-6.8239556e-05,-2.2312476e-04,3.7312792e-05,-1.3299208e-02,-1.1829680e-02,-1.3270056e-02,5.9943684e-04,-4.1779118e-04,-1.0163181e-03,1.5797848e-02,1.0892055e-01,-1.2064253e-01
2.2498434e+00,2.3192777e-05,-1.9417436e-04,2.0920007e-05,9.1488053e-03,2.8844393e-03,9.1410282e-03,6.4709280e-04,-5.1271756e-04,-4.0384816e-04,4.7656004e-03,-9.4926463e-03,6.1247056e-02
2.2598433e+00,-3.4241923e-05,-1.2511785e-04,-8.0728965e-06,-5.7482432e-03,6.9096474e-03,-5.7339000e-03,2.9617654e-04,-3.9902141e-04,-1.1869573e-03,-3.5091659e-02,1.1369625e-02,-7.8310987e-02
2.2698436e+00,-1.1598557e-04,-9.3824866e-05,-3.8216707e-05,-8.1828013e-03,3.1315807e-03,-8.1646421e-03,3.4858622e-04,6.0601543e-05,-1.1892077e-03,5.2408482e-03,4.5961243e-02,-2.2503663e-04
2.2798436e+00,-8.9316656e-05,-1.2237359e-04,-8.4110194e-06,2.6696060e-03,-2.8554156e-03,2.6635992e-03,1.8020799e-04,-2.2660026e-05,-1.2106261e-03,-1.6837840e-02,-8.3261649e-03,-2.1418386e-03
2.2898436e+00,1.0192100e-04,-8.3592143e-05,1.1729851e-04,1.9121959e-02,3.8222576e-03,1.9136858e-02,6.8007497e-04,-2.2414104e-03,2.3312378e-04,4.9986746e-02,-2.2187524e-01,1.4437512e-01
2.2998435e+00,-2.6819732e-05,-9.1335868e-05,4.7479349e-05,-1.2880707e-02,-7.5883852e-04,-1.2868387e-02,3.6833896e-04,-8.3871367e-04,-4.9235690e-04,-3.1173631e-02,1.4026980e-01,-7.2548137e-02
2.3098435e+00,-3.3288945e-05,-1.1896133e-04,-1.8765740e-05,-6.4823843e-04,-2.7621654e-03,-6.4724219e-04,3.1988508e-04,-2.7297195e-04,-6.6932426e-04,-4.8453923e-03,5.6574226e-02,-1.7696753e-02
2.3198435e+00,-4.4591827e-06,-5.5224901e-05,6.7338051e-05,2.8866284e-03,6.3690702e-03,2.8894395e-03,5.2879897e-04,-1.0580361e-03,-9.6927840e-05,2.0891409e-02,-7.8506488e-02,5.7239697e-02
2.3298435e+00,1.4865948e-04,-9.3019057e-06,1.0409009e-04,1.5304079e-02,4.5553682e-03,1.5330703e-02,4.9932730e-04,-1.9110580e-03,6.5898371e-04,-2.9471704e-03,-8.5302269e-02,7.5591227e-02
2.3398435e+00,-1.0696503e-05,-4.6943445e-05,-1.0523568e-04,-1.5963646e-02,-3.7893159e-03,-1.5901558e-02,-9.4370413e-04,6.3646714e-04,-1.9844237e-03,-1.4430328e-01,2.5475275e-01,-2.6434100e-01
2.3498435e+00,-2.1182138e-04,-1.2746640e-04,-7.0616794e-05,-2.0122987e-02,-8.0447535e-03,-2.0105043e-02,-1.3624249e-04,-5.1183583e-04,-5.7580258e-04,8.0746241e-02,-1.1483041e-01,1.4086225e-01
2.3598435e+00,-4.5868580e-04,-8.1286381e-05,-1.0161992e-04,-2.4739779e-02,4.6011160e-03,-2.4636198e-02,-1.1853184e-03,-5.0227313e-04,-1.9404449e-03,-1.0490769e-01,9.5627148e-04,-1.3646436e-01
2.3698435e+00,-9.2828680e-04,-6.2513956e-05,-1.2275108e-04,-4.7040253e-02,1.9120627e-03,-4.6878492e-02,-6.7339342e-04,-1.4172716e-03,-1.6806030e-03,5.1192544e-02,-9.1499933e-02,2.5984211e-02
2.3798435e+00,-1.2184510e-03,-4.5770817e-05,-1.4699953e-05,-2.9057262e-02,1.6953008e-03,-2.8974361e-02,-1.0162552e-03,-1.7419458e-03,-1.3492926e-03,-3.4286209e-02,-3.2467456e-02,3.3131077e-02
2.3898435e+00,-1.5285334e-03,-2.8561877e-04,5.1341486e-05,-3.1031994e-02,-2.3817745e-02,-3.1113128e-02,1.3874512e-03,-3.9924424e-03,3.0690741e-04,2.4037086e-01,-2.2504987e-01,1.6562016e-01
2.3998435e+00,-1.6649412e-03,-4.8904557e-04,7.9798699e-05,-1.3661131e-02,-2.0300171e-02,-1.3683738e-02,1.0495155e-03,-2.0641017e-03,7.3940510e-05,-3.3793603e-02,1.9283425e-01,-2.3296712e-02
2.4098434e+00,-1.7026256e-03,-2.8411826e-04,3.2392319e-04,-3.6485758e-03,2.0535221e-02,-3.6534524e-03,5.2143022e-03,-6.2139162e-03,3.4325778e-03,4.1647907e-01,-4.1498185e-01,3.3586405e-01
2.4198434e+00,-2.4186875e-03,-6.2370624e-04,2.2612826e-05,-7.1655570e-02,-3.3558705e-02,-7.1745432e-02,2.9909135e-03,-2.5913733e-03,7.2502389e-04,-2.2233908e-01,3.6225463e-01,-2.7075565e-01
2.4298434e+00,-2.9764308e-03,-4.3640257e-04,1.1412873e-04,-5.5672688e-02,1.9202530e-02,-5.5715414e-02,3.3743166e-03,-5.0938235e-03,6.8437562e-04,3.8340350e-02,-2.5024526e-01,-4.0648309e-03
2.4398434e+00,-3.3435430e-03,-5.1619901e-04,3.5504988e-04,-3.6700034e-02,-7.5789873e-03,-3.6807250e-02,4.3817898e-03,-6.5174439e-03,1.2476947e-03,1.0074741e-01,-1.4236218e-01,5.6331965e-02
2.4498434e+00,-3.8017578e-03,-1.0818077e-03,2.6057525e-04,-4.6118418e-02,-5.6201264e-02,-4.5965975e-02,5.1947493e-03,-2.6336521e-03,-8.0674289e-05,8.1296031e-02,3.8837955e-01,-1.3283703e-01
2.4598434e+00,-3.9128975e-03,-1.2507692e-03,2.2502560e-04,-1.1201842e-02,-1.6813243e-02,-1.1151468e-02,5.5759467e-03,-1.8580849e-03,5.5570866e-04,3.8119776e-02,7.7556795e-02,6.3638355e-02
2.4698434e+00,-4.2262761e-03,-9.8066167e-04,-6.4406519e-05,-3.1280101e-02,2.7201756e-02,-3.1230247e-02,3.4472986e-03,-2.6580919e-03,-1.1338632e-03,-2.1286502e-01,-8.0000780e-02,-1.6895735e-01
2.4798434e+00,-4.8897934e-03,-8.7696392e-04,-9.5309892e-06,-6.6393498e-02,1.0903702e-02,-6.6224366e-02,3.7490168e-03,-4.3056025e-03,-1.2221994e-03,3.0171846e-02,-1.6475122e-01,-8.8336251e-03
2.4898434e+00,-5.4103314e-03,-1.2170450e-03,3.5919374e-05,-5.2194536e-02,-3.3574323e-02,-5.2194384e-02,4.1552518e-03,-4.1674659e-03,3.2433676e-06,4.0623540e-02,1.3813672e-02,1.2254439e-01
2.4998434e+00,-5.8791531e-03,-1.3863104e-03,2.4008171e-04,-4.6913770e-02,-1.6308998e-02,-4.7069177e-02,7.2977108e-03,-5.8480492e-03,1.9332054e-03,3.1424620e-01,-1.6805848e-01,1.9299639e-01
2.5098433e+00,-6.5297691e-03,-1.8493647e-03,1.3378496e-04,-6.5373036e-02,-4.5683091e-02,-6.5189398e-02,6.2028695e-03,-3.3468202e-03,-3.9049001e-04,-1.0948423e-01,2.5012313e-01,-2.3236976e-01
2.5198436e+00,-6.8934038e-03,-1.6645550e-03,1.7387851e-04,-3.6182590e-02,1.8989185e-02,-3.6280096e-02,7.6941074e-03,-6.3130525e-03,1.0112148e-03,1.4912037e-01,-2.9661644e-01,1.4016728e-01
2.5298436e+00,-7.3699047e-03,-1.7660723e-03,1.6294511e-04,-4.7682808e-02,-9.5352840e-03,-4.7744695e-02,7.5457278e-03,-5.3776081e-03,8.9294253e-04,-1.4837969e-02,9.3544531e-02,-1.1827241e-02
2.5398436e+00,-7.8191241e-03,-2.0989193e-03,1.6030723e-04,-4.5133667e-02,-3.2742952e-02,-4.5107591e-02,8.6240526e-03,-3.3991706e-03,1.6391963e-03,1.0783258e-01,1.9784394e-01,7.4625448e-02
2.5498435e+00,-8.3412945e-03,-2.5911374e-03,3.1079074e-05,-5.2573464e-02,-4.8700502e-02,-5.2348172e-02,9.2585775e-03,-6.8399437e-04,1.8578343e-03,6.3452557e-02,2.7151788e-01,2.1863819e-02
2.5598435e+00,-8.9388074e-03,-2.2813785e-03,2.5499755e-04,-5.9386274e-02,3.1793558e-02,-5.9685805e-02,9.0177764e-03,-4.6867209e-03,1.3934113e-03,-2.4080141e-02,-4.0027303e-01,-4.6442345e-02
2.5698435e+00,-9.6471354e-03,-2.5673564e-03,3.5512838e-04,-7.1006759e-02,-2.7551047e-02,-7.1073240e-02,1.0239921e-02,-4.5057365e-03,1.6254641e-03,1.2221455e-01,1.8098454e-02,2.3205307e-02
2.5798435e+00,-1.0433602e-02,-2.8118212e-03,2.7036891e-04,-7.8880960e-02,-2.3612441e-02,-7.8667019e-02,9.0714305e-03,-1.5211192e-03,-1.9949571e-04,-1.1684913e-01,2.9846202e-01,-1.8249616e-01
2.5898435e+00,-1.1051388e-02,-2.9814633e-03,2.1428968e-04,-6.1971187e-02,-1.6378721e-02,-6.1743781e-02,8.9865561e-03,-4.8021842e-04,-6.8973561e-04,-8.4874544e-03,1.0409018e-01,-4.9024037e-02
2.5998435e+00,-1.1491226e-02,-3.1827950e-03,3.5952169e-04,-4.4166839e-02,-1.9583870e-02,-4.4048426e-02,1.0502938e-02,-1.9590309e-03,5.9158902e-04,1.5163834e-01,-1.4788139e-01,1.2813258e-01
2.6098435e+00,-1.1887835e-02,-3.4015187e-03,4.7509505e-04,-3.9873985e-02,-2.1394604e-02,-3.9707947e-02,1.1005282e-02,-1.0075027e-03,6.3715808e-04,5.0234436e-02,9.5152916e-02,4.5569107e-03
2.6198435e+00,-1.2036606e-02,-3.4481550e-03,4.7832764e-04,-1.4911359e-02,-4.4690822e-03,-1.4902554e-02,1.2000618e-02,-1.0523551e-03,1.3880792e-03,9.9533679e-02,-4.4852464e-03,7.5092183e-02
2.6298435e+00,-1.2383485e-02,-3.2079868e-03,4.4030363e-04,-3.4308012e-02,2.4597545e-02,-3.4658866e-02,1.2912022e-02,-3.8848357e-03,1.9281299e-03,9.1140485e-02,-2.8324833e-01,5.4005126e-02
2.6398435e+00,-1.2986940e-02,-3.1272322e-03,5.8238690e-04,-6.0128079e-02,9.1966195e-03,-6.0402025e-02,1.2680316e-02,-5.9014482e-03,1.8237891e-03,-2.3170628e-02,-2.0166144e-01,-1.0434092e-02
2.6498435e+00,-1.3637810e-02,-3.4022382e-03,5.8247774e-04,-6.5349114e-02,-2.6461514e-02,-6.5255024e-02,1.1930489e-02,-3.9976670e-03,9.4301355e-04,-7.4982730e-02,1.9037830e-01,-8.8077641e-02
2.6598434e+00,-1.4258798e-02,-3.6572256e-03,6.5861595e-04,-6.2380599e-02,-2.4516773e-02,-6.2211824e-02,1.2549848e-02,-3.2276648e-03,5.3709859e-04,6.1935911e-02,7.7000291e-02,-4.0591535e-02
2.6698434e+00,-1.4779074e-02,-3.7896500e-03,7.1930510e-04,-5.2163410e-02,-1.2382520e-02,-5.2103518e-02,1.2714826e-02,-3.7895892e-03,5.4668722e-04,1.6497850e-02,-5.6192498e-02,9.5886380e-04
2.6798434e+00,-1.5205759e-02,-3.8940381e-03,7.1952073e-04,-4.2728701e-02,-9.6349584e-03,-4.2797236e-02,1.3655616e-02,-5.1490976e-03,1.8358640e-03,9.4079044e-02,-1.3595096e-01,1.2891780e-01
2.6898434e+00,-1.5867044e-02,-4.0608253e-03,6.2025836e-04,-6.6238093e-02,-1.5409508e-02,-6.6326627e-02,1.4476429e-02,-4.6795014e-03,1.8884996e-03,8.2081382e-02,4.6959664e-02,5.2635646e-03
2.6998434e+00,-1.6737080e-02,-4.6835043e-03,4.8645972e-04,-8.7782362e-02,-6.0895114e-02,-8.7192860e-02,1.4782698e-02,-9.1711369e-04,1.5182053e-03,3.0626938e-02,3.7623913e-01,-3.7029464e-02
2.7098434e+00,-1.7346932e-02,-4.9431705e-03,6.1462770e-04,-6.1308476e-02,-2.4979256e-02,-6.1073624e-02,1.4945879e-02,-1.1963041e-03,9.5209342e-04,1.6318140e-02,-2.7919066e-02,-5.6611241e-02
2.7198434e+00,-1.8016777e-02,-4.9306171e-03,9.1741713e-04,-6.6884798e-02,2.5605333e-03,-6.7047136e-02,1.5996162e-02,-3.4884730e-03,1.0617662e-03,1.0502843e-01,-2.2921711e-01,1.0967291e-02
2.7298434e+00,-1.8366184e-02,-5.1357523e-03,9.2769539e-04,-3.5217986e-02,-1.9817100e-02,-3.5064057e-02,1.6840317e-02,-3.0011861e-03,1.8074348e-03,8.4415550e-02,4.8728743e-02,7.4566925e-02
2.7398434e+00,-1.8823981e-02,-5.2978557e-03,9.1234298e-04,-4.5945060e-02,-1.5354477e-02,-4.5908970e-02,1.7354364e-02,-1.2852871e-03,2.3798258e-03,5.1404778e-02,1.7159006e-01,5.7239158e-02
2.7498434e+00,-1.9479146e-02,-5.2522685e-03,1.0086887e-03,-6.5278342e-02,5.8001081e-03,-6.5656101e-02,1.7171288e-02,-1.7835863e-03,2.2915416e-03,-1.8307650e-02,-4.9829965e-02,-8.8284324e-03
2.7598433e+00,-2.0234472e-02,-5.1907053e-03,1.1179739e-03,-7.5246787e-02,7.7874506e-03,-7.5667266e-02,1.7385997e-02,-4.2137622e-03,2.2138805e-03,2.1470923e-02,-2.4301782e-01,-7.7661129e-03
2.7698436e+00,-2.1372803e-02,-5.4913494e-03,1.0713413e-03,-1.1408661e-01,-2.7351471e-02,-1.1425731e-01,1.8670506e-02,-5.0956634e-03,2.5033757e-03,1.2844794e-01,-8.8188106e-02,2.8948858e-02
2.7798436e+00,-2.2268870e-02,-5.8384701e-03,1.2277883e-03,-8.9975753e-02,-3.2491745e-02,-9.0068588e-02,1.9376827e-02,-5.3083058e-03,3.1958501e-03,7.0632218e-02,-2.1264260e-02,6.9247501e-02
2.7898436e+00,-2.2970273e-02,-5.9217737e-03,1.2362062e-03,-7.0080785e-02,-6.4836027e-03,-7.0394481e-02,2.0329812e-02,-5.9568121e-03,3.0524689e-03,9.5298570e-02,-6.4850695e-02,-1.4338124e-02
2.7998435e+00,-2.3673291e-02,-6.2276259e-03,1.2174989e-03,-7.0737839e-02,-2.8668402e-02,-7.0671324e-02,2.1881373e-02,-5.2601466e-03,3.0729297e-03,1.5515630e-01,6.9666620e-02,2.0460728e-03
2.8098435e+00,-2.4511251e-02,-6.3902298e-03,1.1978890e-03,-8.3957453e-02,-1.4000550e-02,-8.4042291e-02,2.1814156e-02,-5.0971788e-03,2.0671165e-03,-6.7217775e-03,1.6296796e-02,-1.0058141e-01
2.8198435e+00,-2.5422272e-02,-6.5222093e-03,1.2451760e-03,-9.1203961e-02,-1.0580420e-02,-9.1341535e-02,2.2673945e-02,-6.0090060e-03,1.9079002e-03,8.5979025e-02,-9.1182806e-02,-1.5921646e-02
2.8298435e+00,-2.6334080e-02,-6.6460463e-03,1.2909705e-03,-9.1237494e-02,-9.3945279e-03,-9.1480750e-02,2.4414758e-02,-8.3065674e-03,2.3938484e-03,1.7408143e-01,-2.2975636e-01,4.8594873e-02
2.8397839e+00,-2.7206907e-02,-7.0413279e-03,1.3246803e-03,-8.8527944e-02,-3.7137596e-02,-8.8231043e-02,2.3607604e-02,-6.1718604e-03,2.1890048e-03,-8.1199445e-02,2.1475092e-01,-2.0607208e-02
2.8497839e+00,-2.7998745e-02,-7.4761877e-03,1.4514289e-03,-7.9944576e-02,-4.0964106e-02,-7.9762203e-02,2.5319423e-02,-6.3203478e-03,3.9679635e-03,1.7118203e-01,-1.4848760e-02,1.7789604e-01
2.8597546e+00,-2.8907381e-02,-7.8670464e-03,1.3848386e-03,-9.1733709e-02,-3.6345426e-02,-9.1707978e-02,2.6646479e-02,-4.5127572e-03,4.4818130e-03,1.3309609e-01,1.8129089e-01,5.1536129e-02
2.8697546e+00,-2.9860812e-02,-8.1101817e-03,1.3183799e-03,-9.5714652e-02,-2.1749886e-02,-9.5589887e-02,2.4604632e-02,-2.2044235e-03,2.0724315e-03,-2.0418492e-01,2.3083358e-01,-2.4093838e-01
2.8797545e+00,-3.1251424e-02,-8.4433417e-03,1.4474262e-03,-1.3942037e-01,-2.8802396e-02,-1.3970843e-01,2.7832719e-02,-4.5170920e-03,3.6911859e-03,3.2280905e-01,-2.3126707e-01,1.6187559e-01
2.8897545e+00,-3.2729488e-02,-9.0598404e-03,1.2500249e-03,-1.4918950e-01,-5.7080341e-02,-1.4825183e-01,2.8849816e-02,-1.8915998e-03,2.2565098e-03,1.0170979e-01,2.6254947e-01,-1.4346775e-01
2.8997545e+00,-3.3937933e-02,-9.4940509e-03,1.4114568e-03,-1.2173206e-01,-3.9438020e-02,-1.2131854e-01,3.0108780e-02,-2.6838171e-03,3.0154435e-03,1.2589652e-01,-7.9221800e-02,7.5893450e-02
2.9097545e+00,-3.5115258e-02,-9.6426075e-03,1.5730157e-03,-1.1774994e-01,-1.0654274e-02,-1.1816962e-01,3.1019268e-02,-4.5948514e-03,3.2796639e-03,9.1048859e-02,-1.9110362e-01,2.6422064e-02
2.9197545e+00,-3.6240222e-02,-9.9850311e-03,1.6013509e-03,-1.1314847e-01,-2.9907929e-02,-1.1307701e-01,3.2897729e-02,-5.4491042e-03,3.6685631e-03,1.8784628e-01,-8.5425358e-02,3.8889956e-02
2.9297545e+00,-3.7341616e-02,-1.0115052e-02,1.6084038e-03,-1.1006840e-01,-8.6160380e-03,-1.1064000e-01,3.3121986e-02,-6.6136864e-03,3.9989256e-03,2.2425757e-02,-1.1645833e-01,3.3036276e-02
2.9397545e+00,-3.8801956e-02,-1.0826934e-02,1.6097975e-03,-1.4775777e-01,-6.5513288e-02,-1.4695348e-01,3.4386822e-02,-4.1703326e-03,4.3552704e-03,1.2648371e-01,2.4433561e-01,3.5634521e-02
2.9497545e+00,-4.0363453e-02,-1.1107989e-02,1.5967395e-03,-1.5642148e-01,-2.1631682e-02,-1.5690720e-01,3.6171610e-02,-5.1544802e-03,4.1070572e-03,1.7847891e-01,-9.8414852e-02,-2.4821351e-02
2.9597545e+00,-4.2026021e-02,-1.1581931e-02,1.6374549e-03,-1.6742050e-01,-4.0159343e-02,-1.6699276e-01,3.7770863e-02,-5.5307202e-03,3.0483314e-03,1.5992546e-01,-3.7624040e-02,-1.0587268e-01
2.9697545e+00,-4.3442391e-02,-1.2111725e-02,1.7542268e-03,-1.4316443e-01,-4.6767624e-02,-1.4228738e-01,3.8205883e-02,-5.3676001e-03,2.7705111e-03,4.3502055e-02,1.6312026e-02,-2.7782054e-02
2.9797544e+00,-4.4869668e-02,-1.2339648e-02,1.8755156e-03,-1.4303853e-01,-1.6070976e-02,-1.4333061e-01,3.9447936e-02,-7.5016784e-03,3.3374511e-03,1.2420545e-01,-2.1340804e-01,5.6694050e-02
2.9897544e+00,-4.6130998e-02,-1.2812812e-02,1.8796904e-03,-1.2746612e-01,-4.1365666e-02,-1.2688288e-01,4.0459315e-02,-6.3922698e-03,3.7798740e-03,1.0113798e-01,1.1094097e-01,4.4242337e-02
2.9997544e+00,-4.7458315e-02,-1.3308585e-02,1.8703914e-03,-1.3420106e-01,-4.2843524e-02,-1.3359605e-01,4.3160294e-02,-7.1989732e-03,4.1071896e-03,2.7009821e-01,-8.0670419e-02,3.2731593e-02
3.0097544e+00,-4.9021106e-02,-1.3966578e-02,1.8007426e-03,-1.5849143e-01,-5.8091337e-02,-1.5710448e-01,4.4396303e-02,-4.5059261e-03,3.5391586e-03,1.2360100e-01,2.6930497e-01,-5.6803153e-02
3.0197546e+00,-5.0944461e-02,-1.4585904e-02,1.9951834e-03,-1.9429157e-01,-5.1883565e-02,-1.9333101e-01,4.6390358e-02,-5.4965566e-03,3.6568153e-03,1.9940094e-01,-9.9060786e-02,1.1765396e-02
3.0297546e+00,-5.2736657e-02,-1.4880137e-02,2.0463070e-03,-1.7988063e-01,-1.9677234e-02,-1.7989133e-01,4.7145859e-02,-7.0460821e-03,2.9339300e-03,7.5550092e-02,-1.5495270e-01,-7.2288594e-02
3.0397546e+00,-5.4517646e-02,-1.5315997e-02,2.1529681e-03,-1.7939240e-01,-3.3345556e-02,-1.7901062e-01,4.8746916e-02,-8.4442811e-03,3.4696961e-03,1.6010589e-01,-1.3982003e-01,5.3576662e-02
3.0497546e+00,-5.6219774e-02,-1.6044628e-02,2.1398157e-03,-1.7311183e-01,-6.2771499e-02,-1.7130661e-01,5.1083105e-02,-7.6305122e-03,3.5159322e-03,2.3361914e-01,8.1376965e-02,4.6236126e-03
3.0597546e+00,-5.8187253e-02,-1.6465531e-02,2.1116462e-03,-1.9782877e-01,-2.9839895e-02,-1.9790045e-01,5.2926894e-02,-9.0166734e-03,4.4145877e-03,1.8437911e-01,-1.3861625e-01,8.9865637e-02
3.0697546e+00,-6.0081764e-02,-1.7196498e-02,2.0092455e-03,-1.9251567e-01,-6.1823997e-02,-1.9037393e-01,5.2943976e-02,-6.0189831e-03,2.8377315e-03,1.7081360e-03,2.9976932e-01,-1.5768578e-01
3.0797546e+00,-6.2119289e-02,-1.7642436e-02,2.0743643e-03,-2.0510504e-01,-3.1294874e-02,-2.0486931e-01,5.5114031e-02,-9.8053120e-03,3.8927633e-03,2.1700574e-01,-3.7863326e-01,1.0550328e-01
3.0897546e+00,-6.4196279e-02,-1.8214068e-02,2.2996765e-03,-2.0949917e-01,-4.2350203e-02,-2.0943294e-01,5.8368890e-02,-1.2427444e-02,5.6700355e-03,3.2548617e-01,-2.6221348e-01,1.7772739e-01
3.0997546e+00,-6.6648045e-02,-1.9671834e-02,2.0932489e-03,-2.5237784e-01,-1.2952134e-01,-2.4698945e-01,5.9445293e-02,-5.8062714e-03,4.1776907e-03,1.0764038e-01,6.6211792e-01,-1.4923462e-01
3.1097546e+00,-6.8932645e-02,-1.9904784e-02,2.1918093e-03,-2.2851947e-01,-6.9032824e-03,-2.2948206e-01,6.1615927e-02,-9.9357746e-03,4.1133108e-03,2.1706363e-01,-4.1295071e-01,-6.4379986e-03
3.1197546e+00,-7.1247275e-02,-2.0879957e-02,2.0022878e-03,-2.3636496e-01,-8.1257148e-02,-2.3278531e-01,6.2165761e-02,-7.2780111e-03,3.0605872e-03,5.4983459e-02,2.6577660e-01,-1.0527246e-01
3.1297545e+00,-7.3610340e-02,-2.2262265e-02,1.7255201e-03,-2.4426136e-01,-1.2279928e-01,-2.3674094e-01,6.3896399e-02,-2.5617328e-04,1.6473707e-03,1.7306394e-01,7.0218445e-01,-1.4132178e-01
3.1397545e+00,-7.5791404e-02,-2.2065175e-02,2.2928852e-03,-2.1546410e-01,3.6578752e-02,-2.1855565e-01,6.7213020e-02,-1.0357900e-02,3.7811935e-03,3.3166250e-01,-1.0101736e+00,2.1338249e-01
3.1497545e+00,-7.8112670e-02,-2.2989961e-02,2.1729962e-03,-2.3715818e-01,-7.3956366e-02,-2.3367609e-01,6.8811707e-02,-1.0042750e-02,3.3455582e-03,1.5986884e-01,3.1514994e-02,-4.3563581e-02
