time, x, y, z, vx, vy, vz, yaw, pitch, roll, yaw_rate, pitch_rate, roll_rate
0.0000000e+00,0.0000000e+00,0.0000000e+00,0.0000000e+00,0.0000000e+00,0.0000000e+00,0.0000000e+00,0.0000000e+00,0.0000000e+00,0.0000000e+00,0.0000000e+00,0.0000000e+00,0.0000000e+00
9.9999905e-03,-1.6792403e-04,-5.7797799e-04,-3.0987351e-04,-1.6839551e-02,-5.7866749e-02,-1.6505497e-02,4.5466136e-04,4.5999466e-03,-1.2427165e-03,4.5466179e-02,4.5999509e-01,-1.2427177e-01
1.9999981e-02,2.5119437e-05,-1.9879597e-04,-6.6807761e-05,1.9312648e-02,3.7923371e-02,1.9285989e-02,3.6405703e-04,6.3031633e-04,2.8594785e-04,-9.0604413e-03,-3.9696340e-01,1.5286658e-01
2.9999971e-02,-1.3328950e-04,-7.4410926e-04,-4.0446505e-04,-1.5881088e-02,-5.4613838e-02,-1.5513219e-02,3.3089000e-04,5.5982500e-03,-1.3984062e-03,-3.3167060e-03,4.9679384e-01,-1.6843557e-01
3.9999962e-02,-1.0689453e-04,-5.6364788e-04,-2.7035452e-04,2.6489286e-03,1.8055641e-02,2.5641084e-03,3.8199636e-04,4.0357286e-03,-9.6108594e-04,5.1106409e-03,-1.5625229e-01,4.3732072e-02
4.9999952e-02,1.1727722e-04,4.0747177e-05,1.0308894e-04,2.2430196e-02,6.0393984e-02,2.2526763e-02,4.3643239e-04,-1.5921431e-03,5.9648916e-04,5.4436080e-03,-5.6278771e-01,1.5575766e-01
5.9999943e-02,1.5909293e-04,5.3460795e-06,4.3147387e-05,4.1781258e-03,-3.5466241e-03,4.1795053e-03,3.4396904e-04,-1.2131372e-03,5.3348615e-04,-9.2463434e-03,3.7900623e-02,-6.3003065e-03
6.9999933e-02,4.0441918e-05,-3.6060056e-04,-2.0935831e-04,-1.1880370e-02,-3.6617033e-02,-1.1780640e-02,3.5579903e-04,2.2465426e-03,-1.8860683e-04,1.1829999e-03,3.4596831e-01,-7.2209368e-02
7.9999924e-02,1.6942722e-04,-2.2941465e-05,1.6930555e-05,1.2896062e-02,3.3752686e-02,1.2935666e-02,1.1463367e-04,-9.1154402e-04,4.9230720e-04,-2.4116560e-02,-3.1580896e-01,6.8091469e-02
8.9999914e-02,1.4853411e-04,-1.6123630e-07,5.0557435e-05,-2.0871735e-03,2.2812034e-03,-2.0879840e-03,2.6557121e-04,-1.2556633e-03,7.3437570e-04,1.5093769e-02,-3.4411962e-02,2.4206873e-02
9.9999905e-02,-2.1529532e-05,-3.6807725e-04,-1.6237839e-04,-1.7022910e-02,-3.6833903e-02,-1.6898005e-02,1.9355263e-04,2.6882328e-03,-5.5340590e-04,-7.2018656e-03,3.9438998e-01,-1.2877828e-01
1.0999990e-01,1.7131921e-04,2.1059270e-05,5.7477616e-05,1.9279996e-02,3.8880289e-02,1.9357021e-02,1.7315042e-04,-1.5553993e-03,6.0306919e-04,-2.0402225e-03,-4.2436361e-01,1.1564762e-01
1.1999989e-01,1.4419632e-04,2.5284408e-06,3.8857701e-05,-2.7116769e-03,-1.8503119e-03,-2.7147978e-03,2.2486725e-05,-9.9925774e-04,2.4190539e-04,-1.5066384e-02,5.5614213e-02,-3.6116415e-02
1.2999988e-01,1.5956819e-04,2.8770380e-05,5.0551078e-05,1.5366829e-03,2.6221925e-03,1.5411094e-03,8.1506634e-05,-1.2202788e-03,4.6816336e-04,5.9019965e-03,-2.2102127e-02,2.2625819e-02
1.3999987e-01,2.6780018e-05,-2.9553595e-04,-1.2107871e-04,-1.3292185e-02,-3.2456520e-02,-1.3202074e-02,2.1388429e-04,2.1678885e-03,-4.8350575e-04,1.3237778e-02,3.3881705e-01,-9.5167002e-02
1.4999986e-01,1.8923151e-04,8.7605232e-05,8.5078230e-05,1.6246136e-02,3.8278163e-02,1.6328826e-02,4.1331436e-04,-1.7966160e-03,9.1450833e-04,1.9943026e-02,-3.9645083e-01,1.3980154e-01
1.5999985e-01,5.9546381e-05,-2.9238805e-04,-1.5117934e-04,-1.2970089e-02,-3.8034507e-02,-1.2863517e-02,-1.0088605e-04,2.6200918e-03,-4.1631306e-04,-5.1420090e-02,4.4167120e-01,-1.3308227e-01
1.6999984e-01,-1.3787536e-04,-6.6380342e-04,-3.9295766e-04,-1.9787257e-02,-3.7242254e-02,-1.9505991e-02,4.3924398e-04,5.5766971e-03,-1.4574316e-03,5.4013055e-02,2.9566081e-01,-1.0411195e-01
1.7999983e-01,-1.9100443e-04,-7.3614413e-04,-4.7900057e-04,-5.3265261e-03,-7.2635743e-03,-5.2587601e-03,5.6024567e-04,6.1491847e-03,-1.8013977e-03,1.2100181e-02,5.7248816e-02,-3.4396648e-02
1.8999982e-01,-8.4653374e-05,-7.4630268e-04,-4.9651835e-04,1.0648304e-02,-9.5413207e-04,1.0627633e-02,2.9669530e-04,6.1064815e-03,-1.2692912e-03,-2.6355062e-02,-4.2703233e-03,5.3210699e-02
1.9999981e-01,-1.8127755e-04,-8.4372152e-04,-5.1915494e-04,-9.6854390e-03,-9.7994992e-03,-9.5807902e-03,5.9203719e-04,6.5877786e-03,-1.7865163e-03,2.9534217e-02,4.8129752e-02,-5.1722558e-02
2.0999980e-01,-1.6061394e-04,-6.2827431e-04,-4.2955126e-04,2.0749779e-03,2.1554381e-02,1.9541420e-03,2.7778873e-04,5.0850071e-03,-1.2739853e-03,-3.1424876e-02,-1.5027729e-01,5.1253146e-02
2.1999979e-01,9.0773905e-05,5.1072430e-05,2.3721033e-05,2.5148126e-02,6.7889606e-02,2.5251165e-02,2.8866833e-04,-1.5028979e-03,4.0934285e-04,1.0879611e-03,-6.5879113e-01,1.6833298e-01
2.2999978e-01,9.3636508e-05,1.8210876e-05,8.1177647e-05,2.8428421e-04,-3.2868968e-03,2.7967755e-04,5.4754281e-04,-2.0564317e-03,6.1792670e-04,2.5887472e-02,-5.5353433e-02,2.0858404e-02
2.4000001e-01,1.2676647e-04,-6.7397060e-07,9.2855933e-05,3.3111122e-03,-1.8940846e-03,3.3115052e-03,1.4340347e-04,-1.5599641e-03,4.6378056e-04,-4.0413008e-02,4.9645623e-02,-1.5414261e-02
2.5000000e-01,1.6436307e-04,-3.3798790e-05,1.2744627e-04,3.7562399e-03,-3.3190334e-03,3.7573100e-03,2.4795245e-04,-1.4937486e-03,6.9192361e-04,1.0454907e-02,6.6215561e-03,2.2814327e-02
2.5999999e-01,1.6548362e-04,4.9028531e-05,1.7002529e-04,1.1497482e-04,8.2824268e-03,1.3069044e-04,3.6377147e-04,-2.2383086e-03,8.3521625e-04,1.1581913e-02,-7.4456076e-02,1.4329277e-02
2.6999998e-01,1.7137897e-04,1.2496229e-04,1.9152535e-04,5.9125508e-04,7.5916141e-03,6.1023928e-04,2.8216585e-04,-2.6711068e-03,7.1672332e-04,-8.1605700e-03,-4.3279852e-02,-1.1849304e-02
2.7999997e-01,1.4033636e-04,1.4853637e-04,1.6882595e-04,-3.1002090e-03,2.3678005e-03,-3.1004045e-03,5.8222392e-04,-2.7657320e-03,8.6340285e-04,3.0005836e-02,-9.4625353e-03,1.4667967e-02
2.8999996e-01,-1.9998064e-04,-8.5570881e-04,-4.7890154e-04,-3.4120961e-02,-1.0064468e-01,-3.3284068e-02,3.5631446e-04,6.9042366e-03,-1.5717656e-03,-2.2590968e-02,9.6699779e-01,-2.4351708e-01
2.9999995e-01,-1.0747928e-04,-4.4864162e-04,-2.6290321e-04,9.2734448e-03,4.0736075e-02,9.0964756e-03,4.2051480e-04,3.6216221e-03,-6.6864678e-04,6.4200401e-03,-3.2826176e-01,9.0311968e-02
3.0999994e-01,-5.1173665e-06,-2.1501077e-04,-2.0845839e-04,1.0240739e-02,2.3382021e-02,1.0188364e-02,7.6950795e-05,1.9294580e-03,-2.6769621e-04,-3.4356434e-02,-1.6921657e-01,4.0095095e-02
3.1999993e-01,-6.0051686e-05,-5.4052730e-04,-3.9140069e-04,-5.4960978e-03,-3.2579430e-02,-5.3236644e-03,-1.1414750e-04,5.0173108e-03,-1.1613861e-03,-1.9109848e-02,3.0878558e-01,-8.9369070e-02
3.2999992e-01,-8.7418143e-05,-6.2570864e-04,-3.9126068e-04,-2.7412728e-03,-8.5331202e-03,-2.6848694e-03,7.4365466e-05,5.6044691e-03,-1.4594235e-03,1.8851314e-02,5.8715880e-02,-2.9803773e-02
3.3999991e-01,-1.0503531e-04,-5.5389967e-04,-3.1804636e-04,-1.7612664e-03,7.1732377e-03,-1.7931203e-03,3.2276439e-04,4.6351206e-03,-1.0598458e-03,2.4839916e-02,-9.6934941e-02,3.9957814e-02
3.4999990e-01,3.1443544e-06,-1.9050148e-04,-4.1768245e-05,1.0838044e-02,3.6345239e-02,1.0779730e-02,5.1136715e-04,1.0115007e-03,-1.3737811e-04,1.8860294e-02,-3.6236233e-01,9.2246853e-02
3.5999990e-01,-1.2027959e-04,-7.7915109e-04,-4.0706836e-04,-1.2383793e-02,-5.8934791e-02,-1.1962120e-02,3.9149393e-04,6.1442430e-03,-1.4872581e-03,-1.1987333e-02,5.1327472e-01,-1.3498813e-01
3.6999989e-01,-1.1332487e-04,-9.1073091e-04,-5.0046605e-04,6.9425063e-04,-1.3152787e-02,7.8892920e-04,1.9265812e-04,7.2035900e-03,-1.8894744e-03,-1.9883600e-02,1.0593480e-01,-4.0221668e-02
3.7999988e-01,1.3755840e-04,-1.1103581e-04,3.5723924e-05,2.5090598e-02,7.9969550e-02,2.5086219e-02,5.6302149e-05,5.4870263e-05,8.9892044e-05,-1.3635610e-02,-7.1487266e-01,1.9793683e-01
3.8999987e-01,2.0027121e-04,1.5026708e-04,1.3717817e-04,6.2780804e-03,2.6109660e-02,6.3500175e-03,5.0756881e-04,-2.7664541e-03,1.0309011e-03,4.5126709e-02,-2.8213270e-01,9.4100997e-02
3.9999986e-01,7.0100548e-05,-1.3805663e-04,-5.8382373e-05,-1.3026269e-02,-2.8831902e-02,-1.3008982e-02,4.5109304e-04,4.1322636e-04,2.9296115e-04,-5.6475827e-03,3.1796835e-01,-7.3794067e-02
4.0999985e-01,-1.8598996e-04,-8.3807126e-04,-4.6989030e-04,-2.5692809e-02,-7.0147445e-02,-2.5121288e-02,6.5046425e-04,6.4147244e-03,-1.4929948e-03,1.9937140e-02,6.0015037e-01,-1.7859577e-01
4.1999984e-01,1.2120328e-04,5.8691486e-05,4.0833528e-05,3.0728213e-02,8.9617135e-02,3.0882890e-02,2.8239280e-04,-1.6406021e-03,5.3579563e-04,-3.6807180e-02,-8.0553341e-01,2.0287924e-01
4.2999983e-01,1.0094280e-04,4.0539398e-05,5.0679963e-05,-2.0252732e-03,-1.8115538e-03,-2.0300954e-03,2.3910557e-04,-1.5637348e-03,5.9739440e-04,-4.3287263e-03,7.6867315e-03,6.1598830e-03
4.3999982e-01,-8.1383963e-05,-4.6208822e-04,-2.2904627e-04,-1.8253706e-02,-5.0327355e-02,-1.8032523e-02,6.3698120e-05,3.6254482e-03,-9.7732457e-04,-1.7540762e-02,5.1891879e-01,-1.5747205e-01
4.4999981e-01,-8.5283890e-05,-6.2124710e-04,-3.4081955e-04,-3.9088146e-04,-1.5917673e-02,-3.0833966e-04,2.7413240e-05,5.1015349e-03,-1.1600136e-03,-3.6284915e-03,1.4760882e-01,-1.8268924e-02
4.5999980e-01,1.4362958e-04,2.8056419e-05,1.6157050e-04,2.2893768e-02,6.4886451e-02,2.3013301e-02,3.3971748e-04,-1.5757320e-03,8.5836984e-04,3.1230454e-02,-6.6772733e-01,2.0183854e-01
4.6999979e-01,1.0900714e-04,1.2165412e-04,1.8242356e-04,-3.4527482e-03,9.3708986e-03,-3.4415926e-03,6.9233390e-04,-2.5264435e-03,8.7128080e-04,3.5261676e-02,-9.5071245e-02,1.2910980e-03
4.7999978e-01,6.4280752e-05,2.0383686e-05,1.1481586e-04,-4.4760813e-03,-1.0118855e-02,-4.4877337e-03,5.5244282e-04,-1.2777488e-03,4.8189375e-04,-1.3989121e-02,1.2486959e-01,-3.8938742e-02
4.9000001e-01,-4.9714421e-05,-2.9515100e-04,-9.3791556e-05,-1.1424755e-02,-3.1563680e-02,-1.1343323e-02,6.3474854e-04,1.5987604e-03,-4.8022635e-04,8.2303841e-03,2.8764434e-01,-9.6209808e-02
5.0000000e-01,-1.4728009e-04,-6.0492104e-04,-3.2809563e-04,-9.7874576e-03,-3.1018824e-02,-9.5914782e-03,5.9034399e-04,4.9189357e-03,-1.2918169e-03,-4.4404599e-03,3.3201784e-01,-8.1159137e-02
5.0999999e-01,-1.5809670e-04,-5.9682613e-04,-3.7044788e-04,-1.0823373e-03,8.0478851e-04,-1.0844915e-03,6.5143049e-04,4.9959424e-03,-1.1131943e-03,6.1086564e-03,7.7006846e-03,1.7862285e-02
5.1999998e-01,-1.3386945e-04,-6.4531686e-04,-4.4972445e-04,2.4236089e-03,-4.8371889e-03,2.4455034e-03,3.8279795e-04,5.2679909e-03,-1.1309645e-03,-2.6863280e-02,2.7204872e-02,-1.7770291e-03
5.2999997e-01,-2.1071636e-04,-7.8105729e-04,-5.8570825e-04,-7.7030021e-03,-1.3620663e-02,-7.5832359e-03,3.3524175e-04,6.4485214e-03,-1.7914255e-03,-4.7556247e-03,1.1805317e-01,-6.6046158e-02
5.3999996e-01,-6.1878972e-05,-4.5232559e-04,-3.0549365e-04,1.4901718e-02,3.2925189e-02,1.4750264e-02,1.7754293e-04,3.6885364e-03,-8.1522402e-04,-1.5769898e-02,-2.7599877e-01,9.7620239e-02
5.4999995e-01,1.2891814e-05,-3.0896204e-04,-1.9339398e-04,7.4816865e-03,1.4350967e-02,7.4444085e-03,1.3976018e-04,2.0970556e-03,-3.4741657e-04,-3.7782783e-03,-1.5914823e-01,4.6780790e-02
5.5999994e-01,1.4536835e-04,-6.2088258e-05,2.6760030e-05,1.3247843e-02,2.4675622e-02,1.3269418e-02,1.3100082e-04,-7.5741098e-04,2.3080224e-04,-8.7593709e-04,-2.8544693e-01,5.7821936e-02
5.6999993e-01,1.3711503e-04,-8.8346572e-05,5.2556531e-05,-8.2551283e-04,-2.6251988e-03,-8.2717203e-04,1.2732109e-04,-6.4138846e-04,1.8750927e-04,-3.6797306e-04,1.1602263e-02,-4.3293005e-03
5.7999992e-01,1.9283226e-04,2.4053345e-05,2.0723482e-04,5.5707446e-03,1.1224827e-02,5.6032161e-03,3.8754224e-04,-2.3283078e-03,9.5776919e-04,2.6022140e-02,-1.6869210e-01,7.7026065e-02
5.8999991e-01,1.8560164e-04,1.3196317e-05,1.9551479e-04,-7.2283093e-04,-1.0840102e-03,-7.2582931e-04,2.4422871e-04,-2.0933478e-03,6.8634273e-04,-1.4331367e-02,2.3496029e-02,-2.7142672e-02
5.9999990e-01,1.5832302e-04,-1.5458977e-05,1.4502302e-04,-2.7272992e-03,-2.8619032e-03,-2.7322370e-03,1.6230461e-04,-1.1668264e-03,3.7785714e-04,-8.1924174e-03,9.2652230e-02,-3.0848588e-02
6.0999990e-01,-1.5664220e-05,-5.0854402e-04,-2.3712328e-04,-1.7427224e-02,-4.9363477e-02,-1.7213499e-02,3.9803179e-04,3.5750833e-03,-5.0929275e-04,2.3572740e-02,4.7419142e-01,-8.8715074e-02
6.1999989e-01,-1.3704305e-04,-5.6869023e-04,-3.1203904e-04,-1.2154774e-02,-6.0594977e-03,-1.2098621e-02,6.7100143e-04,4.3773233e-03,-1.0589921e-03,2.7296990e-02,8.0224073e-02,-5.4969986e-02
6.2999988e-01,9.3271345e-05,1.3522487e-04,5.0817481e-05,2.3040296e-02,7.0352397e-02,2.3142072e-02,3.1303239e-04,-1.3842526e-03,5.7290051e-04,-3.5796938e-02,-5.7615814e-01,1.6318942e-01
6.3999987e-01,-2.7761740e-04,-8.0162321e-04,-6.1245387e-04,-3.7201340e-02,-9.3928236e-02,-3.6353560e-02,4.3138944e-04,7.0695147e-03,-1.9436711e-03,1.1835716e-02,8.4537754e-01,-2.5165740e-01
6.4999986e-01,-1.1414103e-04,-5.9656916e-04,-5.0406527e-04,1.6369306e-02,2.0590914e-02,1.6218014e-02,1.2065008e-04,5.3745757e-03,-1.1739281e-03,-3.1073966e-02,-1.6949406e-01,7.6974379e-02
6.5999985e-01,-5.7936673e-05,-5.2457202e-04,-3.6830085e-04,5.6270274e-03,7.2220375e-03,5.5851093e-03,2.9836860e-04,4.2841490e-03,-7.8992556e-04,1.7771869e-02,-1.0904277e-01,3.8400287e-02
6.6999984e-01,1.1323792e-04,3.9679648e-05,5.7663489e-05,1.7131537e-02,5.6397706e-02,1.7193912e-02,4.4642102e-04,-1.1576633e-03,6.4977931e-04,1.4805256e-02,-5.4418175e-01,1.4397062e-01
6.7999983e-01,-8.5504630e-05,-4.9674069e-04,-2.4039862e-04,-1.9913990e-02,-5.3705142e-02,-1.9663099e-02,3.8570991e-04,3.5794689e-03,-9.5783542e-04,-6.0711162e-03,4.7371367e-01,-1.6076163e-01
6.8999982e-01,3.9500135e-06,-4.4565248e-04,-1.7262635e-04,8.9536962e-03,5.1359082e-03,8.9217058e-03,1.1490620e-04,3.1479971e-03,-8.5402314e-04,-2.7080397e-02,-4.3147214e-02,1.0381238e-02
6.9999981e-01,1.7964774e-04,9.4492932e-05,1.8076534e-04,1.7572811e-02,5.3971272e-02,1.7699416e-02,2.8489751e-04,-2.1718377e-03,7.0358695e-04,1.6999147e-02,-5.3198399e-01,1.5576116e-01
7.0999980e-01,1.8985233e-04,1.0879264e-04,1.9288261e-04,1.0201872e-03,1.4271213e-03,1.0247166e-03,2.9230448e-04,-2.4953700e-03,6.7750689e-04,7.4069726e-04,-3.2353263e-02,-2.6080084e-03
7.1999979e-01,1.4515356e-04,3.8388293e-05,1.4179123e-04,-4.4699482e-03,-7.0280213e-03,-4.4893176e-03,6.1728836e-04,-2.1553239e-03,9.5666708e-04,3.2498419e-02,3.4004641e-02,2.7916045e-02
7.2999978e-01,1.2419965e-04,-3.3804268e-05,7.6363329e-05,-2.0951222e-03,-7.2161032e-03,-2.1065193e-03,1.1668855e-04,-1.3871982e-03,5.3135561e-04,-5.0060029e-02,7.6812645e-02,-4.2531187e-02
7.4000001e-01,1.1399240e-04,6.6998168e-05,8.3849715e-05,-1.0161023e-03,1.0082726e-02,-9.9825156e-04,3.7298793e-04,-2.3098168e-03,8.2254908e-04,2.5629351e-02,-9.2259748e-02,2.9118681e-02
7.5000000e-01,1.1090408e-04,1.1517249e-05,4.2467082e-05,-3.0926536e-04,-5.5476865e-03,-3.1569662e-04,9.4744951e-05,-1.2208966e-03,2.9688673e-04,-2.7824324e-02,1.0889213e-01,-5.2566285e-02
7.5999999e-01,-1.3624120e-04,-5.4769692e-04,-3.5119615e-04,-2.4767231e-02,-5.6016844e-02,-2.4444354e-02,4.4589401e-04,4.3312648e-03,-1.1232754e-03,3.5114940e-02,5.5521667e-01,-1.4201635e-01
7.6999998e-01,-5.6094783e-05,-3.3157570e-04,-2.7085616e-04,8.0241757e-03,2.1633183e-02,7.9480757e-03,1.8041954e-04,2.8184486e-03,-7.0232425e-04,-2.6547473e-02,-1.5128176e-01,4.2095154e-02
7.7999997e-01,1.3505264e-04,1.3277822e-04,1.0527532e-04,1.9119849e-02,4.6383862e-02,1.9234515e-02,5.2654618e-04,-2.1633763e-03,1.0122727e-03,3.4612697e-02,-4.9818296e-01,1.7145986e-01
7.8999996e-01,-1.6136018e-04,-5.9088994e-04,-3.5131326e-04,-2.9715251e-02,-7.2491491e-02,-2.9260351e-02,5.7091385e-04,4.8086624e-03,-1.1014560e-03,4.4367719e-03,6.9720453e-01,-2.1137307e-01
7.9999995e-01,-2.1665722e-04,-8.1963034e-04,-4.9216957e-04,-5.5491923e-03,-2.2909101e-02,-5.3626171e-03,4.3884265e-04,6.8855860e-03,-1.7095155e-03,-1.3207133e-02,2.0769256e-01,-6.0806006e-02
8.0999994e-01,1.1582099e-04,4.3569217e-06,5.9210048e-05,3.3261905e-02,8.2352551e-02,3.3348246e-02,3.9897566e-04,-9.9022325e-04,5.6591276e-04,-3.9867023e-03,-7.8758167e-01,2.2754304e-01
8.1999993e-01,-6.8753643e-05,-4.2837088e-04,-1.9087977e-04,-1.8499647e-02,-4.3317727e-02,-1.8309338e-02,6.4550101e-04,3.0925268e-03,-7.7162772e-04,2.4652558e-02,4.0827539e-01,-1.3375418e-01
8.2999992e-01,-1.4883021e-04,-7.1863984e-04,-3.8366656e-04,-8.0344132e-03,-2.9068763e-02,-7.8270639e-03,5.2482636e-04,5.8200056e-03,-1.4390919e-03,-1.2067476e-02,2.7274814e-01,-6.6746477e-02
8.3999991e-01,-1.4499297e-04,-7.8146718e-04,-4.7299910e-04,3.8295111e-04,-6.2802358e-03,4.2344209e-04,2.2361944e-04,6.4231578e-03,-1.6466020e-03,-3.0120721e-02,6.0315271e-02,-2.0751037e-02
8.4999990e-01,1.1344746e-04,-1.4915652e-05,-2.6686359e-06,2.5874578e-02,7.6608308e-02,2.5952433e-02,5.2446757e-04,-1.2876165e-03,3.7486169e-04,3.0084842e-02,-7.7107816e-01,2.0214656e-01
8.5999990e-01,-1.7458017e-05,-3.3891817e-04,-2.1290173e-04,-1.3109675e-02,-3.2420390e-02,-1.3021468e-02,3.5119221e-04,1.8928590e-03,-5.9119255e-04,-1.7327552e-02,3.1804786e-01,-9.6605516e-02
8.6999989e-01,-9.4289934e-05,-6.2533871e-04,-4.0678264e-04,-7.7003303e-03,-2.8675414e-02,-7.5403900e-03,2.8112045e-04,4.6657238e-03,-1.1824666e-03,-7.0071832e-03,2.7728674e-01,-5.9127460e-02
8.7999988e-01,-7.3383950e-05,-5.3835742e-04,-3.4481651e-04,2.0947535e-03,8.7059181e-03,2.0537317e-03,2.6877677e-04,4.0278928e-03,-8.6871282e-04,-1.2343686e-03,-6.3783156e-02,3.1375406e-02
8.8999987e-01,1.7377181e-04,4.1666548e-05,1.0470206e-04,2.4717160e-02,5.7943506e-02,2.4851927e-02,3.4818328e-04,-2.0302641e-03,7.5365799e-04,7.9406588e-03,-6.0581626e-01,1.6223724e-01
8.9999986e-01,1.4837269e-04,1.9577653e-05,1.1025074e-04,-2.5396632e-03,-2.2040819e-03,-2.5443416e-03,2.6271161e-04,-1.6292089e-03,3.2760240e-04,-8.5471752e-03,4.0105550e-02,-4.2605600e-02
9.0999985e-01,1.2223205e-04,3.9180485e-05,1.3616125e-04,-2.6109108e-03,1.9670899e-03,-2.6121069e-03,6.6136392e-04,-1.9419928e-03,7.1061584e-04,3.9865269e-02,-3.1278416e-02,3.8301381e-02
9.1999984e-01,1.4102296e-04,1.0919389e-04,1.8530163e-04,1.8812022e-03,6.9957679e-03,1.8976712e-03,5.7173327e-04,-2.3839105e-03,1.0071224e-03,-8.9630734e-03,-4.4191816e-02,2.9650681e-02
9.2999983e-01,1.2362579e-04,1.0014447e-04,1.7264988e-04,-1.7382903e-03,-8.9937314e-04,-1.7440299e-03,6.4476763e-04,-2.5518978e-03,1.1557207e-03,7.3034428e-03,-1.6798740e-02,1.4859845e-02
9.3999982e-01,5.5929764e-05,9.4527053e-06,8.4842657e-05,-6.7716949e-03,-9.0552640e-03,-6.7861387e-03,6.2237900e-04,-1.4317134e-03,5.2532201e-04,-2.2388652e-03,1.1201854e-01,-6.3039927e-02
9.4999981e-01,-1.8396430e-04,-9.3610889e-04,-5.7524259e-04,-2.4036167e-02,-9.4739833e-02,-2.3205530e-02,4.6273615e-05,7.8338144e-03,-1.7674212e-03,-5.7610593e-02,9.2655366e-01,-2.2927454e-01
9.5999980e-01,1.0542780e-04,-2.4519170e-05,-7.6948927e-07,2.8929455e-02,9.1153616e-02,2.8966153e-02,-6.5192121e-05,-2.5314168e-04,1.3269446e-04,-1.1146584e-02,-8.0869638e-01,1.9001175e-01
9.6999979e-01,-1.1428191e-04,-4.9640700e-04,-3.1678246e-04,-2.2006872e-02,-4.7278847e-02,-2.1740348e-02,1.7583999e-04,4.2983038e-03,-1.2561772e-03,2.4103234e-02,4.5514498e-01,-1.3888730e-01
9.7999978e-01,-1.4822519e-04,-4.7671181e-04,-2.8470898e-04,-3.3966400e-03,1.9576102e-03,-3.3989089e-03,4.9462059e-04,4.0028007e-03,-9.6775638e-04,3.1878090e-02,-2.9550341e-02,2.8842113e-02
9.9000001e-01,-2.2121386e-04,-8.4116966e-04,-5.6422552e-04,-7.3296355e-03,-3.6493224e-02,-7.0212211e-03,4.4532650e-04,7.2039317e-03,-2.0169540e-03,-4.9292956e-03,3.2010578e-01,-1.0491736e-01
1.0000000e+00,-9.1804065e-05,-5.0024424e-04,-3.1680799e-04,1.2968634e-02,3.4141430e-02,1.2783563e-02,4.2579088e-04,4.2291728e-03,-1.0148290e-03,-1.9535636e-03,-2.9747617e-01,1.0021260e-01
1.0100000e+00,-1.1076953e-05,-3.0160652e-04,-1.8293387e-04,8.0850839e-03,1.9876792e-02,8.0282227e-03,4.4158052e-04,2.0583538e-03,-4.4534162e-04,1.5789646e-03,-2.1708211e-01,5.6948790e-02
1.0200000e+00,-7.2521989e-05,-5.5565451e-04,-2.8651627e-04,-6.1638182e-03,-2.5424616e-02,-6.0424568e-03,5.4280661e-04,3.7978651e-03,-8.9872761e-04,1.0122619e-02,1.7395130e-01,-4.5338642e-02
1.0300000e+00,-2.8665595e-05,-5.8904872e-04,-2.7344403e-04,4.3884342e-03,-3.3243284e-03,4.3943119e-03,3.8872395e-04,3.8287232e-03,-9.3282362e-04,-1.5408281e-02,3.0858038e-03,-3.4096045e-03
1.0400000e+00,1.7107440e-04,-6.3352555e-05,8.0952987e-05,1.9974544e-02,5.2537852e-02,2.0057025e-02,1.9578381e-04,-1.3936949e-03,4.8880116e-04,-1.9294033e-02,-5.2224231e-01,1.4216261e-01
1.0500000e+00,1.8800097e-04,-2.7931228e-05,1.4991050e-04,1.6930679e-03,3.5376558e-03,1.7015969e-03,4.0387868e-04,-2.2362119e-03,6.0358807e-04,2.0809507e-02,-8.4251778e-02,1.1478702e-02
1.0599999e+00,9.2117478e-05,-1.9434747e-04,9.5676300e-05,-9.5963776e-03,-1.6627396e-02,-9.6050341e-03,5.4378372e-04,-9.4069351e-04,1.0731837e-04,1.3990517e-02,1.2955196e-01,-4.9627017e-02
1.0699999e+00,1.5135322e-04,-6.9180762e-05,1.2340121e-04,5.9268964e-03,1.2503983e-02,5.9470388e-03,4.3944466e-04,-1.7007601e-03,3.6846860e-04,-1.0433917e-02,-7.6006727e-02,2.6115047e-02
1.0799999e+00,1.4895641e-04,-1.9728590e-05,1.3444905e-04,-2.3733320e-04,4.9457883e-03,-2.3014076e-04,4.4319736e-04,-1.9601386e-03,6.4927611e-04,3.7527114e-04,-2.5937884e-02,2.8080779e-02
1.0899999e+00,1.1811359e-04,1.0282473e-05,1.4277994e-04,-3.0793868e-03,3.0100808e-03,-3.0804352e-03,8.3935325e-04,-2.0703148e-03,7.7092771e-04,3.9615627e-02,-1.1017631e-02,1.2165171e-02
1.0999999e+00,-2.3346396e-04,-9.6720672e-04,-5.2502168e-04,-3.5266995e-02,-9.7998554e-02,-3.4344317e-02,4.9909887e-04,7.6927872e-03,-1.7201562e-03,-3.4025471e-02,9.7631114e-01,-2.4910863e-01
1.1099999e+00,-2.0423399e-04,-8.2714038e-04,-4.9339094e-04,2.9360448e-03,1.4023036e-02,2.8298593e-03,6.2545814e-04,6.3391597e-03,-1.4669573e-03,1.2635940e-02,-1.3536288e-01,2.5319913e-02
1.1199999e+00,-1.9086644e-04,-6.7374486e-04,-3.8557070e-04,1.3489675e-03,1.5345150e-02,1.2581044e-03,6.8957832e-04,5.0190775e-03,-1.2232338e-03,6.4120236e-03,-1.3200835e-01,2.4372369e-02
1.1299999e+00,-2.1039700e-04,-7.4852438e-04,-4.5480539e-04,-1.9611816e-03,-7.4876142e-03,-1.9073931e-03,6.8795352e-04,5.7032777e-03,-1.5268112e-03,-1.6248035e-04,6.8420086e-02,-3.0357765e-02
1.1399999e+00,-1.9481107e-04,-7.0266902e-04,-4.1630557e-04,1.5641965e-03,4.5925137e-03,1.5322274e-03,8.0283940e-04,5.3263350e-03,-1.2332508e-03,1.1488600e-02,-3.7694314e-02,2.9356064e-02
1.1499999e+00,-1.7061113e-04,-7.3855705e-04,-4.1434959e-04,2.4215844e-03,-3.5764825e-03,2.4365960e-03,6.1726166e-04,5.6945239e-03,-1.5730055e-03,-1.8557792e-02,3.6818927e-02,-3.3975500e-02
1.1599998e+00,7.1801349e-05,-9.0330334e-05,2.3906674e-05,2.4260941e-02,6.4804923e-02,2.4269198e-02,3.0398881e-04,-4.3036101e-04,1.4338203e-06,-3.1327314e-02,-6.1248907e-01,1.5744408e-01
1.1699998e+00,9.5055353e-05,-7.0632595e-05,6.1923714e-05,2.3255504e-03,1.9663323e-03,2.3281676e-03,2.9286912e-04,-1.1870863e-03,1.8449262e-04,-1.1119705e-03,-7.5672603e-02,1.8305897e-02
1.1799998e+00,8.1309693e-05,-8.1322229e-05,6.1173161e-05,-1.3744039e-03,-1.0658872e-03,-1.3771180e-03,6.0730539e-04,-1.6292701e-03,5.9078927e-04,3.1443657e-02,-4.4218420e-02,4.0629704e-02
1.1899998e+00,1.4443814e-04,-3.9036902e-05,1.5139280e-04,6.3089142e-03,4.2068719e-03,6.3312341e-03,8.3044989e-04,-2.5958651e-03,1.1788110e-03,2.2314471e-02,-9.6659588e-02,5.8802232e-02
1.1999998e+00,1.0493862e-04,-2.0354313e-04,9.8366050e-05,-3.9595926e-03,-1.6442777e-02,-3.9729733e-03,7.8050576e-04,-1.2044228e-03,8.1038463e-04,-4.9944179e-03,1.3914436e-01,-3.6842674e-02
1.2099998e+00,9.2625830e-05,-2.6028954e-04,3.4304085e-05,-1.2348343e-03,-5.6731769e-03,-1.2344858e-03,7.5198825e-04,-4.3914067e-04,5.7845913e-04,-2.8517537e-03,7.6528287e-02,-2.3192572e-02
1.2199998e+00,1.3334279e-04,-6.7440359e-05,8.9671826e-05,4.0835986e-03,1.9273962e-02,4.1115523e-03,7.8738598e-04,-1.8963452e-03,8.0646513e-04,3.5397769e-03,-1.4572059e-01,2.2800621e-02
1.2299998e+00,1.4152024e-04,8.3308481e-05,1.6974846e-04,8.3058613e-04,1.5071723e-02,8.6213817e-04,9.2386531e-04,-2.8720361e-03,1.3270275e-03,1.3647946e-02,-9.7569188e-02,5.2056285e-02
1.2400000e+00,5.1399502e-05,-4.1602860e-05,4.0131003e-05,-9.0182740e-03,-1.2472884e-02,-9.0303205e-03,8.4164965e-04,-1.1498109e-03,4.5517811e-04,-8.2213779e-03,1.7221858e-01,-8.7182942e-02
1.2500000e+00,9.6229453e-05,-1.5459964e-04,-2.4884132e-05,4.4772723e-03,-1.1300853e-02,4.4857889e-03,3.3166101e-04,7.1926447e-05,4.4138552e-04,-5.0998913e-02,1.2217385e-01,-1.3792606e-03
1.2600000e+00,-1.7350282e-04,-6.9801781e-04,-3.7336249e-04,-2.7038798e-02,-5.4463251e-02,-2.6661002e-02,6.0475109e-04,5.1380905e-03,-1.2125817e-03,2.7309035e-02,5.0661689e-01,-1.6539688e-01
1.2700000e+00,2.6854445e-05,-4.5255573e-05,1.2905551e-05,2.0064247e-02,6.5250401e-02,2.0091461e-02,5.4011670e-04,-7.5016615e-04,3.3695681e-04,-6.4634449e-03,-5.8882623e-01,1.5495400e-01
1.2800000e+00,-9.6625520e-05,-4.7277205e-04,-2.0380651e-04,-1.2382168e-02,-4.2781384e-02,-1.2210183e-02,6.2061413e-04,3.0441060e-03,-6.1808739e-04,8.0497507e-03,3.7942758e-01,-9.5504511e-02
1.2900000e+00,-2.4281061e-04,-9.9441934e-04,-5.4649118e-04,-1.4698892e-02,-5.2255762e-02,-1.4207194e-02,9.3547455e-04,7.2711000e-03,-2.1624092e-03,3.1486072e-02,4.2269980e-01,-1.5443233e-01
1.3000000e+00,-1.2618932e-04,-7.1253413e-04,-3.5039132e-04,1.1696181e-02,2.8240436e-02,1.1501406e-02,6.8104219e-04,5.1698077e-03,-1.2738977e-03,-2.5443261e-02,-2.1012943e-01,8.8851242e-02
1.3099999e+00,-1.4411066e-04,-7.5436039e-04,-3.6123679e-04,-1.7974432e-03,-4.1906090e-03,-1.7680174e-03,7.5738098e-04,5.2487712e-03,-1.1951139e-03,7.6338866e-03,7.8963642e-03,7.8783846e-03
1.3199999e+00,-4.4241176e-05,-5.2553237e-04,-2.0979671e-04,1.0011225e-02,2.2907210e-02,9.9064308e-03,7.6566721e-04,3.2222514e-03,-6.7607091e-04,8.2862376e-04,-2.0265218e-01,5.1904348e-02
1.3299999e+00,1.5499407e-04,3.5526398e-05,1.0289429e-04,1.9953909e-02,5.6044241e-02,2.0066267e-02,8.2207726e-04,-2.2642280e-03,7.9026760e-04,5.6410106e-03,-5.4864846e-01,1.4663399e-01
1.3399999e+00,3.1909356e-05,-1.9752359e-04,-6.5039884e-05,-1.2321703e-02,-2.3297638e-02,-1.2309233e-02,6.9833294e-04,9.8927529e-05,2.4789742e-04,-1.2374444e-02,2.3631578e-01,-5.4237069e-02
1.3499999e+00,9.4445823e-05,-4.4148420e-05,2.3769669e-05,6.2589495e-03,1.5323745e-02,6.2820870e-03,5.8251777e-04,-1.6175188e-03,5.8134207e-04,-1.1581528e-02,-1.7164480e-01,3.3344497e-02
1.3599999e+00,1.0298503e-04,-9.5655349e-05,8.6337449e-05,8.5025847e-04,-5.1524184e-03,8.4717068e-04,6.0787747e-04,-1.4131577e-03,6.2262034e-04,2.5359729e-03,2.0436135e-02,4.1278305e-03
1.3699999e+00,1.0875262e-04,-1.0436456e-04,1.3211334e-04,5.7617840e-04,-8.7197523e-04,5.7574715e-04,3.6585839e-04,-1.4616865e-03,4.5440014e-04,-2.4201931e-02,-4.8528889e-03,-1.6822036e-02
1.3799999e+00,1.0522211e-04,-7.3566504e-05,1.3149363e-04,-3.5142947e-04,3.0806785e-03,-3.4702787e-04,4.6362443e-04,-2.0182127e-03,5.4954035e-04,9.7766131e-03,-5.5652672e-02,9.5140304e-03
1.3899999e+00,6.0370125e-05,-1.0988032e-04,5.5549152e-05,-4.4852357e-03,-3.6243893e-03,-4.4908241e-03,4.3673895e-04,-1.1220567e-03,3.4599737e-04,-2.6885506e-03,8.9615688e-02,-2.0354317e-02
1.3999999e+00,9.5891447e-05,-3.0090665e-05,1.3151947e-04,3.5551909e-03,7.9704805e-03,3.5681095e-03,6.9279809e-04,-1.6931168e-03,6.9558264e-04,2.5605939e-02,-5.7106071e-02,3.4958560e-02
1.4099998e+00,2.4915183e-05,-4.5428753e-05,1.0105302e-04,-7.0952071e-03,-1.5160826e-03,-7.1038649e-03,1.0659682e-03,-1.4305504e-03,5.7143849e-04,3.7317046e-02,2.6256666e-02,-1.2414427e-02
1.4199998e+00,8.7810005e-05,-3.3060290e-06,7.3471754e-05,6.2882598e-03,4.1983089e-03,6.3000465e-03,7.3272123e-04,-1.4861071e-03,6.8552610e-04,-3.3324728e-02,-5.5556696e-03,1.1408772e-02
1.4299998e+00,-8.0470523e-05,-3.7759933e-04,-1.7359982e-04,-1.6860743e-02,-3.7463376e-02,-1.6719332e-02,6.2432022e-04,2.6551009e-03,-5.5334097e-04,-1.0840111e-02,4.1412119e-01,-1.2388682e-01
1.4399805e+00,-1.7358722e-04,-6.6807744e-04,-3.5071260e-04,-9.3619175e-03,-2.9143336e-02,-9.1734575e-03,6.9783736e-04,4.9547181e-03,-1.2777847e-03,7.3659458e-03,2.3040690e-01,-7.2584621e-02
1.4499805e+00,-7.7761182e-05,-4.0659383e-04,-1.6421379e-04,9.6054322e-03,2.6166526e-02,9.5099752e-03,7.1854399e-04,2.6227545e-03,-4.2093431e-04,2.0706647e-03,-2.3319658e-01,8.5685125e-02
1.4599805e+00,-1.4477146e-04,-7.9763302e-04,-4.8579956e-04,-6.7291646e-03,-3.9139020e-02,-6.4639456e-03,4.9673507e-04,5.8370301e-03,-1.3002457e-03,-2.2180913e-02,3.2142787e-01,-8.7931225e-02
1.4699805e+00,-9.4647623e-05,-7.4188287e-04,-4.1029721e-04,5.0212155e-03,5.6000474e-03,4.9755185e-03,3.1742582e-04,5.3338773e-03,-1.4091233e-03,-1.7930942e-02,-5.0315329e-02,-1.0887771e-02
1.4799805e+00,-1.4729530e-04,-8.8555969e-04,-5.1248520e-04,-5.2777776e-03,-1.4397418e-02,-5.1696977e-03,3.4261265e-04,6.0473924e-03,-1.5364751e-03,2.5186853e-03,7.1351571e-02,-1.2735193e-02
1.4899807e+00,1.2466999e-04,-1.4061837e-06,6.9486868e-05,2.7231518e-02,8.8338226e-02,2.7403526e-02,6.2009351e-04,-2.1318681e-03,7.0600807e-04,2.7747451e-02,-8.1790733e-01,2.2424319e-01
1.4999807e+00,1.8638745e-04,7.7699011e-05,2.1085498e-04,6.1715836e-03,7.8840206e-03,6.2057428e-03,1.0087664e-03,-3.2742018e-03,1.3187738e-03,3.8867326e-02,-1.1423348e-01,6.1276633e-02
1.5099807e+00,1.8100769e-04,-7.4237612e-06,1.6946313e-04,-5.4537113e-04,-8.5103715e-03,-5.6034390e-04,9.2744658e-04,-2.5686423e-03,9.2753099e-04,-8.1319903e-03,7.0556022e-02,-3.9124320e-02
1.5199807e+00,1.5949700e-04,-5.0471993e-05,1.3762563e-04,-2.1526952e-03,-4.2984442e-03,-2.1621830e-03,8.7095284e-04,-2.0892605e-03,9.8725851e-04,-5.6493794e-03,4.7938221e-02,5.9727577e-03
1.5299807e+00,1.2447107e-04,-1.2542861e-04,9.2992516e-05,-3.5043805e-03,-7.4899178e-03,-3.5130993e-03,4.7747752e-04,-1.1621339e-03,5.1233435e-04,-3.9347569e-02,9.2712754e-02,-4.7492462e-02
1.5399806e+00,1.1305879e-04,-3.9048092e-05,1.0727561e-04,-1.1330011e-03,8.6413482e-03,-1.1244079e-03,8.5190365e-04,-2.0464642e-03,7.6016901e-04,3.7442648e-02,-8.8433121e-02,2.4783491e-02
1.5499806e+00,8.0100812e-05,-8.6138197e-05,1.0335697e-04,-3.2984164e-03,-4.6996672e-03,-3.3065107e-03,1.0849425e-03,-1.7469741e-03,7.5584976e-04,2.3303911e-02,2.9949045e-02,-4.3192620e-04
1.5599806e+00,8.4716449e-05,-3.1977314e-05,6.3619825e-05,4.6453864e-04,5.4151372e-03,4.6972883e-04,5.9550377e-04,-1.4610516e-03,5.4311567e-04,-4.8943924e-02,2.8592269e-02,-2.1273429e-02
1.5699806e+00,9.2765993e-05,6.7708818e-06,7.0529565e-05,8.0632354e-04,3.8731136e-03,8.1178454e-04,4.9702320e-04,-1.6188529e-03,6.9219822e-04,-9.8480662e-03,-1.5780142e-02,1.4908269e-02
1.5799489e+00,1.2935057e-05,-1.6810674e-04,4.0893122e-06,-8.0176171e-03,-1.7538576e-02,-8.0099548e-03,5.1674640e-04,-8.6412757e-05,-7.0794523e-06,1.9785959e-03,1.5373164e-01,-7.0150279e-02
1.5899489e+00,-7.5812377e-05,-6.3750963e-04,-3.3062652e-04,-8.8913331e-03,-4.6980342e-02,-8.6434378e-03,1.5287991e-04,4.7251395e-03,-1.0603236e-03,-3.6386684e-02,4.8115568e-01,-1.0532452e-01
1.5999489e+00,-1.2063357e-04,-5.3892099e-04,-2.2867015e-04,-4.4778152e-03,9.8471178e-03,-4.5121713e-03,7.5580836e-04,3.3678370e-03,-7.0177861e-04,6.0292903e-02,-1.3573038e-01,3.5854538e-02
1.6099489e+00,-1.8400703e-04,-7.9049477e-04,-3.9416569e-04,-6.3652764e-03,-2.5187820e-02,-6.1867514e-03,7.6471849e-04,5.6365870e-03,-1.3718486e-03,8.9101328e-04,2.2687522e-01,-6.7007058e-02
1.6199489e+00,-1.5547333e-04,-6.5794224e-04,-3.0238231e-04,2.8672409e-03,1.3266086e-02,2.7884439e-03,8.3019983e-04,4.6796227e-03,-1.0045705e-03,6.5481402e-03,-9.5696527e-02,3.6727839e-02
1.6299489e+00,-2.0216768e-04,-1.0320463e-03,-4.9962912e-04,-4.7032761e-03,-3.7442222e-02,-4.3712686e-03,6.2125817e-04,7.6819547e-03,-2.2718402e-03,-2.0894186e-02,3.0023349e-01,-1.2672709e-01
1.6399488e+00,1.1771200e-04,-1.1801506e-05,9.8216681e-05,3.2052570e-02,1.0193945e-01,3.2194111e-02,8.6220946e-04,-1.7915665e-03,7.3071852e-04,2.4095152e-02,-9.4735303e-01,3.0025616e-01
1.6499488e+00,1.2625599e-04,-2.0031385e-05,6.4596712e-05,8.5294664e-04,-8.2535879e-04,8.5356536e-04,8.1380313e-04,-1.9605136e-03,9.1631030e-04,-4.8406382e-03,-1.6894723e-02,1.8559196e-02
1.6599488e+00,1.1033467e-04,-1.9071044e-05,4.7037907e-05,-1.5908878e-03,1.0014785e-04,-1.5931250e-03,6.4371269e-04,-1.9386920e-03,7.4311876e-04,-1.7009060e-02,2.1821580e-03,-1.7319171e-02
1.6699488e+00,1.1244091e-04,-5.5844916e-05,6.7507370e-05,2.0909984e-04,-3.6778275e-03,2.0442651e-04,3.9902567e-04,-1.7008919e-03,2.7290354e-04,-2.4468726e-02,2.3780039e-02,-4.7021566e-02
1.6799488e+00,1.1065946e-04,-1.2235179e-04,1.1148468e-04,-1.8103120e-04,-6.6503376e-03,-1.8823498e-04,4.4231816e-04,-1.5084728e-03,3.1573857e-04,4.3292532e-03,1.9241926e-02,4.2835067e-03
1.6899488e+00,1.2515050e-04,-2.0670863e-04,7.1321745e-05,1.4453523e-03,-8.4376145e-03,1.4416461e-03,3.9796151e-04,-9.3108209e-04,2.7363561e-04,-4.4356694e-03,5.7739126e-02,-4.2102996e-03
1.6999488e+00,1.1004548e-04,-2.0308922e-04,6.5608152e-05,-1.5097572e-03,3.6398772e-04,-1.5107593e-03,4.9613317e-04,-8.5849399e-04,3.7548140e-04,9.8171761e-03,7.2588175e-03,1.0184588e-02
1.7099488e+00,1.1907392e-04,-2.9915518e-05,1.5632109e-04,9.1785055e-04,1.7314248e-02,9.4684206e-04,9.1442805e-04,-2.4921753e-03,9.1878600e-04,4.1829528e-02,-1.6336829e-01,5.4330512e-02
1.7199488e+00,5.7093589e-05,-1.0624537e-04,8.7270603e-05,-6.2031216e-03,-7.6150177e-03,-6.2150413e-03,1.1617440e-03,-1.7345722e-03,6.0983325e-04,2.4731614e-02,7.5760385e-02,-3.0895305e-02
1.7299488e+00,5.6964728e-05,-2.7067969e-04,2.7930409e-05,-2.1807294e-05,-1.6443441e-02,-8.8602390e-06,5.4236134e-04,2.4453041e-04,-2.2616377e-04,-6.1938320e-02,1.9791045e-01,-8.3599782e-02
1.7399490e+00,5.5014246e-05,-8.2720215e-05,4.6968000e-05,-1.7673359e-04,1.8795937e-02,-1.7055157e-04,9.6823943e-04,-1.3084411e-03,5.7155583e-04,4.2586835e-02,-1.5529359e-01,7.9770134e-02
1.7499490e+00,-1.0192251e-04,-4.2268790e-04,-1.7284768e-04,-1.5727419e-02,-3.4023930e-02,-1.5600857e-02,7.4749458e-04,2.4847932e-03,-5.3035103e-04,-2.2074506e-02,3.7932379e-01,-1.1019079e-01
1.7599490e+00,-1.3252078e-04,-6.9789898e-04,-3.9770893e-04,-3.0829301e-03,-2.7532929e-02,-2.9276830e-03,7.3368929e-04,4.6943230e-03,-9.5120333e-04,-1.3805305e-03,2.2095319e-01,-4.2085269e-02
1.7699490e+00,-1.4658464e-04,-8.4761766e-04,-4.7218457e-04,-1.4188601e-03,-1.4978649e-02,-1.3190894e-03,7.0899326e-04,5.7044986e-03,-1.3219189e-03,-2.4696052e-03,1.0101766e-01,-3.7071590e-02
1.7799489e+00,-1.3433169e-04,-8.2195990e-04,-4.2282219e-04,1.2284323e-03,2.5718521e-03,1.2093185e-03,5.2498866e-04,5.5222960e-03,-1.4612431e-03,-1.8400478e-02,-1.8220280e-02,-1.3932432e-02
1.7899489e+00,-1.1062130e-04,-7.3014432e-04,-3.3519432e-04,2.3780118e-03,9.1913207e-03,2.3258407e-03,4.5624999e-04,4.6169971e-03,-1.1737388e-03,-6.8738732e-03,-9.0529973e-02,2.8750452e-02
1.7999489e+00,8.3490879e-06,-2.2845843e-04,-2.7655817e-05,1.1935643e-02,5.0154712e-02,1.1917083e-02,8.0241355e-04,-3.6624000e-04,1.3942336e-04,3.4616389e-02,-4.9832419e-01,1.3131634e-01
1.8099489e+00,-8.4154240e-05,-5.2002410e-04,-1.5530801e-04,-9.2807459e-03,-2.9169102e-02,-9.1801898e-03,8.5950492e-04,2.2218523e-03,-5.7825238e-04,5.7091426e-03,2.5880948e-01,-7.1767643e-02
1.8199489e+00,1.0561658e-04,-1.1868157e-04,9.2742594e-05,1.9007706e-02,4.0069641e-02,1.9082791e-02,1.1629724e-03,-2.2351417e-03,8.4573732e-04,3.0346780e-02,-4.4569982e-01,1.4239911e-01
1.8299489e+00,1.0401761e-04,-1.4066717e-04,1.1810303e-04,-1.6277779e-04,-2.1979215e-03,-1.6568442e-04,1.3869920e-03,-2.5546184e-03,1.0546302e-03,2.2401980e-02,-3.1947705e-02,2.0889312e-02
1.8399489e+00,1.0667709e-04,-1.5003041e-04,1.4482130e-04,2.6442162e-04,-9.3731064e-04,2.6399075e-04,1.3416280e-03,-2.3751995e-03,1.0143330e-03,-4.5364072e-03,1.7941905e-02,-4.0297310e-03
1.8499489e+00,1.1822657e-04,-1.0013201e-04,1.9511831e-04,1.1604919e-03,4.9848278e-03,1.1709456e-03,1.3663447e-03,-2.9509687e-03,1.1029647e-03,2.4716764e-03,-5.7576973e-02,8.8631871e-03
1.8599489e+00,8.6736583e-05,-1.7307640e-04,1.0864940e-04,-3.1536114e-03,-7.2857796e-03,-3.1644139e-03,8.1810870e-04,-1.9279701e-03,4.3090034e-04,-5.4823657e-02,1.0229995e-01,-6.7206505e-02
1.8699489e+00,1.0786821e-04,-1.6259503e-04,1.1316963e-04,2.1131535e-03,1.0431326e-03,2.1156512e-03,6.3525424e-04,-1.7322200e-03,3.2007575e-04,-1.8285463e-02,1.9575037e-02,-1.1082469e-02
1.8799489e+00,7.3246018e-05,-1.8374734e-04,7.4538625e-05,-3.4630753e-03,-2.1089862e-03,-3.4651790e-03,6.1254912e-04,-1.1909874e-03,1.2770660e-04,-2.2705139e-03,5.4123305e-02,-1.9236933e-02
1.8899488e+00,-4.6726843e-05,-3.0069489e-04,-1.2015311e-05,-1.2008982e-02,-1.1682231e-02,-1.1997820e-02,9.8654341e-04,-5.7806455e-05,-1.2728046e-05,3.7399465e-02,1.1331820e-01,-1.4043478e-02
1.8999488e+00,1.0746508e-06,-3.8301523e-04,-1.1619189e-04,4.7751999e-03,-8.2283810e-03,4.7913965e-03,3.2567946e-04,1.0900559e-03,4.7534051e-04,-6.6086458e-02,1.1478634e-01,4.8806903e-02
1.9099488e+00,-1.9832519e-04,-6.7610635e-04,-3.1397821e-04,-1.9994071e-02,-2.9371563e-02,-1.9793473e-02,1.0795336e-03,4.2288548e-03,-1.1259657e-03,7.5385487e-02,3.1388020e-01,-1.6013078e-01
1.9199488e+00,-1.5316846e-04,-7.9978654e-04,-3.4023301e-04,4.5142920e-03,-1.2345041e-02,4.5795187e-03,6.7429890e-04,5.7285752e-03,-1.5414272e-03,-4.0523509e-02,1.4997218e-01,-4.1546190e-02
1.9299488e+00,-1.8167475e-04,-8.6756902e-04,-3.8023381e-04,-2.8609862e-03,-6.7943403e-03,-2.8015431e-03,7.6515273e-04,6.4700921e-03,-1.8148664e-03,9.0853911e-03,7.4151765e-02,-2.7343939e-02
1.9399488e+00,-1.4561183e-04,-8.4521488e-04,-3.5303377e-04,3.6148801e-03,2.2525425e-03,3.5869928e-03,9.1070405e-04,5.6803426e-03,-1.8179384e-03,1.4555146e-02,-7.8975026e-02,-3.0719851e-04
1.9499488e+00,-1.0413850e-04,-6.7315852e-04,-2.8464739e-04,4.1705097e-03,1.7215615e-02,4.0822474e-03,1.1324498e-03,3.5667787e-03,-8.9031756e-04,2.2174596e-02,-2.1135659e-01,9.2762168e-02
1.9599488e+00,-1.3552411e-04,-7.6446099e-04,-3.7296646e-04,-3.1491511e-03,-9.1406389e-03,-3.0974666e-03,8.2603152e-04,4.1647640e-03,-9.7093597e-04,-3.0641858e-02,5.9798586e-02,-8.0618484e-03
1.9699488e+00,7.9202478e-05,-2.3107796e-04,4.0017719e-05,2.1498688e-02,5.3304268e-02,2.1531218e-02,5.1783559e-04,-1.0677314e-03,7.4951760e-05,-3.0819622e-02,-5.2325004e-01,1.0458887e-01
1.9799488e+00,1.2525773e-04,-1.6418275e-04,1.5791107e-04,4.6083253e-03,6.6761404e-03,4.6221284e-03,6.4947898e-04,-2.2526287e-03,3.3598304e-04,1.3164351e-02,-1.1848985e-01,2.6103153e-02
1.9899490e+00,1.2611285e-04,-2.3441554e-04,1.5273957e-04,8.1353003e-05,-7.0232985e-03,7.4030235e-05,5.8796197e-04,-1.6383194e-03,3.2471486e-04,-6.1515601e-03,6.1429528e-02,-1.1267920e-03
1.9999490e+00,1.0896439e-04,-2.5877707e-04,1.3710222e-04,-1.7158885e-03,-2.4322914e-03,-1.7192840e-03,7.9069164e-04,-1.4596962e-03,5.1550485e-04,2.0272986e-02,1.7862338e-02,1.9079017e-02
2.0099490e+00,1.2945347e-04,-9.1194641e-05,2.0066659e-04,2.0701642e-03,1.6748851e-02,2.1037356e-03,1.4414912e-03,-3.0979128e-03,1.4142869e-03,6.5080014e-02,-1.6382181e-01,8.9878291e-02
2.0199490e+00,5.5742200e-05,-8.2102197e-05,1.5916041e-04,-7.3626635e-03,9.3979090e-04,-7.3757664e-03,1.4208868e-03,-2.7210145e-03,9.7234702e-04,-2.0604398e-03,3.7689865e-02,-4.4194030e-02
2.0299489e+00,5.3403632e-05,-2.7793464e-04,2.9891270e-05,-2.5165126e-04,-1.9582914e-02,-2.4435614e-04,9.0722919e-04,-5.3766028e-04,-1.1885297e-04,-5.1365808e-02,2.1833563e-01,-1.0912010e-01
2.0399489e+00,-1.3448401e-04,-9.1965860e-04,-3.9333747e-04,-1.8853888e-02,-6.4278766e-02,-1.8355166e-02,5.6677768e-04,6.3029545e-03,-1.5306808e-03,-3.4045184e-02,6.8406213e-01,-1.4118292e-01
2.0499489e+00,-1.9479008e-04,-8.3431951e-04,-4.2384938e-04,-6.0290234e-03,8.5057200e-03,-6.0718972e-03,9.6460281e-04,5.6234821e-03,-1.1024934e-03,3.9782551e-02,-6.7947310e-02,4.2818780e-02
2.0599489e+00,-2.4126910e-05,-1.5877887e-04,-2.0637588e-05,1.7144296e-02,6.7517814e-02,1.7131773e-02,1.2374041e-03,-8.8556349e-04,3.2902092e-04,2.7280154e-02,-6.5090518e-01,1.4315157e-01
2.0699489e+00,4.4684408e-05,-1.3888935e-04,2.7857053e-05,6.8795886e-03,1.9768445e-03,6.8861755e-03,6.9870167e-04,-1.0603665e-03,4.2683477e-04,-5.3870293e-02,-1.7480319e-02,9.7813947e-03
2.0799489e+00,-1.8477496e-04,-8.4648371e-04,-3.1564538e-04,-2.3039264e-02,-7.0854483e-02,-2.2556064e-02,8.0622781e-04,4.9928420e-03,-1.5816863e-03,1.0752625e-02,6.0532143e-01,-2.0085230e-01
2.0899489e+00,3.1028430e-06,-3.4242145e-04,-1.5586395e-05,1.8821084e-02,5.0403731e-02,1.8761290e-02,5.7849288e-04,4.4389833e-04,-2.1980974e-04,-2.2773515e-02,-4.5489480e-01,1.3618778e-01
2.0999489e+00,-1.2225468e-05,-2.8156226e-04,2.0845123e-05,-1.5260261e-03,6.0880489e-03,-1.5311870e-03,1.0572167e-03,-3.3105349e-04,2.4230381e-04,4.7872427e-02,-7.7495256e-02,4.6211398e-02
2.1099489e+00,3.9495183e-06,-2.9924120e-04,5.2663696e-05,1.6146086e-03,-1.7716544e-03,1.6162759e-03,1.4370599e-03,-8.8822194e-04,2.1595865e-04,3.7984355e-02,-5.5716898e-02,-2.6345186e-03
2.1199489e+00,6.8358787e-05,-2.3901831e-04,7.5399445e-05,6.4451816e-03,6.0057247e-03,6.4521451e-03,1.3474243e-03,-1.2229198e-03,5.9913568e-04,-8.9635636e-03,-3.3469819e-02,3.8317739e-02
2.1299489e+00,1.0933494e-04,-2.9129174e-04,3.7754387e-05,4.0944587e-03,-5.2317980e-03,4.0950984e-03,5.8055986e-04,-5.0566546e-04,3.0415693e-05,-7.6686520e-02,7.1725504e-02,-5.6872052e-02
2.1399488e+00,1.3073704e-04,-1.9112545e-04,9.8468926e-05,2.1453984e-03,1.0012332e-02,2.1551209e-03,6.0705941e-04,-1.3991750e-03,4.1797764e-04,2.6499572e-03,-8.9351040e-02,3.8756232e-02
2.1499488e+00,1.3192228e-04,-7.1451055e-05,1.2945281e-04,1.3448045e-04,1.1966900e-02,1.5233261e-04,1.3436740e-03,-2.8135021e-03,1.0387650e-03,7.3661525e-02,-1.4143284e-01,6.2078792e-02
2.1599488e+00,1.3676174e-05,-3.5458009e-04,-6.9044368e-05,-1.1850766e-02,-2.8301168e-02,-1.1826607e-02,1.0329028e-03,3.9395723e-05,2.6158470e-04,-3.1077143e-02,2.8529005e-01,-7.7718100e-02
2.1699488e+00,1.0040476e-04,-2.0704977e-04,3.0032740e-05,8.6802630e-03,1.4734055e-02,8.6977154e-03,6.6698216e-04,-1.5199762e-03,2.8146573e-04,-3.6592101e-02,-1.5593734e-01,1.9881042e-03
2.1799488e+00,6.8486174e-05,-2.1147865e-04,8.7469868e-05,-3.1910370e-03,-4.3529612e-04,-3.1937291e-03,6.6926577e-04,-1.7084017e-03,3.5080470e-04,2.2836072e-04,-1.8842570e-02,6.9339041e-03
2.1899488e+00,1.9845277e-05,-2.6789591e-04,8.2312344e-05,-4.8683470e-03,-5.6328522e-03,-4.8701267e-03,8.3783266e-04,-9.8654981e-04,9.7126607e-05,1.6856705e-02,7.2185255e-02,-2.5367834e-02
2.1999488e+00,-1.8695588e-05,-3.3697464e-04,3.5117170e-05,-3.8610453e-03,-6.9042797e-03,-3.8535806e-03,9.2410388e-04,-9.3849159e-06,-1.4874889e-04,8.6271303e-03,9.7716583e-02,-2.4587573e-02
2.2099488e+00,-6.6999840e-06,-2.8677662e-04,4.0457710e-05,1.2043993e-03,5.0179434e-03,1.2025065e-03,1.0903082e-03,-4.5988064e-04,5.2890397e-04,1.6620450e-02,-4.5049615e-02,6.7765351e-02
2.2199488e+00,4.6692488e-06,-2.0081022e-04,4.6426578e-05,1.1467678e-03,8.5940240e-03,1.1468370e-03,1.2123514e-03,-1.0855342e-03,5.0813723e-04,1.2204328e-02,-6.2565412e-02,-2.0766765e-03
2.2299488e+00,7.0299341e-05,-2.0201763e-04,5.0119636e-05,6.5632345e-03,-1.2691331e-04,6.5626800e-03,5.0796729e-04,-4.3255351e-04,-4.2846616e-05,-7.0438477e-02,6.5298127e-02,-5.5098437e-02
2.2399490e+00,-6.5688973e-05,-6.4649593e-04,-2.0179575e-04,-1.3640242e-02,-4.4492761e-02,-1.3405103e-02,5.9395374e-04,4.0041068e-03,-1.1275520e-03,8.5984489e-03,4.4365588e-01,-1.0846805e-01
2.2499490e+00,-4.3694561e-05,-4.7789509e-04,-1.6519557e-04,2.2197391e-03,1.6862420e-02,2.1609291e-03,1.1391724e-03,2.2190619e-03,-4.9601808e-04,5.4521915e-02,-1.7850466e-01,6.3153450e-02
2.2599490e+00,-4.5682692e-05,-5.1375625e-04,-1.8226180e-04,-2.0330176e-04,-3.5862905e-03,-1.9102837e-04,1.2383533e-03,2.1572397e-03,-2.4033831e-04,9.9181005e-03,-6.1822335e-03,2.5568001e-02
2.2699490e+00,-1.4469830e-04,-7.4182818e-04,-3.7770738e-04,-9.9333590e-03,-2.2840998e-02,-9.7912401e-03,8.9474044e-04,4.3343175e-03,-1.1505761e-03,-3.4361317e-02,2.1770799e-01,-9.1023865e-02
2.2799489e+00,-9.8841387e-05,-7.5933275e-04,-3.2051882e-04,4.5901360e-03,-1.7346300e-03,4.5872684e-03,6.1698841e-04,4.0704581e-03,-1.2046689e-03,-2.7775230e-02,-2.6385968e-02,-5.4092880e-03
2.2899489e+00,1.0435470e-04,-2.8031138e-04,3.7832043e-05,2.0340267e-02,4.7873380e-02,2.0366802e-02,4.9668840e-04,-9.1931229e-04,1.5506094e-04,-1.2030012e-02,-4.9897751e-01,1.3597312e-01
2.2999489e+00,1.0953134e-04,-3.8000121e-04,5.1402680e-05,5.1191847e-04,-9.9693411e-03,5.1664819e-04,5.5104940e-04,-1.2694823e-04,4.8727702e-04,5.4361050e-03,7.9236481e-02,3.3221640e-02
2.3099489e+00,9.1805614e-06,-3.2486870e-04,1.1688487e-04,-1.0014803e-02,5.5364920e-03,-1.0042555e-02,1.2496245e-03,-1.0652348e-03,1.3331234e-03,6.9857574e-02,-9.3828751e-02,8.4584715e-02
2.3199489e+00,-2.3095192e-04,-2.7648574e-04,1.5474564e-04,-2.3968264e-02,4.9208636e-03,-2.4041442e-02,1.7896884e-03,-1.6466515e-03,1.5109122e-03,5.4006446e-02,-5.8141724e-02,1.7778901e-02
2.3299489e+00,-6.0509841e-04,-3.9690559e-04,9.1998752e-05,-3.7426068e-02,-1.1968350e-02,-3.7426928e-02,1.2948675e-03,-6.7308343e-04,1.1166341e-04,-4.9482135e-02,9.7356903e-02,-1.3992501e-01
2.3399489e+00,-1.0154900e-03,-3.5512848e-04,1.5101953e-04,-4.1036500e-02,4.3071290e-03,-4.1028521e-02,1.5149149e-03,-1.6389188e-03,-8.9573921e-05,2.2004753e-02,-9.6583629e-02,-2.0123753e-02
2.3499489e+00,-1.2807804e-03,-3.3121230e-04,1.5863114e-04,-2.6511040e-02,2.5137238e-03,-2.6535784e-02,2.1087013e-03,-2.4932080e-03,4.8679814e-04,5.9378705e-02,-8.5428996e-02,5.7637261e-02
2.3599489e+00,-1.4532604e-03,-5.2519780e-04,1.3442404e-04,-1.7273330e-02,-1.9323754e-02,-1.7306565e-02,2.6850392e-03,-1.6443987e-03,1.5473801e-03,5.7633842e-02,8.4881010e-02,1.0605830e-01
2.3699489e+00,-1.6741609e-03,-8.6200010e-04,-8.6412891e-05,-2.2153053e-02,-3.3658378e-02,-2.2060331e-02,2.4252443e-03,1.4394254e-03,8.4319791e-04,-2.5979516e-02,3.0838270e-01,-7.0418285e-02
2.3799489e+00,-2.0377232e-03,-1.2147009e-03,-2.9523326e-04,-3.6445123e-02,-3.5340367e-02,-3.6198740e-02,2.3177327e-03,4.2622213e-03,-1.9829035e-04,-1.0751174e-02,2.8227986e-01,-1.0414893e-01
2.3899488e+00,-2.5576687e-03,-1.3038696e-03,-4.7577042e-04,-5.2072664e-02,-9.0365399e-03,-5.1895725e-02,2.1719841e-03,4.4807231e-03,-1.1318874e-03,-1.4574868e-02,2.1850192e-02,-9.3359792e-02
2.3999488e+00,-3.2601314e-03,-1.6019946e-03,-5.0469837e-04,-7.0441343e-02,-2.9921249e-02,-7.0004421e-02,3.4024078e-03,4.9644673e-03,-1.3387132e-03,1.2304249e-01,4.8374474e-02,-2.0682599e-02
2.4099169e+00,-3.7154261e-03,-1.9251172e-03,-5.1573334e-04,-4.5862124e-02,-3.2540792e-02,-4.5398705e-02,3.7300010e-03,6.4945053e-03,-1.4479804e-03,3.2864348e-02,1.5349432e-01,-1.0961750e-02
2.4199169e+00,-4.0553287e-03,-1.8125207e-03,-1.5920761e-04,-3.3986967e-02,1.1204495e-02,-3.4011828e-02,3.4514309e-03,5.0736532e-03,-1.0521942e-03,-2.7857038e-02,-1.4208535e-01,3.9578653e-02
2.4299169e+00,-4.4853340e-03,-1.5398152e-03,1.0270245e-04,-4.2879620e-02,2.7422069e-02,-4.3025000e-02,4.1696423e-03,6.4079716e-04,1.5970790e-04,7.1821209e-02,-4.4328602e-01,1.2119033e-01
2.4399168e+00,-4.9186030e-03,-1.4954941e-03,1.4829969e-04,-4.3271492e-02,4.6943962e-03,-4.3354726e-02,4.7135462e-03,-1.3402765e-03,7.8624853e-04,5.4390441e-02,-1.9810755e-01,6.2654122e-02
2.4499168e+00,-5.4868657e-03,-1.5621782e-03,2.5462818e-04,-5.6804691e-02,-6.2544137e-03,-5.6894995e-02,5.1195098e-03,-2.1619864e-03,9.6796105e-04,4.0596395e-02,-8.2171076e-02,1.8171269e-02
2.4599168e+00,-6.3622851e-03,-2.2280102e-03,-2.2206458e-05,-8.7923076e-02,-6.6253161e-02,-8.7410490e-02,5.9363086e-03,2.1803654e-03,1.4461375e-04,8.1679956e-02,4.3423559e-01,-8.2334808e-02
2.4699168e+00,-6.9862848e-03,-2.1102049e-03,6.9339137e-05,-6.2317271e-02,1.2182736e-02,-6.2405495e-02,6.2797823e-03,-1.6945108e-04,1.2088990e-04,3.4347403e-02,-2.3498187e-01,-2.3723875e-03
2.4799168e+00,-7.6058746e-03,-2.3633906e-03,4.3348924e-05,-6.2146626e-02,-2.4956727e-02,-6.1917981e-02,6.4820499e-03,6.5062101e-04,-3.9980398e-04,2.0226786e-02,8.2007287e-02,-5.2069437e-02
2.4899170e+00,-8.1287695e-03,-2.4906757e-03,6.8083140e-05,-5.2394678e-02,-1.2424021e-02,-5.2254949e-02,6.6241908e-03,8.1226139e-04,-4.4419128e-04,1.4213761e-02,1.6163668e-02,-4.4386284e-03
2.4999170e+00,-8.4129033e-03,-2.6787764e-03,1.1924664e-04,-2.8524442e-02,-1.8632713e-02,-2.8419015e-02,6.9722410e-03,7.4522121e-04,6.8311279e-04,3.4805052e-02,-6.7040240e-03,1.1273051e-01
2.5099170e+00,-8.7468143e-03,-3.0599946e-03,-2.1563413e-07,-3.3625188e-02,-3.7956915e-02,-3.3344135e-02,7.5712312e-03,2.6637031e-03,1.6043545e-03,5.9899078e-02,1.9184837e-01,9.2124262e-02
2.5199170e+00,-9.4164560e-03,-3.1714966e-03,-5.3670565e-05,-6.6968420e-02,-1.0725657e-02,-6.7029369e-02,9.0109110e-03,2.6743813e-03,1.3963496e-03,1.4396812e-01,1.0678161e-03,-2.0800513e-02
2.5299170e+00,-1.0204491e-02,-2.9940947e-03,8.9466290e-05,-7.8628755e-02,1.8440297e-02,-7.8817547e-02,9.1287837e-03,2.3532421e-04,1.2209197e-04,1.1787277e-02,-2.4390594e-01,-1.2742588e-01
2.5399170e+00,-1.1089392e-02,-3.3418970e-03,5.6756925e-05,-8.8913322e-02,-3.4022642e-02,-8.8360356e-02,9.8545129e-03,1.3133736e-03,-9.5826445e-04,7.2572986e-02,1.0780504e-01,-1.0803575e-01
2.5499170e+00,-1.1903896e-02,-3.8377660e-03,7.6569433e-05,-8.2067391e-02,-4.8949287e-02,-8.1216689e-02,1.0923859e-02,3.1372200e-03,-9.8341404e-04,1.0693476e-01,1.8238482e-01,-2.5149616e-03
2.5599170e+00,-1.2608156e-02,-4.5116798e-03,-1.9392229e-04,-7.1252837e-02,-6.7109686e-02,-6.9861247e-02,1.1071179e-02,7.1618087e-03,-1.2075970e-03,1.4731939e-02,4.0245925e-01,-2.2418318e-02
2.5699170e+00,-1.2924085e-02,-3.9562835e-03,2.1284081e-04,-3.0936915e-02,5.5853032e-02,-3.1689508e-02,1.1116593e-02,1.0873853e-03,1.1586025e-03,4.5414140e-03,-6.0744292e-01,2.3662018e-01
2.5799170e+00,-1.3614745e-02,-4.1659045e-03,1.8459273e-04,-6.9271596e-02,-2.0214531e-02,-6.9083177e-02,1.1993202e-02,1.1898775e-03,5.9268582e-04,8.7661005e-02,1.0249227e-02,-5.6591726e-02
2.5899169e+00,-1.4537918e-02,-4.8311653e-03,-9.3312571e-05,-9.3143719e-02,-6.5841098e-02,-9.1977773e-02,1.2466008e-02,5.1106372e-03,-4.6039467e-05,4.7280619e-02,3.9207634e-01,-6.3872589e-02
2.5999169e+00,-1.5543502e-02,-5.0096613e-03,-4.7494050e-05,-1.0083134e-01,-1.7026669e-02,-1.0042784e-01,1.3081160e-02,4.9165533e-03,-4.7738405e-04,6.1515286e-02,-1.9408404e-02,-4.3134500e-02
2.6099169e+00,-1.6567048e-02,-5.2390263e-03,4.4087521e-05,-1.0277215e-01,-2.1961229e-02,-1.0215028e-01,1.4067898e-02,4.5680378e-03,-1.0247165e-03,9.8673885e-02,-3.4851582e-02,-5.4733301e-02
2.6199169e+00,-1.7211032e-02,-4.7750995e-03,4.9370303e-04,-6.3697562e-02,4.7451196e-02,-6.4324185e-02,1.4818222e-02,-1.6986315e-03,9.8591010e-05,7.5032446e-02,-6.2666753e-01,1.1233086e-01
2.6299169e+00,-1.7907874e-02,-5.0628573e-03,5.5706217e-04,-7.0127024e-02,-2.7536813e-02,-6.9740750e-02,1.5685339e-02,-2.0438725e-03,4.7411072e-07,8.6711861e-02,-3.4524134e-02,-9.8116993e-03
2.6399169e+00,-1.8350948e-02,-5.3888778e-03,5.6533293e-04,-4.4795840e-02,-3.1830059e-02,-4.4377545e-02,1.6170562e-02,-1.1567213e-03,7.4307011e-04,4.8522332e-02,8.8715205e-02,7.4259671e-02
2.6499169e+00,-1.9127213e-02,-6.3600830e-03,9.4418026e-05,-7.9310640e-02,-9.6116877e-02,-7.7172344e-02,1.7578445e-02,4.8543729e-03,1.4354058e-04,1.4078842e-01,6.0110999e-01,-5.9953010e-02
2.6599169e+00,-1.9783478e-02,-6.4090940e-03,1.3648012e-04,-6.5675752e-02,-4.0529012e-03,-6.5635087e-02,1.7608077e-02,4.6927684e-03,4.0929867e-04,2.9631485e-03,-1.6160471e-02,2.6575834e-02
2.6699169e+00,-2.0699764e-02,-6.3851636e-03,2.6344296e-04,-9.1555491e-02,3.8409990e-03,-9.1652655e-02,1.8668500e-02,2.8597980e-03,1.3737225e-04,1.0604247e-01,-1.8329721e-01,-2.7192668e-02
2.6799169e+00,-2.1733528e-02,-6.4525426e-03,4.5077471e-04,-1.0352411e-01,-4.7943352e-03,-1.0333719e-01,1.9328676e-02,5.3902398e-04,-3.5496864e-04,6.6017657e-02,-2.3207763e-01,-4.9234137e-02
2.6899168e+00,-2.2651381e-02,-6.5958519e-03,6.4353238e-04,-9.2095707e-02,-1.2375051e-02,-9.1759044e-02,2.0070044e-02,-1.2097746e-03,-4.4921357e-04,7.4136856e-02,-1.7488002e-01,-9.4245017e-03
2.6999168e+00,-2.3405263e-02,-6.9267377e-03,6.6052151e-04,-7.6098445e-02,-3.1455060e-02,-7.5374009e-02,2.0958058e-02,-6.1573659e-04,-4.4206801e-04,8.8801464e-02,5.9403853e-02,7.1455668e-04
2.7099168e+00,-2.3795668e-02,-7.2334911e-03,6.0629656e-04,-3.9619006e-02,-2.9888673e-02,-3.9067943e-02,2.1146023e-02,1.1680290e-03,1.5714541e-03,1.8796483e-02,1.7837673e-01,2.0135241e-01
2.7199168e+00,-2.4546231e-02,-7.9717549e-03,2.2130915e-04,-7.6628372e-02,-7.2655187e-02,-7.4609628e-02,2.1772199e-02,6.4168074e-03,2.3321527e-04,6.2617657e-02,5.2487834e-01,-1.3382401e-01
2.7299168e+00,-2.5396908e-02,-8.0150878e-03,1.9256082e-04,-8.5102039e-02,-2.8139522e-03,-8.5097306e-02,2.2809943e-02,4.9587087e-03,4.9866263e-04,1.0377451e-01,-1.4581001e-01,2.6544761e-02
2.7399170e+00,-2.6313278e-02,-7.6635771e-03,5.6536108e-04,-9.0707294e-02,3.7376314e-02,-9.1676832e-02,2.3973512e-02,-4.3137576e-04,6.3994254e-04,1.1635422e-01,-5.3899611e-01,1.4127667e-02
2.7499170e+00,-2.7551847e-02,-7.5045941e-03,7.2956045e-04,-1.2344845e-01,1.9526215e-02,-1.2374604e-01,2.4349632e-02,-4.9844112e-03,-1.2300827e-04,3.7612057e-02,-4.5530398e-01,-7.6295154e-02
2.7599170e+00,-2.8909730e-02,-8.5189715e-03,7.5996081e-04,-1.3846546e-01,-9.7862023e-02,-1.3570920e-01,2.6176765e-02,9.6041452e-05,-5.0467178e-04,1.8271349e-01,5.0804575e-01,-3.8166387e-02
2.7699170e+00,-2.9906929e-02,-8.8204760e-03,8.4431261e-04,-1.0046333e-01,-2.7402712e-02,-9.9766732e-02,2.6966530e-02,-4.8147706e-04,3.3411449e-04,7.8976596e-02,-5.7751906e-02,8.3878706e-02
2.7799170e+00,-3.0782070e-02,-8.9376419e-03,8.3111402e-04,-8.7755104e-02,-9.1495244e-03,-8.7578947e-02,2.7435124e-02,-1.8499169e-03,5.4324257e-04,4.6859439e-02,-1.3684412e-01,2.0912828e-02
2.7899170e+00,-3.1778772e-02,-9.2816256e-03,7.8695518e-04,-1.0061748e-01,-3.1612955e-02,-9.9641073e-02,2.7472649e-02,-3.4732798e-04,-4.0002724e-04,3.7524855e-03,1.5025904e-01,-9.4327072e-02
2.7999170e+00,-3.2740724e-02,-9.4214599e-03,8.9126543e-04,-9.6610166e-02,-1.0995580e-02,-9.6167361e-02,2.8556836e-02,-2.4492826e-03,-5.7056592e-04,1.0841884e-01,-2.1019567e-01,-1.7053884e-02
2.8099170e+00,-3.3657761e-02,-9.8296070e-03,9.7181997e-04,-9.2860631e-02,-3.7833140e-02,-9.1818169e-02,2.9632723e-02,-2.6878333e-03,1.3291434e-04,1.0758880e-01,-2.3855093e-02,7.0348093e-02
2.8199170e+00,-3.4580719e-02,-1.0094790e-02,1.0409980e-03,-9.2981416e-02,-2.3346017e-02,-9.2464677e-02,3.1086875e-02,-3.1453284e-03,1.0196646e-03,1.4541525e-01,-4.5749546e-02,8.8675108e-02
2.8299170e+00,-3.5753869e-02,-1.0455923e-02,1.0057566e-03,-1.1835566e-01,-3.2092467e-02,-1.1743869e-01,3.1791286e-02,-2.3313532e-03,4.0944014e-04,7.0441262e-02,8.1397598e-02,-6.1022501e-02
2.8399169e+00,-3.6705892e-02,-1.0752807e-02,9.3966971e-04,-9.6166032e-02,-2.6430992e-02,-9.5194018e-02,3.1900496e-02,-2.1630094e-03,-6.8440422e-04,1.0920939e-02,1.6834393e-02,-1.0938454e-01
2.8499169e+00,-3.7713738e-02,-1.1543862e-02,7.2686900e-04,-1.0345963e-01,-7.5983716e-02,-1.0047565e-01,3.2657589e-02,2.0999103e-03,-1.4475569e-03,7.5709363e-02,4.2629238e-01,-7.6315339e-02
2.8599169e+00,-3.8762607e-02,-1.1788810e-02,8.2602866e-04,-1.0574366e-01,-2.1068598e-02,-1.0477092e-01,3.3803250e-02,1.2657053e-03,-8.4653610e-04,1.1456622e-01,-8.3420581e-02,6.0102135e-02
2.8699169e+00,-3.9830968e-02,-1.1719850e-02,1.0997317e-03,-1.0653932e-01,1.0915260e-02,-1.0679771e-01,3.4628810e-02,-3.0384619e-03,-5.4980736e-05,8.2556114e-02,-4.3041713e-01,7.9155612e-02
2.8799169e+00,-4.1291845e-02,-1.2543117e-02,9.1231575e-04,-1.4910896e-01,-7.7198688e-02,-1.4583516e-01,3.5127000e-02,3.6507442e-04,-1.5067271e-03,4.9819022e-02,3.4035396e-01,-1.4517477e-01
2.8899169e+00,-4.2553488e-02,-1.3136936e-02,9.6809302e-04,-1.2841319e-01,-5.4934351e-02,-1.2591040e-01,3.6533009e-02,1.5889602e-03,-1.3007124e-03,1.4060106e-01,1.2238870e-01,2.0601488e-02
2.8999169e+00,-4.3727254e-02,-1.3159037e-02,1.2623042e-03,-1.1740452e-01,2.5579964e-03,-1.1734179e-01,3.7797761e-02,-2.8203358e-03,-2.3984162e-04,1.2647528e-01,-4.4093002e-01,1.0608718e-01
2.9099169e+00,-4.5093464e-02,-1.3814095e-02,1.2104797e-03,-1.3911232e-01,-6.0120467e-02,-1.3658317e-01,3.8725605e-02,-3.4338843e-04,-4.2122381e-04,9.2784524e-02,2.4769497e-01,-1.8138236e-02
2.9199169e+00,-4.6528099e-02,-1.3998398e-02,1.2590918e-03,-1.4414952e-01,-1.2353749e-02,-1.4342806e-01,4.0277544e-02,-1.9856185e-03,-4.1904922e-04,1.5519406e-01,-1.6422316e-01,2.1745919e-04
2.9299169e+00,-4.8106287e-02,-1.4218668e-02,1.3776975e-03,-1.5875522e-01,-1.4802826e-02,-1.5772293e-01,4.0870413e-02,-4.8038682e-03,-1.0651083e-03,5.9286962e-02,-2.8182524e-01,-6.4605969e-02
2.9399168e+00,-4.9676969e-02,-1.4633460e-02,1.4241613e-03,-1.5894639e-01,-3.3857018e-02,-1.5700694e-01,4.2485761e-02,-5.8224488e-03,-1.6444141e-03,1.6153491e-01,-1.0185816e-01,-5.7930639e-02
2.9499168e+00,-5.1280929e-02,-1.5292277e-02,1.4782656e-03,-1.6346474e-01,-5.8130870e-02,-1.6029450e-01,4.3395362e-02,-4.5620800e-03,-2.2567285e-03,9.0960189e-02,1.2603701e-01,-6.1231493e-02
2.9599168e+00,-5.2927294e-02,-1.6030960e-02,1.5093438e-03,-1.6819930e-01,-6.5737435e-02,-1.6448285e-01,4.5235341e-02,-3.7141284e-03,-2.3758656e-03,1.8399811e-01,8.4795236e-02,-1.1913720e-02
2.9699168e+00,-5.4447461e-02,-1.6784631e-02,1.6883242e-03,-1.5564938e-01,-6.7800745e-02,-1.5190392e-01,4.6851375e-02,-2.3988995e-03,-1.7748861e-03,1.6160359e-01,1.3152301e-01,6.0098007e-02
2.9799168e+00,-5.5937260e-02,-1.7245586e-02,1.6263730e-03,-1.5126227e-01,-3.8584898e-02,-1.4881468e-01,4.7695544e-02,-2.3876801e-03,-1.7062409e-03,8.4416968e-02,1.1219461e-03,6.8645247e-03
2.9899170e+00,-5.7763087e-02,-1.8078339e-02,1.6326749e-03,-1.8686250e-01,-7.3931967e-02,-1.8226562e-01,4.9448457e-02,-1.1801730e-03,-2.1443710e-03,1.7528721e-01,1.2074794e-01,-4.3812014e-02
2.9999170e+00,-5.9472363e-02,-1.8618237e-02,1.8213836e-03,-1.7369017e-01,-4.4778684e-02,-1.7080434e-01,5.1163574e-02,-2.3370114e-03,-1.3168604e-03,1.7151195e-01,-1.1568395e-01,8.2751148e-02
3.0099170e+00,-6.1454808e-02,-1.9423118e-02,1.8512309e-03,-2.0253262e-01,-6.9703141e-02,-1.9799552e-01,5.2345356e-02,-1.5276463e-03,-1.7583422e-03,1.1817824e-01,8.0936587e-02,-4.4148228e-02
3.0199170e+00,-6.3341721e-02,-1.9833322e-02,1.8255237e-03,-1.9095889e-01,-3.0357002e-02,-1.8842726e-01,5.3353199e-02,-2.8801397e-03,-1.8476232e-03,1.0078443e-01,-1.3524947e-01,-8.9281050e-03
3.0299170e+00,-6.5443886e-02,-2.0771839e-02,1.8227822e-03,-2.1575106e-01,-8.1781757e-02,-2.0965081e-01,5.5442616e-02,-1.3204665e-03,-3.1288684e-03,2.0894190e-01,1.5596747e-01,-1.2812464e-01
3.0399170e+00,-6.7568061e-02,-2.1468171e-02,1.8415189e-03,-2.1681986e-01,-5.7201564e-02,-2.1168008e-01,5.7270288e-02,-7.5128427e-04,-3.6066771e-03,1.8276738e-01,5.6918282e-02,-4.7780915e-02
3.0499170e+00,-6.9590957e-02,-2.1918536e-02,1.8867009e-03,-2.0524440e-01,-3.2707328e-02,-2.0168199e-01,5.8553007e-02,-2.0534042e-03,-3.2963315e-03,1.2827205e-01,-1.3021212e-01,3.1034593e-02
3.0599170e+00,-7.1684202e-02,-2.2925594e-02,2.0380454e-03,-2.1557776e-01,-8.6922713e-02,-2.0915546e-01,6.2284559e-02,-2.6726864e-03,-1.8677881e-03,3.7315548e-01,-6.1928277e-02,1.4285447e-01
3.0699170e+00,-7.3906385e-02,-2.3590135e-02,1.9711332e-03,-2.2638856e-01,-5.1651278e-02,-2.2194284e-01,6.3640924e-02,-2.4143360e-03,-1.7727994e-03,1.3563668e-01,2.5835070e-02,9.4988825e-03
3.0799170e+00,-7.6168560e-02,-2.4272641e-02,1.8591302e-03,-2.3059402e-01,-5.2145570e-02,-2.2608476e-01,6.5864087e-02,-4.7276800e-03,-1.6580595e-03,2.2231655e-01,-2.3133462e-01,1.1474001e-02
3.0899169e+00,-7.8583269e-02,-2.5079472e-02,1.9321679e-03,-2.4677977e-01,-6.2759189e-02,-2.4142789e-01,6.8119072e-02,-5.3914844e-03,-1.5618117e-03,2.2549863e-01,-6.6380507e-02,9.6247892e-03
3.0999169e+00,-8.1031037e-02,-2.6069906e-02,1.8844793e-03,-2.5159153e-01,-8.0423391e-02,-2.4469370e-01,7.0525096e-02,-4.6022965e-03,-1.8143479e-03,2.4060263e-01,7.8918869e-02,-2.5253641e-02
3.1099169e+00,-8.3730069e-02,-2.6981989e-02,1.8650095e-03,-2.7633896e-01,-6.9990754e-02,-2.6972725e-01,7.2575563e-02,-5.2174370e-03,-1.9742694e-03,2.0504695e-01,-6.1514108e-02,-1.5992173e-02
3.1199169e+00,-8.6139517e-02,-2.7874849e-02,1.8950536e-03,-2.4729218e-01,-6.9793599e-02,-2.4094898e-01,7.4428442e-02,-5.5191107e-03,-1.5574886e-03,1.8528803e-01,-3.0167399e-02,4.1678120e-02
3.1299169e+00,-8.8807148e-02,-2.8873427e-02,1.9469964e-03,-2.7391853e-01,-7.7682854e-02,-2.6689136e-01,7.7036548e-02,-5.0570102e-03,-9.7979259e-04,2.6081083e-01,4.6210088e-02,5.7769660e-02
3.1399169e+00,-9.1545490e-02,-2.9905604e-02,2.1320286e-03,-2.8165725e-01,-7.9731486e-02,-2.7374553e-01,7.9796650e-02,-4.8615887e-03,-1.7048956e-03,2.7601055e-01,1.9542174e-02,-7.2510368e-02
3.1499169e+00,-9.4088427e-02,-3.0971147e-02,2.2643844e-03,-2.6243521e-01,-8.4728797e-02,-2.5423115e-01,8.1183579e-02,-3.3565860e-03,-1.3293494e-03,1.3869295e-01,1.5050041e-01,3.7554651e-02
3.1599169e+00,-9.7034057e-02,-3.2136936e-02,2.3860651e-03,-3.0371879e-01,-9.0404662e-02,-2.9446159e-01,8.4256393e-02,-3.3002670e-03,-1.3233459e-03,3.0728176e-01,5.6319080e-03,6.0035582e-04
3.1699169e+00,-9.9977808e-02,-3.3155874e-02,2.3162822e-03,-3.0246329e-01,-7.5017837e-02,-2.9425210e-01,8.6576162e-02,-3.5372270e-03,-1.2915799e-03,2.3197708e-01,-2.3696030e-02,3.1766005e-03
