time, x, y, z, vx, vy, vz, yaw, pitch, roll, yaw_rate, pitch_rate, roll_rate
0.0000000e+00,0.0000000e+00,0.0000000e+00,0.0000000e+00,0.0000000e+00,0.0000000e+00,0.0000000e+00,0.0000000e+00,0.0000000e+00,0.0000000e+00,0.0000000e+00,0.0000000e+00,0.0000000e+00
9.9999905e-03,2.2852006e-04,3.8052544e-04,4.2391234e-04,2.2842957e-02,3.7849084e-02,2.3196452e-02,1.0135577e-03,-7.8234125e-03,2.0819898e-03,1.0135587e-01,-7.8234200e-01,2.0819918e-01
1.9999981e-02,-2.1004131e-04,-3.4438176e-04,-2.5864912e-04,-4.3917876e-02,-7.2596349e-02,-4.3619190e-02,1.6107567e-04,2.5764672e-03,-1.1412165e-03,-8.5248286e-02,1.0399890e+00,-3.2232094e-01
2.9999971e-02,-2.6724665e-05,-9.8060784e-05,-1.9730130e-04,1.8333559e-02,2.4651843e-02,1.8303272e-02,-2.4176682e-04,8.3495358e-04,-4.2737321e-04,-4.0284287e-02,-1.7415153e-01,7.1384402e-02
3.9999962e-02,-2.1070423e-04,-2.1859610e-04,-4.0293967e-04,-1.8416632e-02,-1.2107990e-02,-1.8343474e-02,-6.1372777e-04,2.3509482e-03,-1.4174083e-03,-3.7196130e-02,1.5159961e-01,-9.9003607e-02
4.9999952e-02,-2.1729378e-05,6.2286975e-05,-2.2753943e-04,1.8891355e-02,2.8098466e-02,1.8888586e-02,-6.2218515e-04,-8.5771705e-05,-5.9980291e-04,-8.4573835e-04,-2.4367222e-01,8.1760620e-02
6.0000181e-02,2.8563964e-05,1.2010500e-04,-1.3289641e-04,5.0261925e-03,5.7822189e-03,5.0316132e-03,-6.9157005e-04,-5.8205992e-04,-1.9348061e-04,-6.9383319e-03,-4.9627686e-02,4.0631300e-02
7.0000172e-02,-4.0339642e-05,1.3729272e-05,-1.9455740e-04,-6.8890534e-03,-1.0640964e-02,-6.8864593e-03,-4.2127904e-04,6.9568686e-05,-4.5990660e-04,2.7029127e-02,6.5162923e-02,-2.6642624e-02
8.0000162e-02,-1.5144798e-04,-2.4078037e-04,-3.5136110e-04,-1.1113060e-02,-2.5481328e-02,-1.1038858e-02,-4.6782669e-04,2.2717810e-03,-1.2719921e-03,-4.6547697e-03,2.2022144e-01,-8.1208625e-02
9.0000153e-02,-1.6821084e-04,-2.5925289e-04,-3.5423254e-04,-1.6766790e-03,-1.8517952e-03,-1.6708774e-03,-6.4105389e-04,2.0726942e-03,-9.4037360e-04,-1.7322736e-02,-1.9908694e-02,3.3161879e-02
1.0000014e-01,-5.3265917e-05,4.5375051e-05,-1.5447674e-04,1.1486259e-02,3.0465261e-02,1.1496284e-02,-4.9729707e-04,-2.8496156e-04,-6.0099600e-04,1.4375696e-02,-2.3576580e-01,3.3937792e-02
1.1000013e-01,-3.0346951e-05,-1.8902942e-04,-8.7902151e-05,2.2888533e-03,-2.3439833e-02,2.3014339e-03,1.5054358e-04,4.2736978e-04,-2.1090347e-04,6.4784126e-02,7.1233202e-02,3.9009290e-02
1.2000012e-01,2.4926411e-04,9.2531378e-05,4.8487328e-04,2.7936044e-02,2.7924016e-02,2.8217777e-02,1.3735391e-03,-6.8864877e-03,2.2768326e-03,1.2229967e-01,-7.3138644e-01,2.4877384e-01
1.3000011e-01,1.5473487e-04,1.9879891e-04,3.6530862e-04,-9.4256416e-03,1.0702910e-02,-9.3940918e-03,9.5477860e-04,-7.1167604e-03,1.8115836e-03,-4.1876093e-02,-2.3027291e-02,-4.6524939e-02
1.4000010e-01,-1.6930764e-04,-4.2558139e-04,-2.9930270e-04,-3.2432767e-02,-6.2538771e-02,-3.2180861e-02,-9.4988000e-05,3.0240915e-03,-1.0626480e-03,-1.0497676e-01,1.0140862e+00,-2.8742344e-01
1.4997101e-01,-4.1381394e-05,-1.2310682e-04,-1.3298379e-04,1.2830514e-02,3.0342902e-02,1.2812411e-02,-5.8708835e-05,5.0118796e-04,-1.8233977e-04,3.6385033e-03,-2.5302658e-01,8.8287710e-02
1.5997100e-01,-3.1354464e-05,1.0551214e-04,-1.7126250e-04,9.9006771e-04,2.2862157e-02,1.0097816e-03,-5.6016691e-04,-3.1780934e-04,-1.7998323e-04,-5.0145856e-02,-8.1899808e-02,2.3565414e-04
1.6997099e-01,3.7186625e-05,-6.6819923e-05,-1.0372390e-04,6.8546686e-03,-1.7231265e-02,6.8584830e-03,3.8065890e-05,3.2362245e-04,-1.7642911e-04,5.9823337e-02,6.4143240e-02,3.5541234e-04
1.7997098e-01,8.4916979e-06,1.8491266e-04,-1.2249752e-04,-2.8819532e-03,2.5174145e-02,-2.8493738e-03,-4.6095561e-04,-7.6524823e-04,-2.9775375e-04,-4.9902198e-02,-1.0888717e-01,-1.2132475e-02
1.8997097e-01,-7.1186012e-05,6.8066196e-05,-2.0147590e-04,-7.9677273e-03,-1.1689236e-02,-7.9611119e-03,-4.7158903e-04,1.0323252e-04,-6.8549748e-04,-1.0633430e-03,8.6848157e-02,-3.8774410e-02
1.9997096e-01,-7.9579643e-05,5.1924727e-05,-1.9273252e-04,-8.3890372e-04,-1.6147044e-03,-8.3875447e-04,-5.5870237e-04,1.0402967e-04,-5.2642061e-04,-8.7113426e-03,7.9714936e-05,1.5907702e-02
2.0997095e-01,-2.6394737e-04,-2.5870646e-04,-3.1249315e-04,-1.8462337e-02,-3.1101993e-02,-1.8345510e-02,-7.9017527e-05,2.0345015e-03,-1.5199362e-03,4.7968530e-02,1.9304737e-01,-9.9351651e-02
2.1997094e-01,4.0190361e-05,-3.9676353e-05,-3.6496445e-05,3.0413656e-02,2.1905003e-02,3.0412527e-02,-1.9697915e-04,-1.3213475e-04,-1.3708377e-04,-1.1796174e-02,-2.1666383e-01,1.3828537e-01
2.2997093e-01,-8.9623492e-05,-3.9333546e-04,-2.1302241e-04,-1.2987629e-02,-3.5399793e-02,-1.2882531e-02,-1.2073469e-04,2.4972186e-03,-8.0925044e-04,7.6244541e-03,2.6293558e-01,-6.7216731e-02
2.3997092e-01,-1.7629365e-04,-2.9202906e-04,-3.4374371e-04,-8.6825525e-03,1.0106848e-02,-8.6792615e-03,-4.1358980e-04,2.3324145e-03,-1.3091728e-03,-2.9285540e-02,-1.6480420e-02,-4.9992281e-02
2.4997091e-01,4.5628869e-05,-1.6177940e-04,-1.3341256e-04,2.2200457e-02,1.3038951e-02,2.2175877e-02,2.4884859e-05,6.5485271e-04,-3.5421807e-04,4.3847508e-02,-1.6775634e-01,9.5495561e-02
2.5997090e-01,7.4002451e-05,1.6414884e-04,-1.4763539e-04,2.8175379e-03,3.2592017e-02,2.8665867e-03,-6.3122043e-04,-9.1955192e-04,-2.6462243e-04,-6.5610592e-02,-1.5744061e-01,8.9595725e-03
2.6997089e-01,1.6019684e-04,2.4280525e-06,-6.5537644e-05,8.6190945e-03,-1.6175567e-02,8.6132806e-03,-2.8778262e-05,-4.3179048e-04,9.4848999e-05,6.0244274e-02,4.8776191e-02,3.5947177e-02
2.7997088e-01,1.1537157e-04,-5.6338230e-05,-8.7307046e-05,-4.4827554e-03,-5.8758148e-03,-4.4833806e-03,5.4695934e-05,-1.2800461e-04,2.1685414e-05,8.3474276e-03,3.0378616e-02,-7.3163655e-03
2.8997087e-01,9.9243115e-07,6.5788847e-05,-2.2221376e-04,-1.1449829e-02,1.2210130e-02,-1.1428775e-02,-4.5535493e-04,-2.2924239e-04,-5.5481633e-04,-5.1005135e-02,-1.0123788e-02,-5.7650229e-02
2.9997087e-01,-5.6880423e-05,2.1872043e-05,-2.5270760e-04,-5.7896949e-03,-4.3949738e-03,-5.7823875e-03,-4.3351347e-04,1.3501369e-04,-7.4472859e-04,2.1841478e-03,3.6425642e-02,-1.8991244e-02
3.0997109e-01,-7.1160261e-05,5.4535456e-05,-1.7750801e-04,-1.4305171e-03,3.2656772e-03,-1.4267301e-03,-5.1705642e-04,-1.0473328e-04,-6.1461802e-04,-8.3541038e-03,-2.3974148e-02,1.3010759e-02
3.1997108e-01,2.5754525e-05,1.8904583e-05,1.8565360e-05,9.6907328e-03,-3.5681764e-03,9.6903717e-03,-8.0971434e-05,-6.0572702e-04,1.0767044e-04,4.3608540e-02,-5.0099422e-02,7.2228915e-02
3.2997108e-01,-2.2537811e-04,-5.8829815e-05,2.2177046e-05,-2.5120481e-02,-7.7487277e-03,-2.5113732e-02,4.6771252e-04,-5.1660409e-04,-1.4180742e-04,5.4868448e-02,8.9123015e-03,-2.4947810e-02
3.3997107e-01,1.5694429e-04,2.2807972e-04,5.6143835e-04,3.8190245e-02,2.8332570e-02,3.8540329e-02,1.5928652e-03,-7.7406404e-03,2.2908224e-03,1.1251537e-01,-7.2240432e-01,2.4326321e-01
3.4997106e-01,-2.7942688e-04,-2.2266381e-04,-2.9496979e-04,-4.3695268e-02,-4.5176504e-02,-4.3473113e-02,-2.2877624e-04,2.1168218e-03,-1.5692042e-03,-1.8216431e-01,9.8574716e-01,-3.8600303e-01
3.5997105e-01,-8.9565656e-05,5.7684149e-05,-1.9238263e-04,1.8980764e-02,2.8047612e-02,1.8972624e-02,-6.0621593e-04,6.7693477e-05,-6.1229324e-04,-3.7744004e-02,-2.0491303e-01,9.5691191e-02
3.6997104e-01,-5.7390374e-05,6.4274738e-05,-1.7455488e-04,3.2190174e-03,6.5932475e-04,3.2159901e-03,-3.3274724e-04,-2.5043685e-04,-5.3022751e-04,2.7346895e-02,-3.1813063e-02,8.2065815e-03
3.7997103e-01,1.0577139e-04,-6.5982907e-05,-6.6238626e-05,1.6312765e-02,-1.3032607e-02,1.6314165e-02,2.8808293e-04,-1.3055107e-04,-1.9973999e-05,6.2083076e-02,1.1988590e-02,5.1025400e-02
3.8997102e-01,6.8717767e-05,-2.1546791e-04,-1.8273262e-04,-3.7023210e-03,-1.4953116e-02,-3.6898095e-03,-2.4086958e-04,1.0033501e-03,-1.4998807e-04,-5.2895302e-02,1.1339022e-01,-1.3001420e-02
3.9997101e-01,-5.1457897e-05,-1.6129436e-04,-3.3641032e-04,-1.2028585e-02,5.3934807e-03,-1.2017306e-02,-7.6286053e-04,1.2243645e-03,-5.7252617e-04,-5.2199145e-02,2.2101462e-02,-4.2253850e-02
4.0997100e-01,-1.0588519e-06,2.3617720e-05,-2.5790611e-04,5.0331182e-03,1.8492426e-02,5.0422937e-03,-5.2740702e-04,-2.8887976e-04,-5.8786798e-04,2.3545374e-02,-1.5132457e-01,-1.5341831e-03
4.1997099e-01,-1.3834115e-04,-2.2769216e-04,-3.6632845e-04,-1.3735021e-02,-2.5158645e-02,-1.3670730e-02,-3.5124852e-04,1.6661419e-03,-1.1374512e-03,1.7615867e-02,1.9550235e-01,-5.4958375e-02
4.2997098e-01,-1.6261977e-04,-2.1692932e-04,-2.9900915e-04,-2.4313772e-03,1.0706776e-03,-2.4268288e-03,-4.5637075e-04,1.8547095e-03,-1.2453068e-03,-1.0512233e-02,1.8856776e-02,-1.0785569e-02
4.3997097e-01,-2.0606105e-05,1.0358746e-04,-8.0181443e-05,1.4188929e-02,3.2053170e-02,1.4210526e-02,-5.6763585e-04,-4.6436953e-04,-4.0461599e-04,-1.1126520e-02,-2.3190812e-01,8.4069161e-02
4.4997096e-01,-1.2090914e-05,1.6170922e-04,-5.9464684e-05,8.4716145e-04,5.8123786e-03,8.5451835e-04,-7.8566158e-04,-5.5148831e-04,-2.4455233e-04,-2.1802594e-02,-8.7118865e-03,1.6006382e-02
4.5997095e-01,-1.0153103e-05,-1.5342270e-04,-1.0542839e-04,1.9028013e-04,-3.1513083e-02,2.1835254e-04,1.1283749e-04,7.8142245e-04,-2.8271486e-04,8.9849992e-02,1.3329120e-01,-3.8162568e-03
4.6997094e-01,-1.6975570e-04,-2.5202615e-04,-3.4997080e-04,-1.5976407e-02,-9.9078982e-03,-1.5914626e-02,-4.5098640e-04,2.5332554e-03,-1.2902900e-03,-5.6382443e-02,1.7518346e-01,-1.0075761e-01
4.7997093e-01,-1.8015695e-04,-1.4394319e-04,-2.6886942e-04,-1.0438814e-03,1.0806340e-02,-1.0566656e-03,-2.1964360e-04,1.6587154e-03,-1.3290527e-03,2.3134303e-02,-8.7454079e-02,-3.8762765e-03
4.8997092e-01,-2.0398802e-04,-1.9087751e-04,-2.9412009e-04,-2.3853806e-03,-4.6979774e-03,-2.3718634e-03,-1.8054565e-04,1.7301014e-03,-1.3094981e-03,3.9097984e-03,7.1386064e-03,1.9554706e-03
4.9997091e-01,2.1627330e-04,2.3682132e-04,3.6240221e-04,4.1986123e-02,4.2406572e-02,4.2432450e-02,1.2779960e-03,-7.3233566e-03,2.2502171e-03,1.4585430e-01,-9.0534667e-01,3.5597186e-01
5.0997090e-01,3.5941517e-05,-3.8156918e-05,-9.2986935e-05,-1.8030762e-02,-2.7496724e-02,-1.8037345e-02,-1.1359539e-04,-1.7605080e-04,-3.8315966e-05,-1.3915927e-01,7.1473126e-01,-2.2885353e-01
5.1997089e-01,-1.2654106e-04,-9.9421257e-05,-3.5041106e-04,-1.6262725e-02,-6.1588902e-03,-1.6221525e-02,-6.1465790e-04,1.3844881e-03,-1.1220343e-03,-5.0106299e-02,1.5605404e-01,-1.0837193e-01
5.2997088e-01,-6.5813613e-06,1.4046304e-04,-1.3789612e-04,1.1988090e-02,2.3983449e-02,1.2013862e-02,-4.8930126e-04,-9.0566430e-04,-3.2077268e-04,1.2535676e-02,-2.2901546e-01,8.0126236e-02
5.3997087e-01,5.4871753e-05,-8.1711412e-05,-6.3147346e-05,6.1445663e-03,-2.2218558e-02,6.1421210e-03,3.0324764e-05,-1.4733565e-04,1.2573476e-05,5.1962652e-02,7.5832938e-02,3.3334647e-02
5.4997087e-01,-8.4031324e-06,4.3861351e-05,-1.3403108e-04,-6.3381743e-03,1.2554316e-02,-6.3227014e-03,-5.9038802e-04,-1.2111045e-04,-5.1648431e-04,-6.2071337e-02,2.6225224e-03,-5.2905829e-02
5.5997109e-01,-9.9795471e-05,-1.5006474e-04,-2.5753210e-04,-9.1334512e-03,-1.9411829e-02,-9.1027795e-03,-6.2995193e-04,1.5256357e-03,-7.2730723e-04,-3.9563004e-03,1.6467084e-01,-2.1081810e-02
5.6997108e-01,-9.3407472e-05,-1.7261043e-04,-2.7455891e-04,6.4078363e-04,-2.2529433e-03,6.4254645e-04,-6.9038282e-04,1.8522254e-03,-6.6830976e-04,-6.0430950e-03,3.2659003e-02,5.8997529e-03
5.7995605e-01,-1.8696498e-04,-3.2943783e-04,-3.8907649e-04,-9.3778104e-03,-1.5737494e-02,-9.3093939e-03,-3.5289264e-04,2.9832986e-03,-1.4439754e-03,3.3799819e-02,1.1327757e-01,-7.7683326e-02
5.8995605e-01,3.7473287e-05,6.6236424e-05,-1.2354359e-04,2.2427430e-02,3.9576609e-02,2.2444134e-02,-6.2129732e-04,-2.1348843e-04,-3.6405977e-04,-2.6840494e-02,-3.1967900e-01,1.0799167e-01
5.9995604e-01,4.8274863e-05,1.0170945e-04,-1.1603525e-04,1.0784608e-03,3.5472594e-03,1.0820062e-03,-5.7796711e-04,-6.2001837e-04,-3.2647161e-04,4.3330249e-03,-4.0653033e-02,3.7588197e-03
6.0995603e-01,4.0396299e-05,-1.5143359e-04,-1.3149699e-04,-7.9170949e-04,-2.5314429e-02,-7.8069730e-04,1.4216328e-04,2.7277181e-04,-3.2190811e-04,7.2013108e-02,8.9279103e-02,4.5635103e-04
6.1995602e-01,-1.0354049e-04,5.7585612e-05,-1.8143525e-04,-1.4396982e-02,2.0915530e-02,-1.4370642e-02,-3.4047992e-05,-9.7910910e-04,-1.7909973e-04,-1.7621144e-02,-1.2518821e-01,1.4280851e-02
6.2995601e-01,2.1371280e-04,3.7875954e-04,4.1329940e-04,3.1690937e-02,3.1789582e-02,3.2087890e-02,1.4254598e-03,-8.8454707e-03,2.5238883e-03,1.4595092e-01,-7.8663692e-01,2.7029906e-01
6.3995600e-01,2.0283993e-05,-4.4727572e-05,-8.4899803e-05,-1.9344226e-02,-4.2343880e-02,-1.9352236e-02,5.9504778e-05,-1.9229745e-04,6.1697798e-05,-1.3659563e-01,8.6531815e-01,-2.4621929e-01
6.4995599e-01,-4.3550216e-05,-1.4318723e-04,-1.2638591e-04,-6.3858558e-03,-9.8496361e-03,-6.3753456e-03,5.8160278e-05,6.3208604e-04,-2.9082045e-04,-1.3445011e-04,8.2438428e-02,-3.5251858e-02
6.5995598e-01,-1.5153966e-05,-1.1836543e-04,-7.8184656e-05,2.8402794e-03,2.4832070e-03,2.8380800e-03,4.8499292e-05,4.0930412e-04,-1.8714602e-04,-9.6609950e-04,-2.2278213e-02,1.0367453e-02
6.6995597e-01,-5.4255140e-05,1.2905244e-04,-1.1989449e-04,-3.9270221e-03,2.4740836e-02,-3.8993324e-03,-6.1717223e-04,-3.6983834e-04,-4.1740312e-04,-6.6567216e-02,-7.7914320e-02,-2.3025732e-02
6.7995596e-01,-2.6951517e-05,2.7424760e-04,-4.4678809e-05,2.7221393e-03,1.4516876e-02,2.7526016e-03,-6.0142028e-04,-1.5663885e-03,-1.8579606e-04,1.5751970e-03,-1.1965513e-01,2.3160728e-02
6.8995595e-01,-4.5879978e-05,8.4965178e-05,-1.5961951e-04,-1.8822425e-03,-1.8929472e-02,-1.8912978e-03,-6.2115951e-04,2.1348211e-05,-6.0903790e-04,-1.9739246e-03,1.5877382e-01,-4.2324224e-02
6.9995594e-01,-8.7866368e-06,6.2895554e-05,-1.1934943e-04,3.7123149e-03,-2.2052866e-03,3.7073565e-03,-5.2412007e-04,-7.1912204e-05,-4.9106545e-04,9.7039525e-03,-9.3260505e-03,1.1797257e-02
7.0995593e-01,-1.9402802e-05,1.6865609e-05,-1.4154495e-04,-1.0604742e-03,-4.6035037e-03,-1.0605712e-03,-3.9584188e-04,8.0005001e-05,-6.3960631e-04,1.2827832e-02,1.5191735e-02,-1.4854100e-02
7.1995592e-01,-1.5342473e-04,-2.5710285e-04,-3.3708620e-04,-1.3410734e-02,-2.7428641e-02,-1.3328491e-02,-3.0641926e-04,2.0710968e-03,-1.2635955e-03,8.9422703e-03,1.9910937e-01,-6.2398975e-02
7.2995591e-01,-8.6802593e-05,-1.6864009e-04,-3.0334531e-04,6.6610590e-03,8.8575302e-03,6.6484242e-03,-6.1979950e-04,1.0698817e-03,-6.4917703e-04,-3.1338054e-02,-1.0012160e-01,6.1441902e-02
7.3995590e-01,-1.0018778e-05,-2.0670964e-05,-2.0755089e-04,7.6770495e-03,1.4797326e-02,7.6789583e-03,-3.4691799e-04,-2.9484171e-04,-4.9429341e-04,2.7288177e-02,-1.3647247e-01,1.5488376e-02
7.4995589e-01,9.2185333e-05,1.4213905e-04,-1.0856048e-04,1.0208740e-02,1.6276636e-02,1.0239058e-02,-7.3935892e-04,-1.1666124e-03,-3.5120482e-05,-3.9244131e-02,-8.7177150e-02,4.5917337e-02
7.5995588e-01,1.2461934e-04,-6.3689389e-05,-8.4894027e-05,3.2414447e-03,-2.0583930e-02,3.2385949e-03,8.7483564e-05,-2.4129284e-04,4.8752764e-05,8.2684328e-02,9.2532043e-02,8.3873325e-03
7.6995587e-01,3.3899037e-06,-3.0941851e-04,-2.8268046e-04,-1.2130414e-02,-2.4599041e-02,-1.2062399e-02,-7.1931499e-05,2.0874711e-03,-7.6137369e-04,-1.5941522e-02,2.3287662e-01,-8.1012723e-02
7.7995586e-01,5.6344806e-05,7.5845034e-07,-6.7489446e-05,5.2956503e-03,3.1014934e-02,5.3116620e-03,1.1686248e-05,-5.1454636e-04,3.9165649e-05,8.3617827e-03,-2.6020200e-01,8.0054010e-02
7.8995585e-01,-8.2254582e-05,-1.4491821e-04,-8.4372011e-05,-1.3863502e-02,-1.4563880e-02,-1.3860395e-02,4.7050175e-04,1.9641010e-04,2.3822110e-04,4.5881594e-02,7.1095714e-02,1.9905564e-02
7.9995584e-01,-9.4710571e-06,-1.0585388e-04,-4.9314900e-05,7.2786825e-03,3.9099968e-03,7.2761244e-03,4.1081378e-05,5.3029079e-04,-2.2342718e-05,-4.2942078e-02,3.3388101e-02,-2.6056407e-02
8.0995607e-01,9.4766231e-05,2.6567386e-04,1.7166097e-04,1.0412316e-02,3.7128797e-02,1.0516646e-02,-1.4630075e-04,-2.3538188e-03,5.5040956e-04,-1.8737784e-02,-2.8840435e-01,5.7273917e-02
8.1995606e-01,2.1179556e-04,2.6265268e-04,5.8896590e-04,1.1676376e-02,-4.1303355e-04,1.1726071e-02,1.6786152e-03,-7.7826165e-03,2.2230614e-03,1.8249176e-01,-5.4288029e-01,1.6726535e-01
8.2995605e-01,-1.0059277e-04,1.1855135e-04,-1.3492959e-04,-3.1240809e-02,-1.4419004e-02,-3.1232830e-02,-6.2869324e-04,-3.4517914e-04,-3.5255347e-04,-2.3073106e-01,7.4374444e-01,-2.5756174e-01
8.3995605e-01,-1.3736509e-04,1.1340400e-05,-2.1650714e-04,-3.6744224e-03,-1.0723244e-02,-3.6738086e-03,-4.6242760e-04,1.1957748e-04,-5.8366943e-04,1.6626580e-02,4.6475706e-02,-2.3111618e-02
8.4995604e-01,-3.3522067e-05,4.2883292e-05,-2.1836837e-04,1.0388896e-02,3.1567171e-03,1.0378989e-02,-3.8802542e-04,-1.5457063e-04,-5.5952416e-04,7.4402254e-03,-2.7414837e-02,2.4145292e-03
8.5995603e-01,-7.0151176e-05,-2.1106772e-04,-3.3301286e-04,-3.6604233e-03,-2.5402499e-02,-3.6139474e-03,-2.4908492e-04,1.7770239e-03,-1.0473988e-03,1.3894063e-02,1.9315964e-01,-4.8787511e-02
8.6995602e-01,-3.6768263e-05,-1.8061952e-04,-2.8681301e-04,3.3405003e-03,3.0510301e-03,3.3304110e-03,-2.9612048e-04,1.5660273e-03,-9.3131202e-04,-4.7035606e-03,-2.1099680e-02,1.1608690e-02
8.7995601e-01,1.0414374e-04,1.3221337e-04,-1.6279975e-04,1.4074764e-02,3.1283691e-02,1.4106819e-02,-6.6350451e-04,-6.3638775e-04,-3.0597337e-04,-3.6738438e-02,-2.2024172e-01,6.2533925e-02
8.8995600e-01,7.8427350e-05,1.5083910e-04,-1.8454240e-04,-2.5735990e-03,1.8626599e-03,-2.5696195e-03,-7.2123193e-04,-7.5504301e-04,-2.3930323e-04,-5.7727480e-03,-1.1865537e-02,6.6670208e-03
8.9995599e-01,5.2354291e-05,-1.8313031e-04,-1.9472442e-04,-2.6109785e-03,-3.3398429e-02,-2.5848869e-03,8.2990148e-05,6.4440748e-04,-3.4467858e-04,8.0422285e-02,1.3994518e-01,-1.0537545e-02
9.0995598e-01,-8.4238672e-05,-4.4092816e-04,-2.4386368e-04,-1.3675885e-02,-2.5813703e-02,-1.3578473e-02,1.5385348e-04,2.6442697e-03,-9.2359357e-04,7.0863399e-03,1.9998642e-01,-5.7891555e-02
9.1995597e-01,-7.9277350e-05,-4.0989358e-04,-1.8308437e-04,4.9700329e-04,3.1045955e-03,4.8809566e-04,1.5071644e-04,2.4592525e-03,-8.1229198e-04,-3.1370437e-04,-1.8501743e-02,1.1130170e-02
9.2995596e-01,7.8566463e-06,-5.4196403e-05,-8.6393886e-06,8.7140883e-03,3.5568723e-02,8.7169276e-03,4.7977466e-06,-1.1328340e-04,-5.8499876e-05,-1.4591883e-02,-2.5725383e-01,7.5379282e-02
9.3995595e-01,-5.0919935e-05,-1.3843257e-04,-8.4089729e-05,-5.8790368e-03,-8.4256035e-03,-5.8734527e-03,4.1376375e-05,3.7821476e-04,-1.7432363e-04,3.6578664e-03,4.9149863e-02,-1.1582387e-02
9.4995594e-01,2.3473878e-04,1.5560039e-04,4.5361009e-04,2.8535468e-02,2.9161016e-02,2.8843351e-02,1.3034100e-03,-7.1348929e-03,2.4031820e-03,1.2620348e-01,-7.5131148e-01,2.5775081e-01
9.5995593e-01,-2.1241020e-04,-4.2637559e-04,-2.6606121e-04,-4.4799177e-02,-5.8287028e-02,-4.4513760e-02,5.3109122e-04,2.5372664e-03,-1.1934740e-03,-7.7231947e-02,9.6721685e-01,-3.5966595e-01
9.6995592e-01,1.8717701e-05,-8.1752251e-05,-6.1094461e-05,2.3117977e-02,3.4462804e-02,2.3106995e-02,8.1928854e-05,1.0086035e-04,-1.0130750e-04,-4.4916279e-02,-2.4364084e-01,1.0921675e-01
9.7995591e-01,-3.5867228e-06,-1.8261313e-04,-1.0609041e-04,-2.2330517e-03,-1.0087530e-02,-2.2213364e-03,1.8626870e-04,8.3067977e-04,-3.2668429e-04,1.0433995e-02,7.2982012e-02,-2.2537700e-02
9.8995590e-01,-8.8452937e-05,-6.0749931e-05,-2.2673476e-04,-8.4951444e-03,1.2179383e-02,-8.4880852e-03,-2.4374509e-04,5.7512373e-04,-6.5356725e-04,-4.3001420e-02,-2.5555629e-02,-3.2688327e-02
9.9995589e-01,-8.7180855e-05,-4.8605602e-05,-2.7873111e-04,1.2685914e-04,1.2145540e-03,1.2640987e-04,-3.6240506e-04,5.8280888e-04,-7.1489018e-04,-1.1866008e-02,7.6851660e-04,-6.1322991e-03
1.0099559e+00,-3.7052524e-05,7.3603657e-05,-1.9656965e-04,5.0088473e-03,1.2222448e-02,5.0131446e-03,-5.1338196e-04,-2.1181896e-04,-4.5576181e-04,-1.5097705e-02,-7.9462860e-02,2.5912862e-02
1.0199559e+00,-3.3949417e-04,-5.2555549e-04,-4.7284344e-04,-3.0302833e-02,-6.0043500e-02,-2.9930964e-02,-8.2595662e-05,4.1599425e-03,-2.1047125e-03,4.3078671e-02,4.3717656e-01,-1.6489523e-01
1.0299559e+00,4.2759604e-05,-1.4772411e-04,-7.7651285e-05,3.8236883e-02,3.7802501e-02,3.8194822e-02,2.5866426e-05,5.3176488e-04,-2.7451253e-04,1.0846219e-02,-3.6281811e-01,1.8302017e-01
1.0399559e+00,8.6912088e-06,-1.8891243e-04,-1.1417363e-04,-3.4084116e-03,-4.1209180e-03,-3.4027537e-03,1.1235427e-04,7.2396447e-04,-3.2470682e-04,8.6487923e-03,1.9219977e-02,-5.0194330e-03
1.0499558e+00,3.8011071e-05,-1.2570077e-04,-1.2632489e-04,2.9338387e-03,6.3214025e-03,2.9296403e-03,1.7484453e-04,2.5369693e-04,-2.5397423e-04,6.2490326e-03,-4.7026798e-02,7.0732651e-03
1.0599561e+00,-1.5392294e-04,-4.9994287e-04,-3.3124517e-04,-1.9223894e-02,-3.7480931e-02,-1.9049112e-02,2.1055083e-04,3.2245345e-03,-1.2018452e-03,3.5705483e-03,2.9707696e-01,-9.4784925e-02
1.0699561e+00,-1.7330615e-04,-2.6478043e-04,-3.2727846e-04,-1.9509894e-03,2.3511196e-02,-1.9865220e-03,-4.3192151e-04,2.1573595e-03,-1.2959411e-03,-6.4247296e-02,-1.0671760e-01,-9.4095984e-03
1.0799561e+00,8.6523982e-05,-7.2012803e-05,-4.8192123e-05,2.5983980e-02,1.9266207e-02,2.5989937e-02,1.2448984e-04,-2.8241802e-04,5.6081265e-05,5.5641188e-02,-2.4397799e-01,1.3520236e-01
1.0899560e+00,9.6976904e-05,-7.3918126e-05,-9.0916450e-05,1.0453652e-03,-1.9069458e-04,1.0451918e-03,-1.4056739e-05,-1.6908988e-04,-6.6247657e-05,-1.3854671e-02,1.1332825e-02,-1.2232904e-02
1.0999560e+00,6.7967987e-06,1.3255725e-04,-1.7102674e-04,-9.0346800e-03,2.0648660e-02,-8.9987989e-03,-6.4402747e-04,-7.6768217e-04,-3.7322760e-04,-6.2997133e-02,-5.9859286e-02,-3.0698024e-02
1.1099560e+00,-1.1886323e-05,1.4985579e-04,-1.6526378e-04,-1.8698727e-03,1.7303171e-03,-1.8663261e-03,-5.2618853e-04,-7.7389945e-04,-3.4732331e-04,1.1783905e-02,-6.2172859e-04,2.5904311e-03
1.1199560e+00,-3.5378727e-05,1.0600649e-04,-1.4323303e-04,-2.3475841e-03,-4.3852978e-03,-2.3502211e-03,-5.5534085e-04,-4.0009587e-04,-3.3073884e-04,-2.9152344e-03,3.7380394e-02,1.6584495e-03
1.1299560e+00,-1.7589388e-05,-1.3154947e-04,-8.2939087e-05,1.7794737e-03,-2.3754586e-02,1.7921459e-03,-7.2970657e-06,5.7146038e-04,-2.0504015e-04,5.4804431e-02,9.7155717e-02,1.2569881e-02
1.1399560e+00,-4.7422990e-06,-1.2602609e-04,-6.9206127e-05,1.2848519e-03,5.5300288e-04,1.2842825e-03,1.1834897e-05,5.2916457e-04,-1.0525430e-04,1.9131981e-03,-4.2295845e-03,9.9785943e-03
1.1499560e+00,-5.0735633e-05,-1.9126493e-04,-1.1098367e-04,-4.6017899e-03,-6.5263698e-03,-4.5933631e-03,2.6181597e-04,8.0161548e-04,-1.6181314e-04,2.4998131e-02,2.7245117e-02,-5.6558895e-03
1.1599560e+00,-1.0557786e-04,4.2808699e-05,-1.9584480e-04,-5.4979936e-03,2.3404666e-02,-5.4820476e-03,-4.5112488e-04,4.4192041e-05,-5.8486562e-04,-7.1294154e-02,-7.5742416e-02,-4.2305289e-02
1.1699560e+00,-1.0390338e-04,-1.5527045e-05,-2.0933052e-04,1.7002939e-04,-5.8334408e-03,1.6968180e-04,-4.2091348e-04,4.0472789e-04,-7.5038123e-04,3.0211433e-03,3.6053619e-02,-1.6551577e-02
1.1799560e+00,3.5993498e-05,-8.8997240e-05,-1.0748231e-04,1.3993071e-02,-7.3418312e-03,1.3989058e-02,-5.4113262e-05,3.1729127e-04,-2.1250292e-04,3.6680057e-02,-8.7436701e-03,5.3787883e-02
1.1899559e+00,9.6033030e-05,-1.9835958e-06,-6.1376733e-05,6.0023064e-03,8.6994075e-03,6.0084572e-03,-1.1077460e-04,-4.3789318e-04,1.1467408e-04,-5.6661390e-03,-7.5518516e-02,3.2717731e-02
1.1999559e+00,-8.3969414e-06,-3.0333652e-04,-2.5257927e-04,-1.0449341e-02,-3.0155145e-02,-1.0379253e-02,-1.4403522e-05,1.8902703e-03,-6.4825736e-04,9.6371168e-03,2.3281657e-01,-7.6293216e-02
1.2099559e+00,-3.5994836e-05,-3.4033914e-04,-2.8631595e-04,-2.7605644e-03,-3.7063291e-03,-2.7508690e-03,-2.0308459e-04,1.9977737e-03,-5.5229167e-04,-1.8868125e-02,1.0750355e-02,9.5965783e-03
1.2199559e+00,1.1468614e-07,1.9815108e-05,-1.9624066e-04,3.5973769e-03,3.6016449e-02,3.6146356e-03,-4.2862618e-04,-1.5358424e-04,-5.1486870e-04,-2.2554180e-02,-2.1513600e-01,3.7423000e-03
1.2299559e+00,-8.4579302e-07,5.0058377e-05,-1.5296647e-04,-9.7842906e-05,3.0243039e-03,-9.5047373e-05,-5.7807045e-04,-3.1515624e-04,-4.8569611e-04,-1.4944441e-02,-1.6157216e-02,2.9172622e-03
1.2399559e+00,9.3807354e-05,-6.7095862e-05,-6.2430211e-05,9.4656684e-03,-1.1717029e-02,9.4630065e-03,5.4101424e-05,-1.1425905e-04,-1.0337977e-04,6.3217248e-02,2.0089739e-02,3.8231671e-02
1.2499559e+00,-1.0671399e-04,-4.4214532e-04,-2.7467943e-04,-2.0077651e-02,-3.7557957e-02,-1.9927096e-02,1.2839165e-04,2.7804112e-03,-1.0319380e-03,7.4290295e-03,2.8946730e-01,-9.2855910e-02
1.2599559e+00,-1.2094808e-04,-5.1173781e-05,-2.0419455e-04,-1.4354593e-03,3.9096459e-02,-1.4313971e-03,-2.8500537e-04,2.2766447e-04,-6.3690413e-04,-4.1339741e-02,-2.5527491e-01,3.9503422e-02
1.2699559e+00,-8.1950083e-05,1.1203194e-04,-1.4323402e-04,3.8993806e-03,1.6314918e-02,3.9238743e-03,2.1258263e-05,-1.4279844e-03,1.9733817e-04,3.0626392e-02,-1.6556505e-01,8.3424310e-02
1.2799559e+00,-2.2491651e-06,1.0156069e-04,-1.4726473e-04,7.9721273e-03,-1.0513292e-03,7.9675175e-03,-3.9927671e-04,-9.2690562e-04,-2.0207775e-04,-4.2053538e-02,5.0107927e-02,-3.9941629e-02
1.2899470e+00,5.1162654e-05,-1.2300342e-04,-9.9517820e-05,5.3415130e-03,-2.2477026e-02,5.3470701e-03,2.3385481e-04,9.0441946e-05,-1.6207783e-04,6.3369114e-02,1.0182468e-01,4.0035274e-03
1.2999470e+00,4.1884228e-05,-1.4480419e-04,-9.2384553e-05,-9.2882306e-04,-2.1799589e-03,-9.2714537e-04,3.9652801e-04,2.6733911e-04,-1.2417870e-04,1.6267335e-02,1.7689733e-02,3.7899167e-03
1.3099473e+00,-7.0104797e-05,-2.1714361e-05,-1.7714826e-04,-1.1205788e-02,1.2306913e-02,-1.1193467e-02,-1.7400418e-04,-1.4349387e-05,-4.4656560e-04,-5.7051914e-02,-2.8168205e-02,-3.2237953e-02
1.3199472e+00,-1.2577071e-04,-7.4770881e-05,-2.2884052e-04,-5.5686094e-03,-5.3085808e-03,-5.5617939e-03,-2.8290719e-04,2.4252914e-04,-6.3147280e-04,-1.0890311e-02,2.5687877e-02,-1.8490738e-02
1.3299472e+00,-6.5726848e-05,-3.4360506e-04,-2.2958737e-04,6.0008387e-03,-2.6876423e-02,6.0392678e-03,2.7327494e-04,1.4384764e-03,-6.3201361e-04,5.5618267e-02,1.1959484e-01,-5.4080729e-05
1.3399472e+00,7.5885592e-07,-2.1842617e-04,-1.3407902e-04,6.6546209e-03,1.2519665e-02,6.6391998e-03,2.6245613e-04,5.2847873e-04,-4.1506067e-04,-1.0818826e-03,-9.0999849e-02,2.1695314e-02
1.3499472e+00,-1.5358049e-04,-2.7725647e-04,-3.0938642e-04,-1.5450971e-02,-5.9186302e-03,-1.5403280e-02,-2.6434011e-04,2.0452343e-03,-1.2043467e-03,-5.2679675e-02,1.5167570e-01,-7.8928678e-02
1.3599472e+00,-1.6355480e-04,-2.4904185e-04,-2.9777417e-04,-9.9924963e-04,2.8193854e-03,-1.0014808e-03,-2.5502702e-04,1.8261764e-03,-1.1022558e-03,9.3131050e-04,-2.1905809e-02,1.0209103e-02
1.3699472e+00,-3.4782380e-05,1.8444808e-05,-1.9040922e-04,1.2875155e-02,2.6750235e-02,1.2876147e-02,-3.7730176e-04,-2.5739365e-04,-6.2098292e-04,-1.2227486e-02,-2.0835721e-01,4.8127331e-02
1.3799472e+00,-3.4255162e-06,-3.0697867e-05,-2.4853259e-04,3.1386913e-03,-4.9136595e-03,3.1336453e-03,-1.8600039e-04,9.3380691e-06,-6.6609624e-04,1.9130155e-02,2.6673197e-02,-4.5113363e-03
1.3899472e+00,-6.7065808e-06,1.6212054e-05,-1.8077048e-04,-3.2914258e-04,4.6911120e-03,-3.2540746e-04,-1.7976461e-04,-5.3424371e-04,-5.8701390e-04,6.2357816e-04,-5.4358229e-02,7.9082419e-03
1.3999472e+00,-7.5203453e-05,-2.3605469e-04,-2.8193006e-04,-6.8489157e-03,-2.5238401e-02,-6.8072301e-03,-2.9553961e-04,1.4182168e-03,-9.7536807e-04,-1.1577511e-02,1.9524624e-01,-3.8835454e-02
1.4099472e+00,7.5122209e-05,-1.9372123e-04,-9.8637719e-05,1.5037006e-02,4.2318655e-03,1.5028572e-02,3.5276111e-04,2.5411561e-04,-1.9509942e-04,6.4830134e-02,-1.1641023e-01,7.8026940e-02
1.4199471e+00,-2.6930416e-05,-3.3173998e-04,-2.1361221e-04,-1.0216172e-02,-1.3809607e-02,-1.0183902e-02,4.1733200e-04,1.1753527e-03,-5.0382163e-04,6.4570953e-03,9.2123800e-02,-3.0872251e-02
1.4299471e+00,-8.8301419e-05,-2.2258500e-05,-2.2915606e-04,-6.1530595e-03,3.0946472e-02,-6.1297266e-03,-4.0135710e-04,-1.2401518e-04,-5.7577916e-04,-8.1868988e-02,-1.2993692e-01,-7.1957596e-03
1.4399035e+00,-2.5181461e-05,-1.8934308e-04,-1.2745310e-04,6.3366497e-03,-1.6781065e-02,6.3443370e-03,2.2064796e-04,3.1968710e-04,-1.0892503e-04,6.2473139e-02,4.4564709e-02,4.6890042e-02
1.4499035e+00,-1.6089948e-05,-1.6421540e-04,-8.5475297e-05,9.1009004e-04,2.5126131e-03,9.0864760e-04,2.9335112e-04,1.2081026e-04,-2.2089488e-04,7.2703226e-03,-1.9887703e-02,-1.1196996e-02
1.4599035e+00,2.9847739e-04,2.5009451e-04,5.4506456e-04,3.1450273e-02,4.1118560e-02,3.1870529e-02,1.6491720e-03,-8.2185081e-03,2.3742534e-03,1.3558222e-01,-8.3393263e-01,2.5951507e-01
1.4699035e+00,1.5274842e-04,3.5132476e-04,4.8250984e-04,-1.4519782e-02,1.0278261e-02,-1.4517181e-02,1.6954675e-03,-8.9632830e-03,2.4634757e-03,4.6295509e-03,-7.4477567e-02,8.9222386e-03
1.4799035e+00,-1.2401130e-04,-2.6274233e-05,-1.8680129e-04,-2.7676544e-02,-3.7773607e-02,-2.7656791e-02,-3.2708163e-04,1.6707171e-04,-4.6610553e-04,-2.0225510e-01,9.1303634e-01,-2.9295840e-01
1.4899035e+00,-4.8158528e-05,-2.5375917e-04,-1.5503178e-04,7.5797446e-03,-2.2743999e-02,7.6043443e-03,4.0611342e-04,1.0003503e-03,-4.8776828e-04,7.3319575e-02,8.3327943e-02,-2.1662768e-03
1.4999034e+00,-3.4998346e-05,-3.1215272e-04,-2.2941698e-04,1.3172232e-03,-5.8367965e-03,1.3261515e-03,-7.0687942e-05,1.8711533e-03,-6.0125066e-04,-4.7680182e-02,8.7080381e-02,-1.1348249e-02
1.5099034e+00,4.5273292e-04,6.2588668e-04,7.3313496e-05,4.8539855e-02,9.3743796e-02,4.9120505e-02,-2.0751403e-03,-3.2929548e-03,7.9021688e-04,-2.0044543e-01,-5.1641130e-01,1.3914689e-01
1.5199034e+00,3.9044101e-05,1.0305529e-04,-1.6946958e-04,-4.1355279e-02,-5.2261496e-02,-4.1409952e-02,-4.2136459e-04,-9.4525335e-04,-2.0286364e-04,1.6537773e-01,2.3477037e-01,-9.9308147e-02
1.5299034e+00,2.9384988e-05,6.3339712e-05,-2.1079427e-04,-9.6418800e-04,-3.9713479e-03,-9.6851065e-04,-5.1409216e-04,-7.3404813e-04,-3.2886890e-04,-9.2727660e-03,2.1120542e-02,-1.2600538e-02
1.5399034e+00,-3.1277578e-05,-1.5968264e-04,-3.0373537e-04,-6.0560363e-03,-2.2310291e-02,-6.0469056e-03,-5.8342347e-04,7.4300288e-04,-4.5945795e-04,-6.9331377e-03,1.4770524e-01,-1.3058918e-02
1.5499034e+00,-5.4002143e-05,-2.1854676e-04,-3.1646053e-04,-2.2707712e-03,-5.8900474e-03,-2.2647259e-03,-5.0664430e-04,1.0933591e-03,-5.7009752e-04,7.6779243e-03,3.5035655e-02,-1.1063967e-02
1.5599036e+00,4.5890280e-05,4.8637220e-05,-9.6927654e-05,9.9827623e-03,2.6711326e-02,1.0012512e-02,-2.9832958e-04,-9.4389209e-04,-1.7218569e-04,2.0830995e-02,-2.0372046e-01,3.9790272e-02
1.5699036e+00,-4.4443697e-05,-1.0432429e-04,-1.3889116e-04,-9.0356258e-03,-1.5296304e-02,-9.0309517e-03,-1.3801457e-04,-1.2272072e-04,-4.7952970e-04,1.6031517e-02,8.2117215e-02,-3.0734431e-02
1.5799036e+00,-7.6839207e-05,-1.1437614e-04,-1.8928170e-04,-3.2415621e-03,-1.0060675e-03,-3.2372711e-03,-5.3177372e-05,2.1911712e-04,-6.3651886e-04,8.4837277e-03,3.4183816e-02,-1.5698931e-02
1.5899036e+00,-1.4170464e-05,-2.3568097e-04,-1.5419242e-04,6.2644958e-03,-1.2128550e-02,6.2730261e-03,3.9941135e-04,7.0943301e-04,-3.9279068e-04,4.5258916e-02,4.9031636e-02,2.4372841e-02
1.5999036e+00,-1.6838733e-04,-2.4896003e-04,-3.3609116e-04,-1.5439925e-02,-1.3644379e-03,-1.5400263e-02,-3.9693721e-04,1.9744482e-03,-1.2166871e-03,-7.9634932e-02,1.2650164e-01,-8.2389717e-02
1.6099036e+00,-4.1813749e-05,-2.0362206e-04,-1.1957061e-04,1.2661302e-02,4.5368789e-03,1.2652334e-02,2.9191755e-04,5.3528480e-04,-2.0611380e-04,6.8885542e-02,-1.4391648e-01,1.0105742e-01
1.6199036e+00,-1.4587742e-05,-1.4295381e-04,-8.7844386e-05,2.7233105e-03,6.0668935e-03,2.7217563e-03,1.7735657e-04,2.0041151e-04,1.3542850e-04,-1.1456109e-02,-3.3487360e-02,3.4154263e-02
1.6299036e+00,-6.0881217e-05,-2.2247068e-04,-1.6381504e-04,-4.6329017e-03,-7.9536976e-03,-4.6223546e-03,3.4242129e-04,7.7585669e-04,-1.7869755e-04,1.6506488e-02,5.7544572e-02,-3.1412635e-02
1.6399035e+00,-6.7136335e-05,-2.2143581e-04,-1.4605752e-04,-6.2564802e-04,1.0345937e-04,-6.2538132e-04,4.1147435e-04,4.5596098e-04,-2.8504001e-04,6.9053125e-03,-3.1989602e-02,-1.0634256e-02
1.6499035e+00,-1.0043172e-04,-3.4172921e-06,-1.7640743e-04,-3.3374805e-03,2.1802502e-02,-3.3174505e-03,-2.5591755e-04,-4.4612911e-04,-7.0884725e-04,-6.6739253e-02,-9.0209094e-02,-4.2380764e-02
1.6599035e+00,-1.1717141e-04,-1.3003447e-04,-2.2614837e-04,-1.6756969e-03,-1.2662508e-02,-1.6663450e-03,2.3506553e-05,4.8935214e-04,-8.5359970e-04,2.7942437e-02,9.3548214e-02,-1.4475260e-02
1.6699035e+00,-8.1288802e-05,-1.1047940e-04,-1.8275273e-04,3.5905965e-03,1.9555564e-03,3.5859056e-03,7.3919082e-05,8.7120650e-05,-6.0975267e-04,5.0412577e-03,-4.0223187e-02,2.4384727e-02
1.6799035e+00,-4.9066308e-05,-1.0806694e-04,-1.7878156e-04,3.2241308e-03,2.4218718e-04,3.2203025e-03,-1.3595758e-04,1.5611371e-04,-5.9328167e-04,-2.0987686e-02,6.8993121e-03,1.6471019e-03
1.6899035e+00,-5.6226784e-05,-1.3634274e-04,-2.1564384e-04,-7.1627616e-04,-2.8277651e-03,-7.1509915e-04,-7.8844365e-05,1.7618020e-04,-6.2977878e-04,5.7113270e-03,2.0066517e-03,-3.6497147e-03
1.6999035e+00,-1.4623946e-04,-4.0306044e-04,-4.2322224e-04,-9.0130030e-03,-2.6695289e-02,-8.9195271e-03,-2.6764609e-05,2.5967953e-03,-1.3830634e-03,5.2079805e-03,2.4206174e-01,-7.5328538e-02
1.7099035e+00,-1.1753236e-04,-3.7204266e-04,-4.1622971e-04,2.8743962e-03,3.1083379e-03,2.8599150e-03,7.8043845e-06,2.2977479e-03,-1.2753468e-03,3.4569027e-03,-2.9904769e-02,1.0771679e-02
1.7199035e+00,1.1666182e-04,7.6349174e-05,-1.4336448e-04,2.3407251e-02,4.4822928e-02,2.3462786e-02,-3.5393345e-04,-1.0488637e-03,-1.5724623e-04,-3.6173818e-02,-3.3466147e-01,1.1181016e-01
1.7299035e+00,1.0821162e-04,-1.9738450e-04,-6.7633621e-05,-8.5475985e-04,-2.7372905e-02,-8.5100572e-04,3.5853781e-04,-2.1587636e-04,8.8852113e-05,7.1247194e-02,8.3298812e-02,2.4609857e-02
1.7399035e+00,-6.4395284e-05,4.2835743e-05,-1.6160983e-04,-1.7253864e-02,2.4048286e-02,-1.7230986e-02,1.9855716e-04,-1.3227125e-03,1.2011826e-04,-1.5998080e-02,-1.1068372e-01,3.1266179e-03
1.7499034e+00,-1.1875800e-05,1.2287771e-04,-1.3852008e-04,5.2502256e-03,7.9992328e-03,5.2612469e-03,-3.3523034e-04,-1.2806939e-03,-1.8198514e-04,-5.3378802e-02,4.2018651e-03,-3.0210369e-02
1.7599034e+00,2.0507824e-04,7.7519504e-05,4.3698630e-04,2.1640398e-02,-4.7270325e-03,2.1709558e-02,1.6178754e-03,-7.1854340e-03,2.1943445e-03,1.9531076e-01,-5.9047457e-01,2.3763319e-01
1.7699034e+00,3.9425209e-05,-1.5679510e-04,3.7376139e-04,-1.6564091e-02,-2.3335138e-02,-1.6701982e-02,9.1604457e-04,-4.8759472e-03,1.3685180e-03,-7.0183152e-02,2.3094890e-01,-8.2582727e-02
1.7799034e+00,1.5374382e-04,6.6304184e-05,5.5132885e-04,1.1440754e-02,2.2206780e-02,1.1622277e-02,1.6016418e-03,-7.3507451e-03,2.3446888e-03,6.8559790e-02,-2.4748003e-01,9.7617173e-02
1.7899034e+00,3.7001038e-05,1.0788120e-04,9.9259165e-05,-1.1667038e-02,4.1840036e-03,-1.1672143e-02,2.5467125e-04,-1.9976396e-03,5.3026806e-04,-1.3469719e-01,5.3531107e-01,-1.8144225e-01
1.7999034e+00,-6.2601351e-05,-1.4701275e-05,-1.8885851e-04,-9.9621233e-03,-1.2260238e-02,-9.9559362e-03,-2.7274829e-04,-7.4018409e-05,-5.2409023e-04,-5.2742004e-02,1.9236230e-01,-1.0543593e-01
1.8099036e+00,-7.7708046e-05,-9.7307545e-05,-2.4782774e-04,-1.5105206e-03,-8.2613155e-03,-1.5059437e-03,-1.4495286e-04,4.3679383e-04,-7.1716331e-04,1.2779250e-02,5.1080055e-02,-1.9306866e-02
1.8199036e+00,-8.4807305e-05,-6.8584739e-05,-2.2042533e-04,-7.0886720e-04,2.8728377e-03,-7.0874113e-04,4.1032719e-04,-3.7120922e-04,-1.6799479e-04,5.5528058e-02,-8.0800382e-02,5.4916905e-02
1.8299036e+00,5.6027420e-05,2.6093715e-05,-1.5330038e-04,1.4086131e-02,9.4615415e-03,1.4085083e-02,-1.2798788e-04,-5.7628453e-04,-2.7390599e-04,-5.3831558e-02,-2.0507551e-02,-1.0591131e-02
1.8399036e+00,4.9924896e-05,-7.9463780e-05,-2.3610898e-04,-6.1074395e-04,-1.0555690e-02,-6.1095607e-04,6.5428845e-06,-1.0659641e-04,-6.9148888e-04,1.3453089e-02,4.6968857e-02,-4.1758329e-02
1.8499036e+00,-8.0710514e-05,-3.1166672e-04,-3.7425357e-04,-1.3078654e-02,-2.3241549e-02,-1.3010579e-02,2.6173181e-05,1.6557508e-03,-1.1100431e-03,1.9630315e-03,1.7623489e-01,-4.1855458e-02
1.8599036e+00,-1.1438620e-04,-2.9560023e-04,-3.7724558e-04,-3.3712432e-03,1.6012824e-03,-3.3664557e-03,-5.7556893e-05,1.5377486e-03,-1.0632611e-03,-8.3730154e-03,-1.1800223e-02,4.6782032e-03
1.8699036e+00,3.0036587e-05,7.0675733e-05,-1.2873538e-04,1.4434716e-02,3.6611507e-02,1.4490670e-02,-2.8098622e-04,-1.3951235e-03,-1.8808188e-04,-2.2342954e-02,-2.9328749e-01,8.7518003e-02
1.8799036e+00,5.5535091e-05,-2.4102374e-04,-8.1929333e-05,2.5373869e-03,-3.1170803e-02,2.5521883e-03,4.2140812e-04,9.6300462e-05,-2.6263606e-04,7.0239502e-02,1.4914254e-01,-7.4554251e-03
1.8899035e+00,-5.1494809e-05,-4.6978460e-04,-2.2367553e-04,-1.0720544e-02,-2.2895877e-02,-1.0643002e-02,4.0355637e-04,2.2579627e-03,-7.7702830e-04,-1.7851774e-03,2.1616643e-01,-5.1439272e-02
1.8999035e+00,2.0388664e-05,-1.5202492e-04,-6.4779869e-05,7.2050170e-03,3.1770609e-02,7.1954918e-03,5.1870355e-04,-2.3037840e-04,-2.5241499e-05,1.1514729e-02,-2.4883435e-01,7.5178751e-02
1.9099035e+00,7.0662989e-05,-2.6966404e-04,2.4371509e-04,5.0031777e-03,-1.1793456e-02,4.9822425e-03,1.5470297e-03,-4.3471067e-03,1.2035763e-03,1.0283271e-01,-4.1167322e-01,1.2288190e-01
1.9199035e+00,-5.5982585e-06,-1.9796884e-04,-5.9221699e-05,-7.6239027e-03,7.1699232e-03,-7.6279874e-03,3.1270704e-04,2.6055055e-04,-1.7066504e-06,-1.2343238e-01,4.6076616e-01,-1.2052841e-01
1.9299035e+00,-2.0418485e-05,-2.5376791e-04,-5.5367018e-05,-1.4850679e-03,-5.5795211e-03,-1.4804469e-03,5.6532590e-04,3.0249764e-04,7.4446259e-05,2.5261911e-02,4.1947132e-03,7.6152982e-03
1.9399035e+00,-8.8908109e-06,-2.1838585e-04,-3.3056356e-05,1.1553069e-03,3.5370022e-03,1.1539319e-03,8.6393422e-04,-1.8217894e-04,4.4915939e-04,2.9860860e-02,-4.8467704e-02,3.7471349e-02
1.9499035e+00,8.7692545e-05,3.7555929e-04,5.4030777e-05,9.6310922e-03,5.9365709e-02,9.8608753e-03,-3.9462099e-04,-3.3465959e-03,3.9475679e-04,-1.2585564e-01,-3.1644200e-01,-5.4402654e-03
1.9599035e+00,-1.0402865e-04,-8.2748055e-05,-2.2967069e-04,-1.9183414e-02,-4.5832386e-02,-1.9157007e-02,-6.8874390e-05,1.5025096e-05,-7.5310318e-04,3.2574691e-02,3.3616242e-01,-1.1478611e-01
1.9699035e+00,-1.3068376e-04,-1.3074763e-04,-2.8100351e-04,-2.6673140e-03,-4.8009082e-03,-2.6620061e-03,-2.5538868e-05,3.2970023e-04,-7.2179045e-04,4.3335564e-03,3.1467544e-02,3.1312758e-03
1.9799035e+00,-9.0593985e-05,-8.8358688e-05,-2.2211349e-04,4.0110491e-03,4.2394592e-03,4.0063182e-03,-4.1902129e-05,9.8070916e-05,-5.6035657e-04,-1.6363277e-03,-2.3162954e-02,1.6143404e-02
1.9899035e+00,5.9160222e-05,5.7592579e-05,-1.0590036e-04,1.4977043e-02,1.4582000e-02,1.4986625e-02,-1.4672115e-04,-1.0239603e-03,-2.5037759e-04,-1.0481912e-02,-1.1220322e-01,3.0997927e-02
1.9999034e+00,-3.3553208e-05,-2.1984952e-04,-2.3166297e-04,-9.2677824e-03,-2.7756442e-02,-9.2383273e-03,-3.2929040e-04,9.8947936e-04,-6.0062041e-04,-1.8256942e-02,2.0134415e-01,-3.5024315e-02
2.0099034e+00,-1.1256270e-04,-3.3814565e-04,-3.4044933e-04,-7.9102163e-03,-1.1845775e-02,-7.8674235e-03,2.3145296e-05,2.0728676e-03,-1.1378924e-03,3.5243603e-02,1.0833892e-01,-5.3727253e-02
2.0199034e+00,-4.8992529e-05,-1.2673089e-04,-2.8663485e-04,6.3604903e-03,2.1145180e-02,6.3412851e-03,-8.3559813e-05,4.9671759e-04,-8.2357118e-04,-1.0670521e-02,-1.5761515e-01,3.1432155e-02
2.0299034e+00,2.7268813e-05,7.8974303e-05,-1.5684243e-04,7.6213779e-03,2.0564992e-02,7.6458386e-03,-3.5885845e-04,-1.0848499e-03,-3.4346747e-04,-2.7529890e-02,-1.5815690e-01,4.8010416e-02
2.0399034e+00,1.3430633e-05,-2.2751987e-04,7.8228824e-05,-1.4001303e-03,-3.0644597e-02,-1.4719977e-03,5.3997331e-04,-2.8693812e-03,1.7242393e-04,8.9883262e-02,-1.7845330e-01,5.1589189e-02
2.0499034e+00,1.1347675e-04,-1.2744154e-04,-2.2954641e-05,1.0007132e-02,9.9973937e-03,1.0012553e-02,3.7195201e-04,-6.7205064e-04,1.2101254e-04,-1.6802146e-02,2.1973326e-01,-5.1411440e-03
2.0599036e+00,1.0178168e-04,-1.2884733e-04,-4.3805842e-05,-1.1694062e-03,-1.3952222e-04,-1.1696801e-03,3.6902721e-04,-5.3155755e-04,1.0746849e-04,-2.9247318e-04,1.4048987e-02,-1.3543737e-03
2.0699036e+00,-2.6908861e-05,-4.8775050e-05,-2.0661132e-04,-1.2875879e-02,8.0106530e-03,-1.2860123e-02,-1.3896488e-04,-4.0474986e-04,-4.4298722e-04,-5.0799257e-02,1.2680781e-02,-5.5045623e-02
2.0799036e+00,-1.2208489e-04,-1.4320643e-04,-2.6946602e-04,-9.5246976e-03,-9.4456251e-03,-9.5080604e-03,-2.6158598e-05,2.3444521e-04,-7.7069034e-04,1.1280639e-02,6.3919568e-02,-3.2770344e-02
2.0898595e+00,1.6968543e-04,2.9873802e-04,4.5652076e-04,2.9314794e-02,4.4059843e-02,2.9792472e-02,1.9652059e-03,-9.2182892e-03,2.6821346e-03,2.0001887e-01,-9.4946218e-01,3.4681252e-01
2.0998595e+00,-1.3966701e-04,-1.5239929e-05,-1.3353328e-04,-3.0946091e-02,-3.1365505e-02,-3.0957233e-02,3.5755703e-04,-6.8687642e-04,1.3173414e-05,-1.6076504e-01,8.5314209e-01,-2.6689637e-01
2.1098595e+00,-5.2377555e-05,-5.9217277e-06,-1.2401010e-04,8.7309888e-03,9.3066962e-04,8.7270409e-03,-1.5809128e-04,-2.9006055e-04,-2.5006684e-04,-5.1564880e-02,3.9681624e-02,-2.6324051e-02
2.1198595e+00,-7.2282060e-05,-7.0541590e-05,-1.8034485e-04,-1.9906754e-03,-6.4626053e-03,-1.9882379e-03,-1.0659514e-04,2.0153276e-04,-4.5825651e-04,5.1496180e-03,4.9159378e-02,-2.0818986e-02
2.1298594e+00,7.1220847e-06,4.8540888e-05,-1.6881941e-04,7.9396427e-03,1.1907039e-02,7.9430299e-03,-3.0660037e-04,-4.6014312e-04,-3.6177763e-04,-2.0000542e-02,-6.6167651e-02,9.6478967e-03
2.1398594e+00,-9.2918662e-05,-1.4319194e-04,-2.8333383e-04,-1.0013077e-02,-1.9179348e-02,-9.9834744e-03,-2.6820611e-05,5.7850722e-04,-9.5081513e-04,2.7978003e-02,1.0386513e-01,-5.8903806e-02
2.1498594e+00,-5.3069878e-05,-7.7264729e-06,-1.7436938e-04,3.9838363e-03,1.3545438e-02,3.9897371e-03,-2.4583309e-04,-5.2698808e-04,-5.7344709e-04,-2.1901269e-02,-1.1054964e-01,3.7736840e-02
2.1598594e+00,-1.6648188e-05,-1.5795153e-05,-1.5405667e-04,3.6434766e-03,-8.0859129e-04,3.6404859e-03,-1.2478384e-04,-5.9796627e-04,-3.3045915e-04,1.2104937e-02,-7.0978261e-03,2.4298818e-02
2.1698594e+00,1.7938609e-05,4.0729668e-05,-1.3662835e-04,3.4583355e-03,5.6500713e-03,3.4629757e-03,-2.2532701e-04,-9.2343413e-04,-2.6784844e-04,-1.0054327e-02,-3.2546817e-02,6.2610761e-03
2.1798594e+00,-6.0984465e-05,-2.2632881e-04,-3.0023754e-04,-7.8872149e-03,-2.6716243e-02,-7.8622593e-03,-3.6207849e-04,9.5417467e-04,-5.7922806e-04,-1.3675161e-02,1.8776106e-01,-3.1137991e-02
2.1898594e+00,-4.6891846e-05,-2.1514278e-04,-2.8317115e-04,1.4094837e-03,1.1200370e-03,1.4079036e-03,-3.4654493e-04,6.7108279e-04,-4.3168395e-04,1.5533579e-03,-2.8309215e-02,1.4754425e-02
2.1998594e+00,2.9144062e-05,3.2787605e-05,-1.7303435e-04,7.6026700e-03,2.4786101e-02,7.6271851e-03,-1.4086708e-04,-1.0549084e-03,-3.3734161e-04,2.0567804e-02,-1.7259928e-01,9.4342426e-03
2.2098594e+00,-2.4522028e-05,3.3564227e-05,-1.4139637e-04,-5.3657812e-03,8.5363028e-05,-5.3673299e-03,1.6024849e-04,-1.2745053e-03,1.5285551e-04,3.0111586e-02,-2.1959709e-02,4.9019759e-02
2.2198594e+00,5.0639335e-05,1.5101220e-04,-8.6574102e-05,7.5095187e-03,1.1738505e-02,7.5325947e-03,-5.7246416e-04,-1.4093612e-03,-1.3309715e-05,-7.3271336e-02,-1.3485600e-02,-1.6616538e-02
2.2298594e+00,2.0084107e-05,-2.3215362e-04,-1.2874643e-04,-3.0721353e-03,-3.8316437e-02,-3.0411180e-03,4.0949874e-04,3.5190315e-04,-3.0088769e-04,9.8196384e-02,1.7612660e-01,-2.8757825e-02
2.2398593e+00,-8.0146706e-07,-3.1364583e-04,-1.8543512e-04,-2.0944854e-03,-8.1502995e-03,-2.0784191e-03,5.9953167e-04,1.1162614e-03,-4.9840529e-04,1.9003311e-02,7.6435899e-02,-1.9751779e-02
2.2498593e+00,-4.7499526e-05,-1.6134971e-04,-7.0819573e-05,-4.6574899e-03,1.5234061e-02,-4.6676477e-03,6.9311556e-04,-2.5742184e-04,3.7755584e-04,9.3583978e-03,-1.3736846e-01,8.7596197e-02
2.2598593e+00,-1.8314098e-06,5.1156095e-05,2.8095533e-04,4.5773957e-03,2.1219963e-02,4.6968355e-03,8.2484093e-04,-5.7953996e-03,1.5200464e-03,1.3172549e-02,-5.5379831e-01,1.1424917e-01
2.2698593e+00,2.5732923e-04,3.7092138e-04,5.0483476e-04,2.5895314e-02,3.1695450e-02,2.6279627e-02,1.4764467e-03,-9.2917032e-03,2.6187872e-03,6.5160641e-02,-3.4963069e-01,1.0987418e-01
2.2798593e+00,-1.0426386e-04,-1.5625974e-05,-1.7728209e-04,-3.6172782e-02,-3.8656364e-02,-3.6144197e-02,-1.8150267e-04,-1.3754423e-04,-5.6585989e-04,-1.6579510e-01,9.1541677e-01,-3.1846501e-01
2.2898593e+00,-1.2867066e-04,-1.2245388e-04,-2.5314513e-04,-2.4440226e-03,-1.0683561e-02,-2.4340016e-03,1.4303998e-04,4.5551602e-04,-7.4272916e-04,3.2454296e-02,5.9306082e-02,-1.7686944e-02
2.2998593e+00,-7.5574619e-05,-1.0607814e-04,-2.1450050e-04,5.3133367e-03,1.6385756e-03,5.3055696e-03,3.9538648e-05,2.2806270e-04,-6.9014592e-04,-1.0350143e-02,-2.2745354e-02,5.2583298e-03
2.3098595e+00,5.0140824e-05,1.5724600e-05,-1.4001964e-04,1.2573199e-02,1.2172784e-02,1.2576297e-02,-1.9563338e-04,-7.6915804e-04,-3.4414493e-04,-2.3516664e-02,-9.9719791e-02,3.4599306e-02
2.3198595e+00,9.4315131e-05,5.1130739e-05,-1.2903751e-04,4.4174229e-03,3.5381835e-03,4.4193965e-03,-3.6136271e-04,-9.1220019e-04,-2.8703011e-04,-1.6572949e-02,-1.4304229e-02,5.7114879e-03
2.3298595e+00,5.0514632e-05,4.1449663e-05,-1.6431156e-04,-4.3816363e-03,-9.6643521e-04,-4.3788410e-03,-3.2141613e-04,-7.0368390e-04,-4.3240785e-04,3.9946616e-03,2.0851648e-02,-1.4537788e-02
2.3398595e+00,-7.8298205e-05,-3.2984929e-04,-3.7402166e-04,-1.2888856e-02,-3.7158691e-02,-1.2790480e-02,-1.3882491e-04,2.1023969e-03,-9.8757251e-04,1.8259139e-02,2.8060834e-01,-5.5516519e-02
2.3498595e+00,-1.5210350e-04,-3.5703645e-04,-3.5566994e-04,-7.3879230e-03,-2.7367876e-03,-7.3664550e-03,-2.4543084e-04,2.2059878e-03,-1.0918490e-03,-1.0660602e-02,1.0359103e-02,-1.0427661e-02
2.3598595e+00,3.7485015e-05,1.1323037e-04,-6.7695440e-05,1.8936803e-02,4.7006256e-02,1.9031552e-02,-4.5129160e-04,-1.5278659e-03,4.4423860e-05,-2.0586096e-02,-3.7338573e-01,1.1362740e-01
2.3698595e+00,-1.0744150e-05,8.3598542e-05,-3.2246513e-05,-4.8202448e-03,-2.9596789e-03,-4.8277477e-03,-5.5702334e-04,-1.2833094e-03,2.1250456e-04,-1.0573184e-02,2.4455672e-02,1.6808086e-02
2.3798594e+00,-2.9297903e-04,-1.1994722e-04,-7.5488637e-05,-2.8216920e-02,-2.0354629e-02,-2.8230085e-02,-2.4236118e-04,-2.4112216e-04,5.8845119e-05,3.1466246e-02,1.0421882e-01,-1.5365959e-02
2.3898594e+00,-2.8009211e-04,-7.0456429e-05,5.5990678e-04,1.2956617e-03,4.9359203e-03,1.3314837e-03,2.2338706e-03,-7.8290106e-03,3.1643153e-03,2.4762341e-01,-7.5878956e-01,3.1054732e-01
2.3998594e+00,-8.9818375e-04,-3.9985032e-04,-1.2960209e-04,-6.1834716e-02,-3.2965069e-02,-6.1770037e-02,4.2446963e-04,8.3982730e-04,-1.8636077e-04,-1.8094027e-01,8.6688461e-01,-3.3506793e-01
2.4098594e+00,-1.0350446e-03,-7.8728852e-05,5.6147976e-04,-1.3561684e-02,3.2262054e-02,-1.3455519e-02,2.8671427e-03,-8.1525848e-03,2.3562296e-03,2.4426754e-01,-8.9924207e-01,2.5425927e-01
2.4198594e+00,-1.6270613e-03,-4.0891526e-04,4.2595519e-05,-5.9156353e-02,-3.2870546e-02,-5.9329373e-02,1.2787833e-03,-1.2206035e-03,1.4777258e-03,-1.5883609e-01,6.9319879e-01,-8.7850459e-02
2.4298594e+00,-1.9939967e-03,-6.9245625e-05,-4.9709802e-05,-3.6638286e-02,3.4097729e-02,-3.6627514e-02,4.6491159e-04,-3.0991422e-03,1.0757519e-03,-8.1387248e-02,-1.8785405e-01,-4.0197426e-02
2.4398594e+00,-2.2902434e-03,-1.3252734e-04,-8.2884908e-05,-2.9606238e-02,-6.2100704e-03,-2.9668111e-02,6.8400763e-04,-3.2990424e-03,7.6866705e-04,2.1909625e-02,-1.9990045e-02,-3.0708516e-02
2.4498594e+00,-2.5784533e-03,-3.9062839e-04,-1.9175817e-04,-2.8845705e-02,-2.5738909e-02,-2.8859988e-02,7.6058652e-04,-1.7092713e-03,-1.7569671e-04,7.6578958e-03,1.5897727e-01,-9.4436466e-02
2.4598594e+00,-2.2912284e-03,3.7042832e-04,2.7951738e-04,2.8610736e-02,7.5924885e-02,2.9306792e-02,-6.5174325e-04,-6.8706202e-03,2.1623641e-03,-1.4123311e-01,-5.1613538e-01,2.3380631e-01
2.4698594e+00,-3.3123027e-03,-1.3116544e-03,-3.2028730e-04,-1.0276492e-01,-1.6814825e-01,-1.0154561e-01,3.2842741e-03,2.7126363e-03,-1.0336834e-03,3.9360211e-01,9.5832656e-01,-3.1960506e-01
2.4798594e+00,-3.6416132e-03,-1.8580387e-03,-4.4131440e-04,-3.3177605e-02,-5.4738482e-02,-3.2514939e-02,3.5335755e-03,6.6277113e-03,-1.6308957e-03,2.4930172e-02,3.9150787e-01,-5.9721280e-02
2.4898593e+00,-4.0835516e-03,-2.3710403e-03,-7.5989861e-04,-4.4599052e-02,-5.1609457e-02,-4.3420027e-02,4.0240530e-03,1.1153829e-02,-4.5152411e-03,4.9047792e-02,4.5261223e-01,-2.8843482e-01
2.4998593e+00,-4.4539392e-03,-2.2997370e-03,-8.0429216e-04,-3.7190435e-02,6.9004726e-03,-3.6930223e-02,3.7081300e-03,9.9515137e-03,-4.8264810e-03,-3.1592328e-02,-1.2023167e-01,-3.1124019e-02
2.5098593e+00,-4.8312848e-03,-1.8749554e-03,-5.2999208e-04,-3.7691464e-02,4.2407800e-02,-3.7856696e-02,3.8134811e-03,5.6708092e-03,-3.1620758e-03,1.0535116e-02,-4.2807085e-01,1.6644068e-01
2.5198593e+00,-5.0716671e-03,-2.0374398e-03,-5.6357294e-04,-2.4186684e-02,-1.6302236e-02,-2.3852230e-02,4.1966684e-03,6.4757359e-03,-3.3525933e-03,3.8318767e-02,8.0492747e-02,-1.9051770e-02
2.5298593e+00,-4.4183403e-03,-1.1672929e-03,1.6892926e-04,6.5663016e-02,8.6842556e-02,6.5230694e-02,3.1537235e-03,5.2490747e-04,-8.6033013e-04,-1.0429459e-01,-5.9508341e-01,2.4922656e-01
2.5398593e+00,-5.0485386e-03,-2.5975617e-03,-4.8745067e-04,-6.3871712e-02,-1.4332124e-01,-6.1474936e-02,4.9356657e-03,9.7630437e-03,-2.3299970e-03,1.7819438e-01,9.2381451e-01,-1.4696682e-01
2.5498593e+00,-4.8687521e-03,-1.6801685e-03,1.2626663e-04,1.8484753e-02,9.1654356e-02,1.7899046e-02,5.9146042e-03,1.2748100e-03,2.0110849e-03,9.7893945e-02,-8.4882418e-01,4.3410859e-01
2.5598595e+00,-5.3651787e-03,-1.3922306e-03,7.6199922e-05,-4.9430596e-02,2.9070764e-02,-4.9690158e-02,5.1134146e-03,-4.8635611e-04,1.2691336e-03,-8.0117121e-02,-1.7611258e-01,-7.4193431e-02
2.5698595e+00,-6.2041571e-03,-1.9055724e-03,-2.3584828e-04,-8.4298046e-02,-5.1140358e-02,-8.3614767e-02,5.4694365e-03,3.1754547e-03,-1.4386029e-03,3.5602226e-02,3.6618143e-01,-2.7077391e-01
2.5798595e+00,-6.2228150e-03,-1.0543831e-03,4.1550778e-04,-1.4612934e-03,8.5133932e-02,-1.5122171e-03,4.7474783e-03,-4.1567409e-03,2.0108353e-04,-7.2195896e-02,-7.3322026e-01,1.6396880e-01
2.5898595e+00,-6.3269905e-03,-8.8431020e-04,5.7417454e-04,-1.0313595e-02,1.7121793e-02,-1.0333118e-02,4.6274067e-03,-6.3985229e-03,2.4115281e-03,-1.2007171e-02,-2.2417841e-01,2.2104467e-01
2.5998595e+00,-7.1106475e-03,-1.9779308e-03,9.3800004e-05,-7.8970202e-02,-1.0889330e-01,-7.8411926e-02,6.2272975e-03,2.7108180e-04,9.5766061e-04,1.5998924e-01,6.6696111e-01,-1.4538689e-01
2.6098595e+00,-7.2270919e-03,-1.7119756e-03,2.3882593e-04,-1.1464557e-02,2.6686513e-02,-1.1614797e-02,6.0018094e-03,-1.8523465e-03,1.7217589e-03,-2.2548835e-02,-2.1234304e-01,7.6409902e-02
2.6198595e+00,-7.5851532e-03,-1.9551168e-03,2.6152845e-04,-3.5895329e-02,-2.4092834e-02,-3.5866431e-02,5.8503795e-03,-3.1820144e-04,1.4642748e-03,-1.5143005e-02,1.5341466e-01,-2.5748437e-02
2.6298594e+00,-8.3538272e-03,-2.4219421e-03,8.2146916e-05,-7.7186285e-02,-4.6287599e-02,-7.6786810e-02,6.9269089e-03,1.8039618e-03,3.5185755e-05,1.0765304e-01,2.1221652e-01,-1.4290904e-01
2.6398594e+00,-9.1887158e-03,-2.6314075e-03,3.8699637e-05,-8.3736469e-02,-2.0416922e-02,-8.3372153e-02,8.1991967e-03,1.8659418e-03,-9.4185190e-04,1.2722891e-01,6.1980092e-03,-9.7703859e-02
2.6498594e+00,-9.0228650e-03,-2.3162101e-03,2.1693472e-04,1.6822458e-02,3.1378782e-02,1.6613342e-02,7.4781430e-03,-9.6881891e-04,-1.2813350e-04,-7.2105444e-02,-2.8347634e-01,8.1371918e-02
2.6598594e+00,-9.2078109e-03,-2.2112513e-03,2.8208306e-04,-1.8418356e-02,1.0632206e-02,-1.8492834e-02,6.2531936e-03,-1.1282820e-03,5.5432833e-04,-1.2249506e-01,-1.5946319e-02,6.8246248e-02
2.6698594e+00,-9.6042712e-03,-2.4041636e-03,4.7302604e-04,-3.9712287e-02,-1.8959693e-02,-3.9739639e-02,6.8405421e-03,-1.5079812e-03,1.6336556e-03,5.8734906e-02,-3.7969963e-02,1.0793283e-01
2.6798594e+00,-1.0355662e-02,-3.0361073e-03,2.4939941e-04,-7.5578392e-02,-6.2686065e-02,-7.5124472e-02,8.2477897e-03,1.5099780e-03,1.0563977e-03,1.4072490e-01,3.0179621e-01,-5.7725848e-02
2.6898594e+00,-1.0936535e-02,-2.5856057e-03,4.2335175e-04,-5.7597082e-02,4.5723607e-02,-5.8049371e-02,8.4619514e-03,-3.1570614e-03,1.8400747e-03,2.1416185e-02,-4.6670439e-01,7.8367783e-02
2.6998594e+00,-1.2477599e-02,-3.6922559e-03,1.4027857e-04,-1.5544750e-01,-1.0938544e-01,-1.5367274e-01,1.0387067e-02,2.1261303e-03,-1.2975092e-03,1.9251175e-01,5.2831968e-01,-3.1375870e-01
2.7098594e+00,-1.3295309e-02,-3.3335476e-03,4.7181459e-04,-8.1399261e-02,3.6804848e-02,-8.1726936e-02,1.0567144e-02,-8.7987325e-04,-1.4454467e-04,1.8007751e-02,-3.0060065e-01,1.1529657e-01
2.7198594e+00,-1.3782489e-02,-3.2802544e-03,7.5555654e-04,-4.8597617e-02,6.0095901e-03,-4.8759167e-02,1.0888116e-02,-3.0787604e-03,1.2211327e-03,3.2097178e-02,-2.1988892e-01,1.3656786e-01
2.7298594e+00,-1.4380199e-02,-3.4930614e-03,6.5611805e-04,-5.9970505e-02,-2.0437653e-02,-5.9865561e-02,1.1650274e-02,-2.4277810e-03,7.4404080e-04,7.6215903e-02,6.5098004e-02,-4.7709232e-02
2.7398593e+00,-1.4626273e-02,-3.4431360e-03,7.6928311e-04,-2.4502906e-02,5.3500395e-03,-2.4636566e-02,1.1632604e-02,-2.9050238e-03,1.8179006e-03,-1.7670432e-03,-4.7724332e-02,1.0738608e-01
2.7498593e+00,-1.5677390e-02,-4.6040409e-03,2.3287660e-04,-1.0674979e-01,-1.1510118e-01,-1.0454747e-01,1.3774491e-02,4.4788763e-03,-4.6633135e-04,2.1418897e-01,7.3839071e-01,-2.2842342e-01
2.7598593e+00,-1.6441010e-02,-4.7494795e-03,2.3261579e-04,-7.6570906e-02,-1.3860780e-02,-7.6280059e-02,1.4021054e-02,5.0970049e-03,-1.6205517e-04,2.4656289e-02,6.1812919e-02,3.0427647e-02
2.7698593e+00,-1.6951663e-02,-4.8096718e-03,2.6494061e-04,-5.1119575e-02,-5.4682691e-03,-5.1073110e-02,1.4098372e-02,3.3191041e-03,5.0079566e-04,7.7318430e-03,-1.7779024e-01,6.6285147e-02
2.7798593e+00,-1.7555712e-02,-4.1147434e-03,9.1240380e-04,-5.9332060e-02,7.0525067e-02,-6.0271764e-02,1.3630502e-02,-3.5645256e-03,1.9849136e-03,-4.6787096e-02,-6.8836363e-01,1.4841194e-01
2.7898593e+00,-1.8463334e-02,-4.4975601e-03,9.9937182e-04,-9.1095463e-02,-3.6653118e-02,-9.1100230e-02,1.4531545e-02,-3.3576780e-03,2.3500298e-03,9.0104408e-02,2.0684774e-02,3.6511649e-02
2.7998593e+00,-1.9346487e-02,-4.4857371e-03,1.0683051e-03,-8.8029222e-02,2.9543231e-03,-8.8559310e-02,1.5008493e-02,-5.0439297e-03,2.9227814e-03,4.7694813e-02,-1.6862533e-01,5.7275215e-02
2.8098595e+00,-2.0547229e-02,-4.6532374e-03,1.1338821e-03,-1.2003019e-01,-1.4105335e-02,-1.2045190e-01,1.6038013e-02,-5.9508585e-03,2.4493323e-03,1.0294961e-01,-9.0690805e-02,-4.7343821e-02
2.8198595e+00,-2.1420760e-02,-4.6621669e-03,1.2018582e-03,-8.7143389e-02,1.2412787e-03,-8.7558149e-02,1.6597998e-02,-7.8149006e-03,2.4301862e-03,5.5998590e-02,-1.8640439e-01,-1.9146144e-03
2.8298595e+00,-2.1829695e-02,-4.2868172e-03,2.1142940e-03,-3.9726587e-02,3.9091704e-02,-4.0584294e-02,2.1124933e-02,-1.7138461e-02,8.8872630e-03,4.5269391e-01,-9.3235697e-01,6.4570830e-01
2.8398595e+00,-2.3046641e-02,-5.1073870e-03,1.6875415e-03,-1.2274649e-01,-7.8241695e-02,-1.2314244e-01,2.0787728e-02,-1.0331633e-02,5.1429188e-03,-3.3720542e-02,6.8068349e-01,-3.7443478e-01
2.8498595e+00,-2.4142011e-02,-5.6069097e-03,1.5524659e-03,-1.1005093e-01,-4.6878790e-02,-1.1037738e-01,2.0935772e-02,-6.9819326e-03,4.6259469e-03,1.4804479e-02,3.3497035e-01,-5.1697244e-02
2.8598595e+00,-2.4391703e-02,-5.0019001e-03,2.3978728e-03,-2.3219411e-02,6.1538788e-02,-2.4106721e-02,2.4523927e-02,-1.7992860e-02,1.0312488e-02,3.5881579e-01,-1.1010938e+00,5.6865462e-01
2.8698595e+00,-2.6176931e-02,-5.9000639e-03,1.9165978e-03,-1.7956787e-01,-8.3968936e-02,-1.8031229e-01,2.2089317e-02,-1.0465828e-02,5.0030081e-03,-2.4346124e-01,7.5270394e-01,-5.3094846e-01
2.8798594e+00,-2.7747111e-02,-6.5482144e-03,1.5881241e-03,-1.5791074e-01,-6.0024087e-02,-1.5802431e-01,2.3339991e-02,-7.0267080e-03,3.6695794e-03,1.2506756e-01,3.4391231e-01,-1.3334300e-01
2.8898594e+00,-2.9320731e-02,-7.6373041e-03,1.6748160e-03,-1.5957542e-01,-1.0385761e-01,-1.5854387e-01,2.5644279e-02,-6.1980679e-03,3.3469326e-03,2.3042899e-01,8.2864086e-02,-3.2264710e-02
2.8998594e+00,-3.0077745e-02,-6.7845581e-03,2.0233597e-03,-7.3082512e-02,8.8063314e-02,-7.5079894e-02,2.5109376e-02,-1.2100041e-02,5.9813278e-03,-5.3490350e-02,-5.9019790e-01,2.6343978e-01
2.9098594e+00,-3.1751633e-02,-8.0922493e-03,2.1794362e-03,-1.7012110e-01,-1.2402331e-01,-1.6975206e-01,2.8759390e-02,-1.1111584e-02,5.7123746e-03,3.6500181e-01,9.8845844e-02,-2.6895353e-02
2.9198594e+00,-3.2393838e-02,-6.9282510e-03,2.5614633e-03,-6.0099938e-02,1.1953119e-01,-6.2432497e-02,2.9823822e-02,-1.9930866e-02,9.6285401e-03,1.0644326e-01,-8.8192907e-01,3.9161693e-01
2.9298594e+00,-3.4800700e-02,-9.0585172e-03,2.0396299e-03,-2.4611254e-01,-2.0278594e-01,-2.4402205e-01,3.1127031e-02,-1.0897133e-02,4.5060791e-03,1.3032098e-01,9.0337419e-01,-5.1224660e-01
2.9398594e+00,-3.6148600e-02,-9.3344548e-03,2.1395285e-03,-1.3487727e-01,-2.1588320e-02,-1.3579492e-01,3.2385253e-02,-1.1989703e-02,5.4431794e-03,1.2582239e-01,-1.0925708e-01,9.3710120e-02
2.9498594e+00,-3.7793893e-02,-9.8203297e-03,2.1262878e-03,-1.6526340e-01,-4.1159479e-02,-1.6581467e-01,3.3316618e-02,-1.1599410e-02,4.8092102e-03,9.3136563e-02,3.9029263e-02,-6.3396975e-02
2.9598594e+00,-3.9906388e-02,-1.0408128e-02,2.1525567e-03,-2.1242705e-01,-4.8764953e-02,-2.1261390e-01,3.5790561e-02,-1.1388466e-02,3.7358239e-03,2.4739453e-01,2.1094432e-02,-1.0733873e-01
2.9698594e+00,-4.1632188e-02,-1.1322151e-02,2.0210845e-03,-1.7525826e-01,-8.3377367e-02,-1.7393973e-01,3.7227980e-02,-8.8632966e-03,3.4955383e-03,1.4374202e-01,2.5251719e-01,-2.4028582e-02
2.9798594e+00,-4.3514431e-02,-1.1598894e-02,2.0290178e-03,-1.8835630e-01,-1.8220388e-02,-1.8924243e-01,3.9510530e-02,-1.0560629e-02,4.3175001e-03,2.2825523e-01,-1.6973336e-01,8.2196261e-02
2.9898593e+00,-4.5416154e-02,-1.1809505e-02,2.0866158e-03,-1.8985727e-01,-1.0243354e-02,-1.9137398e-01,4.2547334e-02,-1.4165712e-02,5.4481691e-03,3.0368066e-01,-3.6050870e-01,1.1306701e-01
2.9998593e+00,-4.7112267e-02,-1.2299981e-02,2.1953077e-03,-1.7053040e-01,-3.8980160e-02,-1.7129409e-01,4.3816626e-02,-1.5152224e-02,6.2689195e-03,1.2692932e-01,-9.8651229e-02,8.2075113e-02
3.0098593e+00,-4.9148647e-02,-1.2816791e-02,2.1650393e-03,-2.0454201e-01,-3.9656428e-02,-2.0542141e-01,4.4124697e-02,-1.4585378e-02,5.7666222e-03,3.0807161e-02,5.6684574e-02,-5.0229773e-02
3.0198593e+00,-5.1568516e-02,-1.4131121e-02,1.9429595e-03,-2.4691602e-01,-1.1754325e-01,-2.4414373e-01,4.5929193e-02,-1.0845213e-02,3.5076265e-03,1.8044981e-01,3.7401689e-01,-2.2589978e-01
3.0298593e+00,-5.3691266e-02,-1.4844044e-02,1.9706169e-03,-2.1446221e-01,-5.8586240e-02,-2.1395746e-01,4.8038023e-02,-1.1378103e-02,4.6602712e-03,2.1088318e-01,-5.3289073e-02,1.1526457e-01
3.0398593e+00,-5.6057546e-02,-1.5457831e-02,1.9233544e-03,-2.3843886e-01,-4.6566466e-02,-2.3818402e-01,5.0347713e-02,-1.1878083e-02,4.1263973e-03,2.3096924e-01,-4.9998054e-02,-5.3387434e-02
3.0498593e+00,-5.8444634e-02,-1.6159529e-02,2.0097645e-03,-2.4131439e-01,-5.4673162e-02,-2.4013758e-01,5.2762888e-02,-1.1717079e-02,3.1917435e-03,2.4151772e-01,1.6100489e-02,-9.3465469e-02
3.0598595e+00,-6.0794757e-02,-1.6818778e-02,1.9958175e-03,-2.3748893e-01,-5.0163437e-02,-2.3640024e-01,5.3829054e-02,-1.2794450e-02,3.0781536e-03,1.0661417e-01,-1.0773468e-01,-1.1358732e-02
3.0698595e+00,-6.2970459e-02,-1.7763757e-02,2.1801505e-03,-2.2193576e-01,-7.9687535e-02,-2.1908444e-01,5.6503428e-02,-1.0851683e-02,2.8637712e-03,2.6743758e-01,1.9427694e-01,-2.1438261e-02
3.0798595e+00,-6.5231523e-02,-1.8765962e-02,2.0107327e-03,-2.3103365e-01,-8.4400714e-02,-2.2757979e-01,5.9640145e-02,-9.5287007e-03,2.8467453e-03,3.1367208e-01,1.3229830e-01,-1.7025879e-03
3.0898595e+00,-6.7271525e-02,-1.9080543e-02,2.2346240e-03,-2.0457114e-01,-1.6053661e-02,-2.0521901e-01,6.2265704e-02,-1.2917363e-02,4.8479597e-03,2.6255607e-01,-3.3886655e-01,2.0012163e-01
3.0998595e+00,-6.9198653e-02,-1.9022754e-02,2.4406613e-03,-1.9101775e-01,2.0921528e-02,-1.9335066e-01,6.0966487e-02,-1.7628525e-02,5.0986659e-03,-1.2992175e-01,-4.7111667e-01,2.5070641e-02
3.1098595e+00,-7.1661016e-02,-2.0254870e-02,2.6922736e-03,-2.5183518e-01,-1.0299971e-01,-2.4983219e-01,6.3917993e-02,-1.7000658e-02,7.1563323e-03,2.9515085e-01,6.2786735e-02,2.0576684e-01
3.1198595e+00,-7.4084258e-02,-2.1285171e-02,2.6146785e-03,-2.4685663e-01,-8.3007970e-02,-2.4541587e-01,6.6054077e-02,-1.5536169e-02,7.1540579e-03,2.1360860e-01,1.4644904e-01,-2.2744843e-04
3.1298594e+00,-7.7009258e-02,-2.2545004e-02,2.6057811e-03,-2.9914768e-01,-1.0121538e-01,-2.9538247e-01,6.9326613e-02,-1.4266563e-02,4.6964223e-03,3.2725389e-01,1.2696078e-01,-2.4576379e-01
3.1398594e+00,-7.9731981e-02,-2.3589706e-02,2.4704812e-03,-2.7751948e-01,-8.1369886e-02,-2.7484654e-01,7.0386492e-02,-1.3464609e-02,5.2239647e-03,1.0598798e-01,8.0195494e-02,5.2754288e-02
3.1498594e+00,-8.2431951e-02,-2.4376629e-02,2.7876429e-03,-2.7332460e-01,-5.4772774e-02,-2.7254927e-01,7.3427004e-02,-1.4331547e-02,6.3428095e-03,3.0405152e-01,-8.6693866e-02,1.1188459e-01
