time, x, y, z, vx, vy, vz, yaw, pitch, roll, yaw_rate, pitch_rate, roll_rate
0.0000000e+00,0.0000000e+00,0.0000000e+00,0.0000000e+00,0.0000000e+00,0.0000000e+00,0.0000000e+00,0.0000000e+00,0.0000000e+00,0.0000000e+00,0.0000000e+00,0.0000000e+00,0.0000000e+00
9.9999905e-03,-6.0451694e-05,1.1592398e-04,3.1117917e-05,-6.0465780e-03,1.1592983e-02,-6.0426713e-03,-7.6006080e-05,-1.7097792e-04,-8.6301607e-05,-7.6006153e-03,-1.7097808e-02,-8.6301689e-03
1.9999981e-02,-2.0598514e-04,-2.7083251e-05,2.7779801e-05,-1.4586494e-02,-1.4293753e-02,-1.4527023e-02,8.9219774e-04,4.1338389e-04,-1.4014816e-03,9.6820475e-02,5.8436237e-02,-1.3151813e-01
2.9986858e-02,-5.6300335e-05,5.5939543e-06,6.6642403e-05,1.4990535e-02,3.2565088e-03,1.4989140e-02,3.7289760e-04,-6.6160148e-04,-7.7838014e-05,-5.1998250e-02,-1.0763979e-01,1.3253828e-01
3.9986849e-02,7.4594334e-05,3.0828477e-05,-3.2838355e-05,1.3092366e-02,2.5442694e-03,1.3082561e-02,-5.9077800e-04,9.9987678e-04,-3.3467808e-04,-9.6367652e-02,1.6614798e-01,-2.5684032e-02
4.9987078e-02,-9.2714816e-05,-2.7459149e-04,-9.1301386e-05,-1.6763128e-02,-3.0578755e-02,-1.6629178e-02,4.4588338e-04,2.6946034e-03,-1.1350898e-03,1.0366377e-01,1.6946878e-01,-8.0039342e-02
5.9987068e-02,2.0244512e-05,-4.0656664e-05,1.1461364e-04,1.1354799e-02,2.3368223e-02,1.1289263e-02,2.1635779e-03,-6.9765683e-05,-7.3219664e-04,1.7176961e-01,-2.7643717e-01,4.0289357e-02
6.9987059e-02,-1.9722916e-04,-4.5941359e-04,-2.1291751e-04,-2.1784289e-02,-4.1971719e-02,-2.1524272e-02,-9.7311087e-05,4.3427649e-03,-1.8859581e-03,-2.2608911e-01,4.4125347e-01,-1.1537626e-01
7.9987049e-02,3.5816280e-05,-4.1478705e-05,-1.8141829e-05,2.3292032e-02,4.1814207e-02,2.3279991e-02,-4.2438133e-04,4.6339572e-04,-2.2334345e-04,-3.2707055e-02,-3.8793728e-01,1.6626163e-01
8.9987040e-02,8.1911216e-06,9.0706758e-05,5.3375532e-05,-2.7697160e-03,1.3216683e-02,-2.7642859e-03,-4.9899133e-04,1.7939117e-04,-2.1792097e-04,-7.4610079e-03,-2.8400482e-02,5.4224859e-04
9.9987030e-02,2.8996570e-05,9.1823140e-05,1.9783975e-05,2.0803263e-03,1.1064191e-04,2.0808205e-03,1.2841338e-04,-3.5042378e-04,1.1287592e-04,6.2740531e-02,-5.2981546e-02,3.3079721e-02
1.0998702e-01,-2.7278744e-06,2.4963949e-05,-6.0744634e-06,-3.1761158e-03,-6.6848342e-03,-3.1710763e-03,4.8695927e-04,1.4326439e-04,-1.3018538e-04,3.5854623e-02,4.9368864e-02,-2.4306154e-02
1.1998701e-01,-2.3871071e-05,-3.3019198e-05,-1.5384371e-05,-2.1179143e-03,-5.7962112e-03,-2.1165077e-03,5.8333776e-04,-4.1350321e-04,-9.9602088e-05,9.6378586e-03,-5.5676813e-02,3.0583324e-03
1.2998700e-01,-9.8080816e-05,1.8303240e-04,2.1823214e-04,-7.4033049e-03,2.1633707e-02,-7.3552380e-03,9.1749052e-04,-2.9413181e-03,-2.8962616e-04,3.3415308e-02,-2.5278173e-01,-1.9002425e-02
1.3998699e-01,-3.1316839e-04,-2.5670932e-04,-6.0466508e-05,-2.1585656e-02,-4.4010755e-02,-2.1356484e-02,9.3314117e-04,2.6445085e-03,-1.6683141e-03,1.5650663e-03,5.5858319e-01,-1.3786893e-01
1.4998698e-01,-3.6034980e-04,-2.4208730e-04,6.4879587e-06,-4.7235564e-03,1.4555616e-03,-4.7147849e-03,9.6618591e-04,2.3762885e-03,-1.4476636e-03,3.3044774e-03,-2.6822023e-02,2.2065068e-02
1.5998697e-01,-4.0890339e-04,-2.7988899e-04,-5.0471475e-05,-4.8687618e-03,-3.7887042e-03,-4.8352560e-03,1.0465445e-03,2.8125522e-03,-1.9471140e-03,8.0358688e-03,4.3626416e-02,-4.9945082e-02
1.6998696e-01,-1.8433393e-04,-1.5867599e-04,-9.0502365e-05,2.2477887e-02,1.2154834e-02,2.2417886e-02,3.9648650e-04,1.8915968e-03,-7.1785796e-04,-6.5005864e-02,-9.2095629e-02,1.2292572e-01
1.7998695e-01,-1.2665159e-04,2.8784776e-05,1.1224356e-05,5.7760351e-03,1.8742347e-02,5.7726157e-03,3.9939420e-04,-2.5005493e-04,-5.3667185e-05,2.9077027e-04,-2.1416538e-01,6.6419141e-02
1.8998694e-01,-1.7405068e-04,-1.0340008e-04,-2.1695479e-05,-4.7533014e-03,-1.3220299e-02,-4.7214472e-03,6.6757252e-04,1.0507087e-03,-9.6355800e-04,2.6817857e-02,1.3007648e-01,-9.0989168e-02
1.9998693e-01,-1.4959175e-04,-1.2517586e-04,2.5790595e-06,2.4451921e-03,-2.1779561e-03,2.4462643e-03,4.7190685e-04,3.1810104e-04,-1.3263802e-04,-1.9566585e-02,-7.3260833e-02,8.3092077e-02
2.0998693e-01,-1.3586067e-04,-7.9259501e-06,2.7962732e-05,1.3761898e-03,1.1724421e-02,1.3749854e-03,2.5424638e-04,-1.6862301e-04,-7.2874233e-05,-2.1766068e-02,-4.8672451e-02,5.9763842e-03
2.1998692e-01,-1.8007647e-04,-9.8567868e-05,-1.4314867e-05,-4.4284733e-03,-9.0631798e-03,-4.4167789e-03,5.1241575e-04,2.8208274e-04,-5.0791557e-04,2.5816962e-02,4.5070618e-02,-4.3504175e-02
2.2998691e-01,-1.3298926e-04,-5.6424038e-05,-7.8216231e-05,4.7121398e-03,4.2151856e-03,4.7045941e-03,1.6412321e-04,3.3397320e-04,-5.7831195e-04,-3.4829287e-02,5.1890502e-03,-7.0396446e-03
2.3998690e-01,-1.8142796e-04,-1.5228826e-04,-5.6311320e-05,-4.8521996e-03,-9.5868378e-03,-4.8347293e-03,5.8282154e-04,6.6790548e-04,-5.6553913e-04,4.1869872e-02,3.3393261e-02,1.2772836e-03
2.4998689e-01,-1.1004826e-04,-1.9185128e-05,-3.0738919e-05,7.1379370e-03,1.3310370e-02,7.1379325e-03,-5.2021108e-05,-4.5804939e-05,-9.1532280e-05,-6.3484325e-02,-7.1371110e-02,4.7400730e-02
2.5998688e-01,-2.3767986e-04,-4.1360331e-05,2.9275101e-05,-1.2765287e-02,-2.2067955e-03,-1.2762916e-02,5.4081073e-04,-2.9963759e-04,-7.1872408e-05,5.9283240e-02,-2.5383290e-02,1.9659891e-03
2.6998687e-01,-4.2032664e-04,-2.1128722e-04,-3.5048341e-05,-1.8306308e-02,-1.7021931e-02,-1.8195691e-02,7.4109147e-04,2.3477723e-03,-1.5903797e-03,2.0028093e-02,2.6474124e-01,-1.5185088e-01
2.7998686e-01,-4.4183627e-04,-1.5965390e-04,1.9088717e-06,-2.1508606e-03,5.1602804e-03,-2.1583935e-03,6.7113815e-04,2.0898598e-03,-1.5637937e-03,-6.9953385e-03,-2.5791280e-02,2.6586039e-03
2.8998685e-01,-5.5321268e-04,-3.6729109e-04,-4.9850937e-05,-1.1187957e-02,-2.0784378e-02,-1.1048379e-02,1.2596277e-03,3.1301091e-03,-2.1715724e-03,5.8849008e-02,1.0402503e-01,-6.0777931e-02
2.9998708e-01,-4.7644313e-04,-3.9868103e-04,-1.3013346e-04,7.6880945e-03,-3.1199913e-03,7.6731721e-03,1.1304222e-03,3.6004391e-03,-1.9386750e-03,-1.2920247e-02,4.7031931e-02,2.3289210e-02
3.0998707e-01,-4.3892059e-04,-3.9778524e-04,-1.4405689e-04,3.7593811e-03,1.0036720e-04,3.7448468e-03,9.6830332e-04,3.8508465e-03,-1.8776001e-03,-1.6211907e-02,2.5040757e-02,6.1074930e-03
3.1998706e-01,-3.6502855e-04,-1.0102483e-04,7.0331126e-06,7.4256935e-03,2.9675769e-02,7.3537606e-03,9.1832911e-04,8.8202459e-04,-1.2503213e-03,-4.9974264e-03,-2.9688247e-01,6.2727940e-02
3.2998705e-01,-2.6999528e-04,-2.9762589e-05,1.5638520e-05,9.5107775e-03,7.1188050e-03,9.5014568e-03,5.0691640e-04,-2.7443867e-04,-4.0312808e-04,-4.1141310e-02,-1.1564644e-01,8.4719405e-02
3.3998704e-01,-2.2797883e-04,4.5441088e-05,-1.3550334e-05,4.2030148e-03,7.5187099e-03,4.2032628e-03,5.6943700e-05,-3.3929845e-04,-2.2312250e-04,-4.4997313e-02,-6.4859837e-03,1.8000575e-02
3.4998703e-01,-2.9300906e-04,-1.2179057e-04,-1.2425172e-05,-6.5196752e-03,-1.6723042e-02,-6.4867026e-03,7.9382011e-04,7.7425502e-04,-5.1872200e-04,7.3687711e-02,1.1135545e-01,-2.9559978e-02
3.5998702e-01,-2.2316778e-04,-5.0141944e-05,-4.2411290e-05,6.9895663e-03,7.1628818e-03,6.9807405e-03,4.0357336e-04,1.1905988e-04,-3.6375152e-04,-3.9024712e-02,-6.5519577e-02,1.5497062e-02
3.6998701e-01,-2.1126816e-04,-2.3223162e-04,-1.9624367e-04,1.1929740e-03,-1.8205674e-02,1.2366970e-03,-1.1040649e-04,2.6218750e-03,-8.4127484e-04,-5.1398033e-02,2.5028175e-01,-4.7752377e-02
3.7998700e-01,-3.0643163e-04,-3.5057958e-04,-1.0931307e-04,-9.5346035e-03,-1.1856794e-02,-9.4706137e-03,5.4852693e-04,2.8677557e-03,-1.2361942e-03,6.5893404e-02,2.4588088e-02,-3.9491974e-02
3.8998699e-01,-2.8575718e-04,-2.3487284e-04,-1.4885433e-05,2.0694202e-03,1.1575359e-02,2.0391121e-03,6.5840826e-06,2.2842039e-03,-9.1822597e-04,-5.4194336e-02,-5.8355232e-02,3.1796853e-02
3.9998698e-01,-4.3464672e-04,-3.1538010e-04,-3.7563893e-05,-1.4924672e-02,-8.0863047e-03,-1.4833842e-02,7.2583113e-04,3.1239930e-03,-2.0078317e-03,7.1924774e-02,8.3978987e-02,-1.0896067e-01
4.0998697e-01,-3.6425464e-04,-1.6716198e-04,5.5362870e-06,7.0663153e-03,1.4819947e-02,7.0159804e-03,1.1478324e-03,8.8433104e-04,-1.4347626e-03,4.2200170e-02,-2.2396641e-01,5.7306967e-02
4.1998696e-01,-1.6936563e-04,-4.0081150e-07,-6.8191828e-06,1.9500319e-02,1.6661953e-02,1.9489645e-02,5.0711550e-04,-2.2034505e-04,-1.5110549e-04,-6.4071754e-02,-1.1046771e-01,1.2836583e-01
4.2998695e-01,-1.2932617e-04,6.9401653e-06,-3.0153593e-05,4.0054864e-03,7.2800095e-04,4.0035261e-03,9.1417016e-04,-6.0870528e-04,-2.1662357e-04,4.0705505e-02,-3.8836061e-02,-6.5518139e-03
4.3998694e-01,-2.0848704e-04,-3.0007892e-05,-5.0929761e-05,-7.9243884e-03,-3.6971637e-03,-7.9066915e-03,2.2837809e-04,5.2637997e-04,-9.4159131e-04,-6.8579272e-02,1.1350863e-01,-7.2496843e-02
4.4996858e-01,-3.1026285e-04,-1.1810788e-04,4.1924349e-05,-1.0216632e-02,-8.8241048e-03,-1.0177773e-02,9.6959575e-04,7.6456374e-04,-1.1549772e-03,7.4258162e-02,2.3862207e-02,-2.1377855e-02
4.5996857e-01,-3.6712928e-04,-1.2834265e-04,9.8964156e-05,-5.6934033e-03,-1.0184096e-03,-5.6807965e-03,1.0883071e-03,1.9743401e-04,-9.9304865e-04,1.1871149e-02,-5.6713027e-02,1.6192870e-02
4.6996856e-01,-4.0051627e-04,-2.4781330e-04,-5.2806260e-05,-3.3523484e-03,-1.1952442e-02,-3.3056607e-03,7.2187379e-04,2.3432564e-03,-1.5054927e-03,-3.6643369e-02,2.1458245e-01,-5.1244458e-02
4.7996855e-01,-3.9855047e-04,-2.3933488e-04,-1.2004202e-04,1.9759163e-04,8.4814550e-04,1.9424805e-04,7.7649903e-04,2.3319409e-03,-1.7977648e-03,5.4625296e-03,-1.1315600e-03,-2.9227229e-02
4.8996854e-01,-1.9490067e-04,-6.3270309e-06,1.2039030e-05,2.0375983e-02,2.3291095e-02,2.0365123e-02,3.0292722e-04,-1.7392712e-04,-1.9279345e-04,-4.7357226e-02,-2.5058704e-01,1.6049728e-01
4.9996853e-01,-1.5922083e-04,8.5217870e-05,4.4820382e-05,3.5701424e-03,9.1511266e-03,3.5744758e-03,2.5649717e-04,-6.8788705e-04,5.4016836e-05,-4.6430097e-03,-5.1396042e-02,2.4681052e-02
5.0996852e-01,-1.9821783e-04,-7.2656576e-05,8.9506930e-05,-3.9128209e-03,-1.5785269e-02,-3.8954292e-03,7.7426803e-04,2.1383776e-04,-2.2962046e-04,5.1777135e-02,9.0172567e-02,-2.8363757e-02
5.1996851e-01,-2.2870389e-04,-1.5717374e-04,9.8754565e-05,-3.0555202e-03,-8.4521635e-03,-3.0404605e-03,6.2560811e-04,7.7156314e-04,-5.3294440e-04,-1.4866006e-02,5.5772591e-02,-3.0332422e-02
5.2996850e-01,-2.0012556e-04,-5.6272855e-05,6.1690374e-05,2.8641275e-03,1.0088101e-02,2.8585847e-03,5.8717427e-04,-1.1072770e-04,-1.2858351e-04,-3.8433883e-03,-8.8229168e-02,4.0436127e-02
5.3996849e-01,-1.1887705e-04,-1.0244732e-04,-6.4729928e-06,8.1272337e-03,-4.6145569e-03,8.1241273e-03,-2.2878926e-04,1.2742465e-04,-1.6234527e-04,-8.1596431e-02,2.3815258e-02,-3.3761789e-03
5.4996872e-01,-1.9380184e-04,-2.3094251e-04,-7.9248498e-05,-7.5039675e-03,-1.2849608e-02,-7.4799718e-03,5.8685393e-04,6.3893634e-04,-5.5014868e-04,8.1562452e-02,5.1149998e-02,-3.8779453e-02
5.5996871e-01,-1.6528003e-04,-1.4719847e-04,-1.9291964e-05,2.8734847e-03,8.3707204e-03,2.8416181e-03,2.0242013e-03,7.3796320e-04,-1.5283943e-03,1.4373487e-01,9.9026954e-03,-9.7824658e-02
5.6996870e-01,-3.1381731e-04,-1.5279375e-04,-2.1358992e-05,-1.4879540e-02,-5.6139321e-04,-1.4827827e-02,1.1311515e-03,1.2588693e-03,-1.6963225e-03,-8.9305068e-02,5.2090664e-02,-1.6792838e-02
5.7996869e-01,-2.5118567e-04,-9.7629420e-05,-8.2371233e-06,6.2722560e-03,5.5169528e-03,6.2536176e-03,5.4177641e-04,6.2476062e-04,-9.7412184e-04,-5.8937563e-02,-6.3410933e-02,7.2220138e-02
5.8996868e-01,-2.6792579e-04,-8.5365185e-05,-1.2175569e-05,-1.6734062e-03,1.2276045e-03,-1.6737578e-03,9.0519782e-04,2.0018789e-04,-3.0030705e-04,3.6342176e-02,-4.2457314e-02,6.7381544e-02
5.9996867e-01,-3.0131680e-04,-6.5308263e-05,1.4020813e-05,-3.3413274e-03,2.0061807e-03,-3.3365862e-03,7.9724309e-04,6.5193940e-04,-1.1457791e-03,-1.0795484e-02,4.5175194e-02,-8.4547286e-02
6.0996866e-01,-3.2952562e-04,-2.3944508e-04,-5.4452332e-05,-2.8412572e-03,-1.7419779e-02,-2.7622848e-03,8.6131138e-04,3.0538906e-03,-1.9074057e-03,6.4068356e-03,2.4019535e-01,-7.6162729e-02
6.1996865e-01,-2.8068450e-04,-1.9987078e-04,-7.6574411e-05,4.8914359e-03,3.9701129e-03,4.8664702e-03,2.4855453e-04,2.8515406e-03,-1.2980581e-03,-6.1275744e-02,-2.0235013e-02,6.0934819e-02
6.2996864e-01,-3.7145531e-04,-3.9805434e-04,-1.0859591e-04,-9.1060536e-03,-1.9838176e-02,-9.0045376e-03,9.2451894e-04,3.1211462e-03,-1.1733915e-03,6.7596506e-02,2.6960581e-02,1.2466668e-02
6.3996863e-01,-4.7271648e-04,-3.1062864e-04,-6.2228553e-05,-1.0134237e-02,8.7241820e-03,-1.0133875e-02,1.0434233e-03,2.8609926e-03,-1.7038429e-03,1.1890450e-02,-2.6015388e-02,-5.3045190e-02
6.4996862e-01,-3.8480609e-04,-6.8744155e-05,1.2875891e-04,8.8252321e-03,2.4178596e-02,8.7839614e-03,1.0379631e-03,-8.4017448e-05,-1.0336809e-03,-5.4602644e-04,-2.9450128e-01,6.7016259e-02
6.5995598e-01,-3.7754929e-04,-1.3829374e-04,4.9229893e-05,7.2005099e-04,-6.9640694e-03,7.3018995e-04,1.0924544e-03,6.6651141e-04,-1.4602016e-03,5.4560342e-03,7.5147916e-02,-4.2706071e-02
6.6994667e-01,-1.5638508e-04,8.0144838e-06,-2.8672974e-05,2.2140939e-02,1.4648892e-02,2.2130174e-02,-1.3725739e-05,1.8680551e-04,-1.8587949e-04,-1.1072107e-01,-4.8015282e-02,1.2755093e-01
6.7994666e-01,-1.6836774e-04,-9.1092726e-05,-6.3356948e-05,-1.2017989e-03,-9.9112356e-03,-1.1905267e-03,3.4682184e-04,7.7137154e-04,-7.9222459e-05,3.6054793e-02,5.8456659e-02,1.0665713e-02
6.8994665e-01,-1.8271293e-04,-9.3575388e-05,-6.1188848e-05,-1.4346638e-03,-2.4860694e-04,-1.4343192e-03,3.8401788e-04,6.2145899e-04,-3.3163442e-05,3.7196070e-03,-1.4991269e-02,4.6059061e-03
6.9994664e-01,-2.5814185e-04,-2.1264454e-04,-2.1160443e-05,-7.5522286e-03,-1.1910312e-02,-7.5282031e-03,4.7443457e-04,9.2461000e-04,-4.8823092e-04,9.0416782e-03,3.0315130e-02,-4.5506791e-02
7.0994663e-01,-5.1350828e-04,-3.9743977e-04,-1.3424809e-04,-2.5610924e-02,-1.8558665e-02,-2.5404581e-02,5.2217573e-04,3.6347230e-03,-2.5333103e-03,4.7741199e-03,2.7101156e-01,-2.0450813e-01
7.1994662e-01,-5.3269650e-04,-4.6421296e-04,-1.5687193e-04,-1.9283798e-03,-6.6837354e-03,-1.8866580e-03,6.7640482e-04,4.0571628e-03,-2.6298460e-03,1.5422924e-02,4.2244024e-02,-9.6535802e-03
7.2994661e-01,-3.2196968e-04,-2.7555754e-04,-8.4947635e-05,2.1098286e-02,1.8914590e-02,2.1003037e-02,1.7943714e-04,2.5116163e-03,-1.0539772e-03,-4.9696815e-02,-1.5455481e-01,1.5758703e-01
7.3994660e-01,-3.6005581e-04,-3.2370855e-04,-1.6674463e-04,-3.8178730e-03,-4.8236485e-03,-3.7884851e-03,6.0689602e-04,2.8601945e-03,-1.6647086e-03,4.2745929e-02,3.4857860e-02,-6.1073199e-02
7.4994659e-01,-3.8231866e-04,-1.6618306e-04,4.7184037e-06,-2.2104187e-03,1.5753877e-02,-2.2327969e-03,1.1872301e-03,5.9186146e-04,-1.2742180e-03,5.8033463e-02,-2.2683352e-01,3.9049100e-02
7.5994658e-01,-3.1909736e-04,-7.2893093e-05,4.1951912e-05,6.3418350e-03,9.3200412e-03,6.3156235e-03,1.3281424e-03,-8.8536798e-05,-1.1576489e-03,1.4091244e-02,-6.8039890e-02,1.1656920e-02
7.6994658e-01,-3.9324302e-04,-1.0088608e-04,3.2380324e-05,-7.4261739e-03,-2.7946246e-03,-7.4047217e-03,9.4250540e-04,3.1236515e-04,-1.2098735e-03,-3.8563737e-02,4.0090233e-02,-5.2224692e-03
7.7994657e-01,-2.6993335e-04,-1.1020690e-05,7.3590449e-05,1.2337926e-02,8.9733581e-03,1.2333634e-02,6.6900657e-04,-4.0039626e-04,-7.6077364e-05,-2.7349909e-02,-7.1276209e-02,1.1337972e-01
7.8994656e-01,-4.3415553e-04,-1.9181648e-04,2.3140771e-05,-1.6468790e-02,-1.8074190e-02,-1.6381510e-02,1.3147467e-03,9.8839709e-04,-1.3894168e-03,6.4574078e-02,1.3887947e-01,-1.3133407e-01
7.9994678e-01,-4.9319970e-04,-4.5646567e-04,-1.5331588e-04,-5.9530356e-03,-2.6476847e-02,-5.7981813e-03,1.3846933e-03,3.5473764e-03,-2.0538631e-03,6.9945014e-03,2.5589208e-01,-6.6443109e-02
8.0994678e-01,-4.6843371e-04,-4.3935278e-04,-1.8503442e-04,2.4838855e-03,1.7172671e-03,2.4651437e-03,1.2982088e-03,3.7243958e-03,-2.0469845e-03,-8.6484660e-03,1.7701957e-02,6.8786235e-04
8.1994677e-01,-4.2392214e-04,-3.4411121e-04,-2.0717102e-04,4.4694926e-03,9.5338838e-03,4.4118154e-03,9.7045166e-04,3.1717353e-03,-2.0445210e-03,-3.2775743e-02,-5.5266106e-02,2.4635069e-04
8.2994676e-01,-1.8253851e-04,1.2157037e-05,2.1451797e-05,2.4146379e-02,3.5613484e-02,2.4150126e-02,2.2143147e-04,-3.3250594e-04,-4.3093549e-06,-7.4902090e-02,-3.5042446e-01,2.0402135e-01
8.3994675e-01,-2.4232739e-04,-1.0489279e-05,6.8341595e-05,-5.9808838e-03,-2.2577429e-03,-5.9795088e-03,6.6525223e-04,-4.8718493e-04,-8.1145385e-05,4.4382118e-02,-1.5467914e-02,-7.6836103e-03
8.4994674e-01,-3.6367363e-04,-1.5551330e-04,2.4329031e-05,-1.2171052e-02,-1.4500245e-02,-1.2100711e-02,1.2326914e-03,1.0569978e-03,-1.5297582e-03,5.6743974e-02,1.5441842e-01,-1.4486142e-01
8.5994673e-01,-2.1355440e-04,-1.1598804e-05,2.3429147e-05,1.5022836e-02,1.4377342e-02,1.5014564e-02,5.9033285e-04,-3.5015894e-04,-1.6032711e-04,-6.4235919e-02,-1.4071580e-01,1.3694324e-01
8.6994672e-01,-1.5344139e-04,-7.8175608e-05,-2.4333557e-05,6.0089766e-03,-6.6607200e-03,6.0102770e-03,3.7026386e-04,-1.3441614e-04,-2.2448715e-05,-2.2006921e-02,2.1574301e-02,1.3787852e-02
8.7994671e-01,-1.9299864e-04,-1.7886308e-04,-2.5138938e-05,-3.9635551e-03,-1.0067526e-02,-3.9510245e-03,6.2449742e-04,3.1407539e-04,-3.8921420e-04,2.5423380e-02,4.4849195e-02,-3.6676583e-02
8.8994670e-01,-4.5216100e-04,-3.7628551e-04,-1.0083770e-04,-2.5985294e-02,-1.9811518e-02,-2.5793996e-02,8.1366321e-04,3.4980848e-03,-2.0463151e-03,1.8916598e-02,3.1840125e-01,-1.6571024e-01
8.9994669e-01,-4.7143732e-04,-3.9481018e-04,-2.5074483e-05,-1.9338335e-03,-1.8541779e-03,-1.9197656e-03,1.2129301e-03,2.1064096e-03,-2.0534082e-03,3.9926725e-02,-1.3916766e-01,-7.0931914e-04
9.0994668e-01,-2.0886887e-04,-1.2565237e-05,4.0280016e-06,2.6281240e-02,3.8193702e-02,2.6277342e-02,6.2682102e-04,-5.4682466e-04,-1.5835547e-05,-5.8610962e-02,-2.6532368e-01,2.0375746e-01
9.1994667e-01,-2.0734973e-04,-3.5933860e-05,-5.0824785e-05,1.5120192e-04,-2.3369050e-03,1.5200256e-04,3.1756103e-04,5.0425217e-05,-1.9567481e-04,-3.0926029e-02,5.9725045e-02,-1.7983943e-02
9.2994666e-01,-3.1480899e-04,-5.5170008e-06,1.1226436e-05,-1.0755450e-02,3.0435948e-03,-1.0735873e-02,6.6011536e-04,4.8317014e-04,-1.0730145e-03,3.4255466e-02,4.3274533e-02,-8.7734052e-02
9.3994665e-01,-3.4640481e-04,-7.3752547e-05,3.6585403e-05,-3.1681142e-03,-6.8227273e-03,-3.1528384e-03,7.9418624e-04,5.3179017e-04,-9.8501440e-04,1.3407100e-02,4.8620078e-03,8.8000172e-03
9.4994664e-01,-4.1134712e-04,-2.6059091e-04,-9.7982426e-05,-6.5204166e-03,-1.8696333e-02,-6.4317916e-03,8.0571620e-04,2.7437245e-03,-1.7149152e-03,1.1529970e-03,2.2119364e-01,-7.2990151e-02
9.5994663e-01,-4.7782047e-04,-2.4021743e-04,-9.2795222e-05,-6.6574015e-03,2.0278233e-03,-6.6401820e-03,9.1392561e-04,2.3502601e-03,-1.7955970e-03,1.0820952e-02,-3.9346479e-02,-8.0681832e-03
9.6994662e-01,-3.4732142e-04,-2.0219262e-04,-7.0759713e-05,1.3062460e-02,3.8207318e-03,1.3032028e-02,4.1072694e-04,1.8110072e-03,-8.4186421e-04,-5.0319914e-02,-5.3925340e-02,9.5373366e-02
9.7994661e-01,-3.8908781e-04,-2.3171281e-04,-5.7307147e-05,-4.1834682e-03,-2.9578032e-03,-4.1657095e-03,7.7777711e-04,2.1660918e-03,-1.0851159e-03,3.6705052e-02,3.5508498e-02,-2.4325193e-02
9.8994660e-01,-3.7781131e-04,-1.8591160e-04,-1.1707312e-04,1.1328996e-03,4.5820292e-03,1.1145819e-03,6.9609972e-04,2.4011870e-03,-1.8289549e-03,-8.1677473e-03,2.3509540e-02,-7.4383972e-02
9.9994659e-01,-2.0123376e-04,1.8058589e-05,-6.2193973e-06,1.7667439e-02,2.0388585e-02,1.7657865e-02,3.0973164e-04,-1.6894255e-04,-1.8974554e-04,-3.8636845e-02,-2.5701320e-01,1.6392110e-01
1.0099466e+00,-2.2249877e-04,-1.0056110e-04,-8.1693700e-05,-2.1314283e-03,-1.1862471e-02,-2.1188210e-03,3.6063283e-04,5.9291404e-04,-3.0454290e-04,5.0901242e-03,7.6185732e-02,-1.1479747e-02
1.0199466e+00,-1.3579592e-04,1.8302029e-05,-5.0353156e-05,8.6701110e-03,1.1884914e-02,8.6724084e-03,3.3958958e-05,-1.2866223e-04,6.7575601e-05,-3.2667419e-02,-7.2157695e-02,3.7211886e-02
1.0299466e+00,-1.7390562e-04,1.5586205e-05,7.4530883e-06,-3.8108419e-03,-2.6797025e-04,-3.8113608e-03,4.5991333e-04,-4.8795428e-04,6.7198218e-05,4.2595478e-02,-3.5929240e-02,-3.7738335e-05
1.0399466e+00,-3.8923865e-04,-2.6309789e-04,-1.4519124e-05,-2.1594871e-02,-2.7889675e-02,-2.1444005e-02,6.7093925e-04,1.6626896e-03,-1.9920943e-03,2.1102612e-02,2.1506459e-01,-2.0592945e-01
1.0499468e+00,-4.1189279e-04,-3.0803779e-04,-1.0885153e-04,-2.2723333e-03,-4.4995148e-03,-2.2471372e-03,4.8761326e-04,2.9869275e-03,-2.1124158e-03,-1.8332180e-02,1.3242076e-01,-1.2031875e-02
1.0599468e+00,-3.4555214e-04,-2.8295832e-04,-1.2196756e-04,6.6431881e-03,2.5216555e-03,6.6197379e-03,5.8457609e-04,2.6550440e-03,-1.1540287e-03,9.6962926e-03,-3.3188379e-02,9.5838801e-02
1.0699468e+00,-2.7927290e-04,-1.4805290e-04,-1.5182199e-04,6.6350158e-03,1.3505016e-02,6.5912917e-03,-7.5623419e-05,2.1132407e-03,-1.2236857e-03,-6.6020014e-02,-5.4180391e-02,-6.9657052e-03
1.0799468e+00,-3.3056038e-04,-1.4181989e-04,2.4788878e-05,-5.1290058e-03,6.2901308e-04,-5.1278029e-03,1.0721343e-03,-4.1571812e-05,-1.8016602e-04,1.1477588e-01,-2.1548145e-01,1.0435207e-01
1.0899467e+00,-3.9864593e-04,-1.3308411e-04,1.9264203e-05,-6.8154638e-03,8.7779781e-04,-6.8011086e-03,1.0652907e-03,4.4598776e-04,-1.1517041e-03,-6.8435953e-04,4.8756003e-02,-9.7153897e-02
1.0999467e+00,-3.4774516e-04,-4.2395369e-05,4.6049823e-05,5.0993474e-03,9.0637205e-03,5.0900032e-03,8.1685607e-04,-1.9678109e-04,-3.6531200e-04,-2.4843485e-02,-6.4276946e-02,7.8639281e-02
1.1099467e+00,-4.4108710e-04,-3.2775912e-05,1.0062267e-04,-9.3412973e-03,9.7355950e-04,-9.3258991e-03,1.0938017e-03,-1.5051559e-04,-8.7369313e-04,2.7694588e-02,4.6265546e-03,-5.0838162e-02
1.1199467e+00,-4.1198417e-04,-1.6895080e-04,-1.0667701e-04,2.9080487e-03,-1.3613243e-02,2.9323784e-03,4.7624577e-04,1.9328348e-03,-1.4574151e-03,-6.1755651e-02,2.0833524e-01,-5.8372251e-02
1.1299467e+00,-4.8345210e-04,-2.7951547e-04,-1.2742362e-04,-7.1721890e-03,-1.1064642e-02,-7.1086277e-03,1.0524928e-03,2.2037126e-03,-1.9267354e-03,5.7624756e-02,2.7087797e-02,-4.6932072e-02
1.1399467e+00,-4.9094560e-04,-3.1859169e-04,-1.2842316e-04,-7.5521047e-04,-3.9089280e-03,-7.3656897e-04,1.1096353e-03,2.8778234e-03,-2.0357388e-03,5.7142600e-03,6.7411147e-02,-1.0900358e-02
1.1499467e+00,-4.0935573e-04,-2.3236809e-04,-1.1080107e-04,8.1812065e-03,8.6385676e-03,8.1195210e-03,8.2185512e-04,2.8170478e-03,-1.8559790e-03,-2.8778047e-02,-6.0775623e-03,1.7975998e-02
1.1599467e+00,-1.8143673e-04,-4.6110733e-05,2.5679522e-05,2.2797975e-02,1.8621786e-02,2.2789111e-02,2.4625475e-04,7.2217944e-05,-6.4332404e-05,-5.7560092e-02,-2.7448325e-01,1.7916483e-01
1.1699467e+00,-2.2985998e-04,-1.4848403e-04,-4.3575060e-05,-4.8494459e-03,-1.0236727e-02,-4.8364997e-03,5.8968970e-04,4.6385056e-04,-2.2314169e-04,3.4343528e-02,3.9163299e-02,-1.5880944e-02
1.1799467e+00,-1.8590535e-04,-3.3923619e-05,-6.3366074e-05,4.3975141e-03,1.1456355e-02,4.3926279e-03,1.2118115e-04,1.9019306e-04,-1.5003507e-04,-4.6850900e-02,-2.7365776e-02,7.3106691e-03
1.1899467e+00,-3.6276236e-04,-2.2592029e-04,-1.1336588e-04,-1.7733183e-02,-1.9216155e-02,-1.7620179e-02,9.5135554e-04,1.8881374e-03,-1.6528600e-03,8.3017518e-02,1.6979459e-01,-1.5028263e-01
1.1999466e+00,-3.9738971e-04,-2.2171704e-04,-4.6728100e-05,-3.4681024e-03,4.1963536e-04,-3.4574510e-03,1.2446677e-03,1.4461177e-03,-1.7022105e-03,2.9331246e-02,-4.4202007e-02,-4.9350585e-03
1.2099466e+00,-2.3974711e-04,-1.5568542e-04,-3.0007842e-06,1.5782587e-02,6.6063857e-03,1.5744593e-02,4.8480939e-04,6.8969216e-04,-9.5908571e-04,-7.5985905e-02,-7.5642629e-02,7.4312550e-02
1.2199466e+00,-2.9436021e-04,-1.6482054e-04,1.6668953e-05,-5.4641336e-03,-9.0947731e-04,-5.4591701e-03,7.8662055e-04,4.7767313e-05,-3.8478877e-04,3.0181145e-02,-6.4192545e-02,5.7429749e-02
1.2299466e+00,-5.4638982e-04,-4.1390589e-04,-1.3000249e-04,-2.5287445e-02,-2.4940973e-02,-2.5086054e-02,1.3626207e-03,2.6585097e-03,-2.0074632e-03,5.7600071e-02,2.6107449e-01,-1.6226760e-01
1.2399466e+00,-4.1783315e-04,-3.3521936e-04,-1.2637734e-04,1.2882813e-02,7.8887077e-03,1.2816170e-02,9.9069823e-04,2.5562805e-03,-1.5058708e-03,-3.7192285e-02,-1.0222923e-02,5.0159283e-02
1.2499466e+00,-4.5067346e-04,-4.1264471e-04,-1.2997296e-04,-3.2999780e-03,-7.7483337e-03,-3.2542596e-03,1.3144303e-03,3.0965592e-03,-1.7583289e-03,3.2373240e-02,5.4027919e-02,-2.5245831e-02
1.2599466e+00,-3.6350649e-04,-4.0466481e-04,-9.7763952e-05,8.7249714e-03,8.0457208e-04,8.7078268e-03,1.4253047e-03,2.1823941e-03,-8.1912115e-04,1.1087451e-02,-9.1416600e-02,9.3920864e-02
1.2699466e+00,-2.7719609e-04,-9.4232246e-05,1.1117401e-04,8.6746850e-03,3.1022263e-02,8.6628296e-03,1.4283167e-03,-1.0018940e-03,8.0321321e-05,3.0119366e-04,-3.1842912e-01,8.9944333e-02
1.2798800e+00,-3.8502063e-04,-2.3591612e-04,1.0205348e-04,-1.0890750e-02,-1.4243748e-02,-1.0844168e-02,1.8511740e-03,5.4178063e-05,-8.9369666e-04,4.2568935e-02,1.0631450e-01,-9.8054136e-02
1.2898800e+00,-3.9446043e-04,-3.3359072e-04,6.6512933e-05,-9.6293578e-04,-9.7663748e-03,-9.3612865e-04,1.8338018e-03,6.9488867e-04,-1.1075368e-03,-1.7372223e-03,6.4071122e-02,-2.1384040e-02
1.2998803e+00,-3.8650617e-04,-2.7160708e-04,3.5204149e-05,8.0667533e-04,6.1970103e-03,7.9350466e-04,1.6620924e-03,1.4898715e-04,-1.2157124e-03,-1.7170547e-02,-5.4588903e-02,-1.0817303e-02
1.3098803e+00,-2.0981468e-04,-2.1156174e-04,2.6962558e-05,1.7673309e-02,5.9736249e-03,1.7675500e-02,9.4037084e-04,-8.0893686e-04,8.4637017e-05,-7.2172221e-02,-9.5792492e-02,1.3003506e-01
1.3198802e+00,-2.0928290e-04,-1.9678703e-04,2.9489181e-05,5.4501962e-05,1.4773805e-03,5.4382357e-05,9.0080847e-04,-8.1001607e-04,1.3532784e-04,-3.9562411e-03,-1.0792105e-04,5.0690873e-03
1.3298802e+00,-3.4882578e-04,-2.2799565e-04,4.0679224e-05,-1.3974284e-02,-3.1025400e-03,-1.3938381e-02,1.5283312e-03,2.1561152e-04,-1.0919912e-03,6.2752331e-02,1.0256286e-01,-1.2273202e-01
1.3398802e+00,-2.6778794e-04,-8.5920125e-05,6.1464519e-05,8.1205151e-03,1.4195962e-02,8.1073865e-03,8.3127046e-04,-6.0008335e-04,-6.0676069e-04,-6.9706138e-02,-8.1569565e-02,4.8523097e-02
1.3498802e+00,-2.4863416e-04,-1.1694303e-04,4.4936129e-05,1.9130718e-03,-3.1047355e-03,1.9137283e-03,7.1814524e-04,-5.5740388e-04,4.1372385e-05,-1.1312533e-02,4.2679515e-03,6.4813370e-02
1.3598802e+00,-2.4586583e-04,-1.1851449e-04,7.4354631e-05,2.7663291e-04,-1.5760399e-04,2.7677353e-04,8.9140356e-04,-7.6162626e-04,2.1748874e-04,1.7325848e-02,-2.0422258e-02,1.7611653e-02
1.3698802e+00,-3.9410233e-04,-3.3557516e-04,-6.1909845e-05,-1.4854948e-02,-2.1725606e-02,-1.4763631e-02,9.2033194e-04,2.2430498e-03,-7.6351419e-04,2.8928414e-03,3.0046789e-01,-9.8100387e-02
1.3798802e+00,-5.0421662e-04,-4.4118649e-04,-1.3044502e-04,-1.1050739e-02,-1.0579018e-02,-1.0954767e-02,1.4877546e-03,3.1235632e-03,-2.1454012e-03,5.6742322e-02,8.8051421e-02,-1.3818884e-01
1.3898802e+00,-3.4624957e-04,-2.1786880e-04,-1.0283904e-04,1.5822315e-02,2.2334179e-02,1.5767701e-02,8.1278517e-04,9.6559130e-04,-4.7167889e-04,-6.7497009e-02,-2.1579740e-01,1.6737239e-01
1.3998802e+00,-4.9251156e-04,-3.7364724e-04,-1.0405977e-04,-1.4671882e-02,-1.5588158e-02,-1.4569390e-02,1.4523894e-03,2.1635952e-03,-1.5777904e-03,6.3960481e-02,1.1980051e-01,-1.1061126e-01
1.4098802e+00,-4.4249555e-04,-2.3469746e-04,6.8982063e-05,5.0272719e-03,1.3886621e-02,4.9991217e-03,1.5747391e-03,-9.5553795e-05,-7.5832965e-04,1.2234989e-02,-2.2591512e-01,8.1946157e-02
1.4198802e+00,-4.8963799e-04,-2.7327765e-04,1.2031825e-04,-4.7258920e-03,-3.8488090e-03,-4.7101185e-03,1.8027739e-03,-1.5054512e-04,-9.9682485e-04,2.2803497e-02,-5.4991374e-03,-2.3849543e-02
1.4298561e+00,-3.7909696e-04,-3.4389752e-05,3.0713591e-04,1.1141375e-02,2.3880469e-02,1.1162204e-02,2.4291175e-03,-3.5089635e-03,-2.2049467e-04,6.2785607e-02,-3.3665282e-01,7.7820487e-02
1.4398561e+00,-4.7642368e-04,-1.8120946e-04,2.5177981e-04,-9.7676798e-03,-1.4631171e-02,-9.7740554e-03,2.2719717e-03,-2.9391495e-03,-1.7117991e-04,-1.5714597e-02,5.6981449e-02,4.9314806e-03
1.4498560e+00,-4.8377075e-04,-2.1069213e-04,2.4350117e-04,-7.4162108e-04,-2.9446357e-03,-7.4229462e-04,2.3112575e-03,-2.6103408e-03,-1.3768200e-04,3.9285896e-03,3.2880905e-02,3.3497944e-03
1.4598553e+00,-4.2301227e-04,-4.6143452e-04,-1.2361267e-04,6.0532824e-03,-2.5069499e-02,6.1261057e-03,1.2202791e-03,2.2884027e-03,-1.2511186e-03,-1.0910574e-01,4.8990985e-01,-1.1135173e-01
1.4698553e+00,-3.8809297e-04,-4.7262807e-04,-9.9996130e-05,3.4935427e-03,-1.1133601e-03,3.4922400e-03,6.9646722e-04,2.4141079e-03,-6.8467062e-04,-5.2381243e-02,1.2570529e-02,5.6644850e-02
1.4798553e+00,-3.5966125e-04,-4.8232648e-04,-7.6994436e-05,2.8442336e-03,-9.6496110e-04,2.8437748e-03,7.8956705e-04,2.5065904e-03,-6.4252956e-04,9.3099913e-03,9.2482614e-03,4.2141105e-03
1.4898553e+00,-3.6795846e-04,-2.7668518e-04,-2.7143117e-06,-8.1725728e-04,2.0563205e-02,-8.6473921e-04,6.3254284e-04,1.7289477e-03,-6.5591321e-04,-1.5702435e-02,-7.7764339e-02,-1.3383667e-03
1.4998553e+00,-3.4932337e-04,-2.6510691e-04,6.3342584e-05,1.8655136e-03,1.1552029e-03,1.8631367e-03,1.3121085e-03,-9.6436267e-05,-2.6036131e-04,6.7956632e-02,-1.8253857e-01,3.9555228e-02
1.5098553e+00,-3.2396092e-04,-2.8381884e-04,-5.7498342e-05,2.5342797e-03,-1.8750407e-03,2.5353731e-03,1.2824110e-03,-2.3453656e-04,-1.7133257e-04,-2.9697568e-03,-1.3810043e-02,8.9028822e-03
1.5198553e+00,-3.0614246e-04,-2.4543800e-04,-5.4636489e-05,1.7864065e-03,3.8356831e-03,1.7824598e-03,1.1313317e-03,-2.1649312e-04,-1.2223353e-04,-1.5107943e-02,1.8043458e-03,4.9099087e-03
1.5298553e+00,-5.2904920e-04,-4.0266427e-04,-4.4095066e-05,-2.2359644e-02,-1.5699757e-02,-2.2237706e-02,2.0401612e-03,1.0170594e-03,-1.6575984e-03,9.0883033e-02,1.2335537e-01,-1.5353663e-01
1.5398552e+00,-5.3841632e-04,-3.7052515e-04,3.5477889e-05,-9.3106761e-04,3.2157752e-03,-9.3595592e-04,2.1117414e-03,1.1779429e-04,-1.2211968e-03,7.1580276e-03,-8.9926600e-02,4.3640197e-02
1.5498555e+00,-4.0163688e-04,-2.2145793e-04,9.3759153e-05,1.3705830e-02,1.4881014e-02,1.3677026e-02,1.3758674e-03,-4.7788406e-04,-5.6328960e-04,-7.3585708e-02,-5.9566471e-02,6.5789217e-02
1.5598555e+00,-3.6839772e-04,-3.8953174e-04,-3.7094746e-05,3.2978655e-03,-1.6808498e-02,3.3442441e-03,1.6384515e-03,1.2969286e-03,-4.4805207e-04,2.6258430e-02,1.7748143e-01,1.1523764e-02
1.5698555e+00,-6.0944913e-04,-7.5118731e-04,-1.0632769e-04,-2.4253042e-02,-3.6213956e-02,-2.3883201e-02,2.2578186e-03,4.2937452e-03,-2.7535612e-03,6.1936769e-02,2.9968195e-01,-2.3055114e-01
1.5798554e+00,-6.4425571e-04,-7.8979629e-04,-1.4489685e-04,-3.4969738e-03,-3.8675788e-03,-3.4568144e-03,2.1842085e-03,4.1239860e-03,-2.2689967e-03,-7.3610205e-03,-1.6975933e-02,4.8456503e-02
1.5898554e+00,-5.9326247e-04,-5.7704781e-04,-1.4257453e-04,5.1467797e-03,2.1279870e-02,5.0303182e-03,1.8246962e-03,2.8341478e-03,-1.6957271e-03,-3.5951264e-02,-1.2898395e-01,5.7327015e-02
1.5998554e+00,-3.4312693e-04,-1.2292421e-04,3.3073829e-05,2.5063003e-02,4.5365143e-02,2.5049832e-02,8.4752409e-04,-1.0406449e-03,-4.3773085e-04,-9.7717300e-02,-3.8747964e-01,1.2579974e-01
1.6098554e+00,-4.9881909e-04,-2.4597077e-04,4.9558949e-05,-1.5610000e-02,-1.2266876e-02,-1.5558226e-02,1.8570969e-03,-5.6939914e-04,-1.1532572e-03,1.0095737e-01,4.7124624e-02,-7.1552705e-02
1.6198554e+00,-4.6353489e-04,-2.4936940e-04,8.5098386e-05,3.5321146e-03,-3.4643007e-04,3.5240902e-03,1.8149313e-03,-4.6252830e-05,-1.2231747e-03,-4.2165631e-03,5.2314681e-02,-6.9917583e-03
1.6298554e+00,-3.2382066e-04,-1.6904036e-04,1.0938727e-04,1.3981320e-02,8.0014924e-03,1.3979576e-02,1.3531282e-03,-8.9487416e-04,6.9636943e-05,-4.6180357e-02,-8.4862214e-02,1.2928129e-01
1.6398554e+00,-3.1372792e-04,-2.6036969e-04,3.4181546e-05,9.9776220e-04,-9.1349908e-03,1.0021468e-03,1.2509188e-03,-7.8985544e-04,8.6798565e-05,-1.0220949e-02,1.0501882e-02,1.7161639e-03
1.6498554e+00,-3.2158174e-04,-3.0321137e-04,3.0337325e-05,-7.9142478e-04,-4.2825333e-03,-7.8825598e-04,1.4376090e-03,-6.4321480e-04,1.4876981e-04,1.8669041e-02,1.4664078e-02,6.1971305e-03
1.6598554e+00,-5.9447551e-04,-5.7805553e-04,-1.9059723e-04,-2.7407148e-02,-2.7501365e-02,-2.7154018e-02,2.0844937e-03,2.7165777e-03,-2.2199560e-03,6.4688528e-02,3.3597957e-01,-2.3687280e-01
1.6698554e+00,-3.8104480e-04,-4.3039938e-04,-9.8361779e-05,2.1376763e-02,1.4793906e-02,2.1289744e-02,1.0534278e-03,2.3826859e-03,-8.4978834e-04,-1.0310668e-01,-3.3389210e-02,1.3701689e-01
1.6798553e+00,-3.7190050e-04,-5.3357123e-04,-1.6166249e-04,9.0971777e-04,-1.0314394e-02,9.5003152e-04,6.3142055e-04,3.6247510e-03,-1.9722820e-03,-4.2200769e-02,1.2420663e-01,-1.1224947e-01
1.6898553e+00,-2.6225806e-04,-3.0399368e-04,3.5212126e-05,1.0983895e-02,2.2949985e-02,1.0960907e-02,8.1276601e-04,1.0286561e-04,-8.9824835e-05,1.8134564e-02,-3.5218887e-01,1.8824589e-01
1.6998553e+00,-4.9196659e-04,-4.1860997e-04,3.0483212e-05,-2.3032357e-02,-1.1443287e-02,-2.2918401e-02,1.8897127e-03,1.0938247e-03,-1.7369254e-03,1.0769477e-01,9.9096006e-02,-1.6471022e-01
1.7098553e+00,-4.3873148e-04,-2.9514269e-04,4.1194295e-05,5.3513880e-03,1.2335073e-02,5.3226187e-03,1.8936353e-03,-2.9402285e-04,-8.4585535e-04,3.9226024e-04,-1.3878489e-01,8.9107095e-02
1.7198553e+00,-3.4752060e-04,-1.1958816e-04,2.4641042e-04,9.1669560e-03,1.7508885e-02,9.1645609e-03,2.3880893e-03,-2.7078763e-03,-4.3439817e-04,4.9445442e-02,-2.4138557e-01,4.1145757e-02
1.7298553e+00,-3.4449102e-04,-1.6096551e-04,2.5500276e-04,2.9529278e-04,-4.1392741e-03,2.8923795e-04,1.8369184e-03,-3.3303784e-03,2.1343443e-04,-5.5117139e-02,-6.2250270e-02,6.4783322e-02
1.7398553e+00,-3.0551087e-04,-2.9602006e-05,3.3923677e-04,3.9169620e-03,1.3114009e-02,3.9538950e-03,1.7836245e-03,-3.9152699e-03,1.1486812e-03,-5.3293949e-03,-5.8489209e-02,9.3524765e-02
1.7498553e+00,-4.7711505e-04,-1.5481754e-04,2.8642792e-04,-1.7183022e-02,-1.2440996e-02,-1.7196395e-02,2.0957257e-03,-2.5947432e-03,2.1073288e-04,3.1210148e-02,1.3205280e-01,-9.3794921e-02
1.7598553e+00,-6.3190082e-04,-6.7623389e-04,-1.6750724e-04,-1.5625068e-02,-5.2159327e-02,-1.5270581e-02,2.1798256e-03,3.3537639e-03,-2.1248313e-03,8.4099985e-03,5.9485127e-01,-2.3355664e-01
1.7698553e+00,-4.2432817e-04,-4.1252222e-04,-1.4607097e-04,2.0806369e-02,2.6370973e-02,2.0708363e-02,1.3336098e-03,1.3261849e-03,-6.7151582e-04,-8.4621656e-02,-2.0275809e-01,1.4533169e-01
1.7798553e+00,-3.5396788e-04,-3.5837170e-04,-1.2240811e-04,7.0444883e-03,5.4176339e-03,7.0255862e-03,9.6539614e-04,1.3332427e-03,-4.5896557e-04,-3.6821405e-02,7.0577684e-04,2.1255046e-02
1.7898552e+00,-4.4889498e-04,-2.8787582e-04,2.7789568e-06,-9.4899329e-03,7.0610936e-03,-9.4869577e-03,1.7639538e-03,5.5197330e-04,-1.0185054e-03,7.9855841e-02,-7.8127015e-02,-5.5954036e-02
1.7998555e+00,-4.2404294e-04,-3.2564013e-04,4.9276871e-05,2.4822417e-03,-3.7786054e-03,2.4846158e-03,1.6289281e-03,7.1784167e-04,-1.3081106e-03,-1.3502263e-02,1.6586458e-02,-2.8959861e-02
1.8098555e+00,-3.1356793e-04,-2.8451822e-04,-1.1360623e-04,1.1054321e-02,4.1210062e-03,1.1037410e-02,4.9220142e-04,1.2907364e-03,-4.3345525e-04,-1.1367277e-01,5.7289528e-02,8.7465621e-02
1.8198555e+00,-2.7863448e-04,-2.7640196e-04,1.8338838e-05,3.4939365e-03,8.0522426e-04,3.4942430e-03,1.2346295e-03,-5.9780560e-04,1.1790998e-04,7.4242878e-02,-1.8885438e-01,5.5136576e-02
1.8298554e+00,-3.1891415e-04,-2.8837671e-04,3.5122149e-05,-4.0321672e-03,-1.1930830e-03,-4.0250747e-03,1.2873132e-03,1.9705050e-04,-6.6016685e-04,5.2683760e-03,7.9485686e-02,-7.7807757e-02
1.8398554e+00,-4.9089777e-04,-3.9607093e-04,2.5111706e-05,-1.7243712e-02,-1.0743940e-02,-1.7168905e-02,2.0771949e-03,5.9724518e-04,-1.3382171e-03,7.8988244e-02,4.0019506e-02,-6.7805090e-02
1.8498554e+00,-4.8294659e-04,-4.3806392e-04,2.3485992e-05,7.8570044e-04,-4.2006548e-03,7.9733753e-04,2.5623009e-03,8.4430045e-04,-1.6918773e-03,4.8510644e-02,2.4705551e-02,-3.5366056e-02
1.8598554e+00,-3.4715886e-04,-1.9734920e-04,2.8307547e-05,1.3626782e-02,2.4020520e-02,1.3620909e-02,2.0552620e-03,-1.6922996e-03,1.0665561e-04,-5.0703934e-02,-2.5366024e-01,1.7985347e-01
1.8698554e+00,-4.0202161e-04,-3.5716748e-04,-6.3655744e-05,-5.5180055e-03,-1.5977551e-02,-5.4669328e-03,1.8306179e-03,1.0551300e-03,-4.5173298e-04,-2.2464435e-02,2.7474322e-01,-5.5838912e-02
1.8798554e+00,-4.7996573e-04,-3.3890326e-04,-4.0748353e-05,-7.8017299e-03,1.8276538e-03,-7.7868126e-03,1.7426721e-03,1.5863599e-03,-1.3487493e-03,-8.7945857e-03,5.3123043e-02,-8.9701719e-02
1.8898554e+00,-5.0998301e-04,-4.6977460e-04,-4.7278343e-05,-3.0274340e-03,-1.3090257e-02,-2.9620930e-03,1.6037252e-03,2.6653054e-03,-1.5732138e-03,-1.3894706e-02,1.0789466e-01,-2.2446470e-02
1.8998554e+00,-6.0743525e-04,-5.9042486e-04,-9.5441000e-05,-9.7898119e-03,-1.2074521e-02,-9.6886436e-03,2.1146220e-03,3.1025251e-03,-1.9605679e-03,5.1089731e-02,4.3722012e-02,-3.8735445e-02
1.9098554e+00,-5.9259210e-04,-6.2288273e-04,-1.5837657e-04,1.4801759e-03,-3.2441145e-03,1.4920938e-03,2.1192921e-03,3.2377803e-03,-1.8488427e-03,4.6701449e-04,1.3525528e-02,1.1172528e-02
1.9198554e+00,-6.6876772e-04,-6.0786818e-04,-1.8642000e-04,-7.6294992e-03,1.4979621e-03,-7.6063098e-03,2.2485563e-03,2.7115162e-03,-2.0138552e-03,1.2926434e-02,-5.2626463e-02,-1.6501263e-02
1.9298553e+00,-4.6778263e-04,-2.8316990e-04,-2.4329735e-06,2.0182056e-02,3.2431738e-02,2.0076364e-02,1.9129108e-03,1.9185480e-05,-1.0679521e-03,-3.3564584e-02,-2.6923333e-01,9.4590400e-02
1.9398553e+00,-3.7162379e-04,-2.6641494e-04,-3.0596554e-05,9.6197707e-03,1.6593231e-03,9.6148198e-03,1.3968277e-03,-2.8506527e-04,-1.6082339e-04,-5.1608362e-02,-3.0425104e-02,9.0712958e-02
1.9498553e+00,-4.9703413e-04,-4.0059657e-04,-2.8418814e-05,-1.2587224e-02,-1.3410044e-02,-1.2503424e-02,1.9362382e-03,1.2928267e-03,-1.6136586e-03,5.3941101e-02,1.5778934e-01,-1.4528366e-01
1.9598553e+00,-4.6536922e-04,-4.0005688e-04,8.7298020e-06,3.1707581e-03,4.9649372e-05,3.1622953e-03,2.0081447e-03,6.4504601e-04,-1.3152345e-03,7.1906584e-03,-6.4778127e-02,2.9842441e-02
1.9698553e+00,-3.6032375e-04,-2.3729978e-04,7.4915942e-05,1.0533644e-02,1.6258897e-02,1.0501491e-02,1.3893240e-03,-2.1132722e-04,-6.1751686e-04,-6.1882127e-02,-8.5637404e-02,6.9771826e-02
1.9798553e+00,-3.2318659e-04,-2.0717214e-04,5.9341187e-05,3.7183105e-03,3.0064496e-03,3.7142439e-03,1.0883219e-03,-6.1230055e-04,-3.5414277e-04,-3.0100240e-02,-4.0097372e-02,2.6337434e-02
1.9898553e+00,-3.7013482e-04,-4.1577825e-04,-1.2091000e-04,-4.7169149e-03,-2.0864643e-02,-4.6546818e-03,9.4785797e-04,1.8128374e-03,-4.9372887e-04,-1.4046409e-02,2.4251402e-01,-1.3958623e-02
1.9997911e+00,-5.1173260e-04,-4.7411813e-04,-1.2374216e-04,-1.4292256e-02,-5.8734351e-03,-1.4209271e-02,2.2599554e-03,2.3920328e-03,-1.9548491e-03,1.3205681e-01,5.8293461e-02,-1.4705530e-01
2.0097911e+00,-4.4886005e-04,-4.2375042e-04,-4.4153811e-05,6.3060607e-03,5.0442434e-03,6.2623979e-03,1.6499224e-03,2.8467462e-03,-1.6710763e-03,-6.1003355e-02,4.5471385e-02,2.8377305e-02
2.0197911e+00,-3.6964508e-04,-3.3470305e-04,-3.2659506e-05,7.9423238e-03,8.9146056e-03,7.8895010e-03,1.1252210e-03,2.3771597e-03,-1.3649733e-03,-5.2470193e-02,-4.6958702e-02,3.0610327e-02
2.0297911e+00,-3.2204497e-04,-1.7761146e-04,6.7970836e-05,4.7834356e-03,1.5700642e-02,4.7646864e-03,1.2684130e-03,-5.2132688e-04,-7.3513623e-04,1.4319214e-02,-2.8984893e-01,6.2983769e-02
2.0397911e+00,-4.5987647e-04,-2.9152445e-04,-6.3746613e-06,-1.3821640e-02,-1.1369480e-02,-1.3762641e-02,1.8357891e-03,2.5371494e-04,-1.2768932e-03,5.6737668e-02,7.7504255e-02,-5.4175749e-02
2.0497913e+00,-5.0512478e-04,-2.6639032e-04,1.5133238e-04,-4.5197929e-03,2.5336274e-03,-4.5183503e-03,2.3754532e-03,-2.1079812e-03,-2.3165189e-04,5.3965170e-02,-2.3616421e-01,1.0452174e-01
2.0597913e+00,-4.9472626e-04,-2.1955860e-04,2.3464367e-04,1.0515142e-03,4.6779865e-03,1.0514211e-03,2.4472689e-03,-2.5158391e-03,-1.9492296e-04,7.1815770e-03,-4.0785827e-02,3.6728969e-03
2.0697913e+00,-3.7080783e-04,-1.8133277e-04,2.6528885e-04,1.2397786e-02,3.7623647e-03,1.2404345e-02,1.9143712e-03,-2.9432122e-03,1.0999380e-04,-5.3289815e-02,-4.2737351e-02,3.0491704e-02
2.0797913e+00,-4.2850043e-04,-1.2679659e-04,2.7078723e-04,-5.7588030e-03,5.4843173e-03,-5.7505934e-03,2.2235303e-03,-3.1044251e-03,-2.9082840e-04,3.0915933e-02,-1.6121301e-02,-4.0082258e-02
2.0897913e+00,-5.4759608e-04,-5.6112422e-04,-1.2219414e-04,-1.2013200e-02,-4.3441898e-02,-1.1771536e-02,1.9341903e-03,2.7225582e-03,-1.6503913e-03,-2.8934024e-02,5.8269888e-01,-1.3595642e-01
2.0997913e+00,-5.4740811e-04,-6.1244319e-04,-1.0992350e-04,9.5626823e-06,-5.1318369e-03,3.5784650e-05,1.8057483e-03,3.3135091e-03,-1.7481594e-03,-1.2844216e-02,5.9095143e-02,-9.7768278e-03
2.1097913e+00,-4.2725684e-04,-5.7716517e-04,-1.6060643e-04,1.2041119e-02,3.5631935e-03,1.1978633e-02,7.0132397e-04,3.6558394e-03,-1.9585132e-03,-1.1044253e-01,3.4233069e-02,-2.1035395e-02
2.1197913e+00,-4.2552948e-04,-4.9758529e-04,-1.4113715e-04,1.7614930e-04,7.9584462e-03,1.4651931e-04,3.8756322e-04,3.2521888e-03,-1.9056751e-03,-3.1376105e-02,-4.0365105e-02,5.2838133e-03
2.1297913e+00,-5.5415181e-04,-5.3911178e-04,-1.0903589e-04,-1.2897053e-02,-4.1825925e-03,-1.2817612e-02,1.0713796e-03,3.4092160e-03,-2.3636654e-03,6.8381707e-02,1.5702741e-02,-4.5799078e-02
2.1397913e+00,-4.2844732e-04,-3.6856829e-04,-1.1367758e-04,1.2599134e-02,1.7055789e-02,1.2539787e-02,1.2101283e-03,1.3263718e-03,-6.4012157e-04,1.3874877e-02,-2.0828462e-01,1.7235455e-01
2.1497912e+00,-3.2982937e-04,-3.0101031e-04,1.4805000e-05,9.8758745e-03,6.7374468e-03,9.8602812e-03,1.2778906e-03,-5.8319432e-04,-5.5235300e-04,6.7762347e-03,-1.9095679e-01,8.7768655e-03
2.1597912e+00,-2.9016879e-04,-3.0080231e-04,4.7629200e-05,3.9656738e-03,1.1820331e-05,3.9664884e-03,1.3211023e-03,-9.4292752e-04,1.0409411e-04,4.3211798e-03,-3.5973354e-02,6.5644773e-02
2.1697912e+00,-3.4195950e-04,-3.6908257e-04,-1.8887124e-05,-5.1898520e-03,-6.8180273e-03,-5.1814699e-03,1.4856447e-03,-4.4453061e-04,-1.2298204e-04,1.6454254e-02,4.9839738e-02,-2.2707637e-02
2.1797912e+00,-4.4323503e-04,-4.4469501e-04,-5.3481175e-05,-1.0146620e-02,-7.5380029e-03,-1.0125818e-02,2.0969656e-03,-1.9702811e-04,-3.1838414e-04,6.1132149e-02,2.4750273e-02,-1.9540229e-02
2.1897912e+00,-5.3214622e-04,-4.6421649e-04,-4.5941299e-05,-8.9067611e-03,-1.9322043e-03,-8.8798282e-03,2.3656658e-03,1.2315060e-04,-1.2425912e-03,2.6870044e-02,3.2017902e-02,-9.2420797e-02
2.1997912e+00,-4.4933146e-04,-3.9880892e-04,-9.9533399e-05,8.2920310e-03,6.5441070e-03,8.2682762e-03,8.2631210e-04,1.2317427e-03,-6.2157709e-04,-1.5393552e-01,1.1085931e-01,6.2101473e-02
2.2097912e+00,-6.4023490e-04,-7.7239841e-04,-1.9284080e-04,-1.9180886e-02,-3.7393927e-02,-1.8930544e-02,1.5442611e-03,3.3940670e-03,-1.7224757e-03,7.1794964e-02,2.1623264e-01,-1.1008996e-01
2.2197912e+00,-7.6130148e-04,-8.1413364e-04,-1.7197560e-04,-1.2140942e-02,-4.1880653e-03,-1.2067264e-02,2.3409493e-03,3.5521160e-03,-2.0287024e-03,7.9668896e-02,1.5804913e-02,-3.0622707e-02
2.2297912e+00,-5.5163210e-04,-5.9702368e-04,-1.4316755e-04,2.1040418e-02,2.1733830e-02,2.0869509e-02,1.8520682e-03,2.9510702e-03,-1.5887852e-03,-4.8888157e-02,-6.0104635e-02,4.3991766e-02
2.2397912e+00,-3.9565825e-04,-7.2689977e-05,2.5995109e-04,1.5702345e-02,5.2354628e-02,1.5755968e-02,1.9161358e-03,-3.1139190e-03,-2.8887142e-04,6.4067750e-03,-6.0649950e-01,1.2999150e-01
2.2497911e+00,-3.0176414e-04,-9.6549470e-06,2.6980492e-04,9.3936459e-03,6.2551913e-03,9.4174646e-03,1.2936502e-03,-3.8452178e-03,4.1748115e-04,-6.2248627e-02,-7.3129945e-02,7.0635325e-02
2.2597911e+00,-4.3141681e-04,-1.0460435e-04,1.4182633e-04,-1.2977645e-02,-9.4005095e-03,-1.3021602e-02,2.1393013e-03,-5.1303547e-03,6.1042572e-04,8.4565196e-02,-1.2851381e-01,1.9294475e-02
2.2697911e+00,-4.2217776e-04,-1.8863673e-04,2.0106863e-04,9.0660525e-04,-8.4074411e-03,9.0263666e-04,2.0972195e-03,-2.4921153e-03,-3.5218942e-04,-4.2081903e-03,2.6382419e-01,-9.6261606e-02
2.2797911e+00,-3.7733870e-04,-3.2804016e-04,3.8888093e-05,4.4666643e-03,-1.3946249e-02,4.4827960e-03,1.4809251e-03,1.6323789e-04,-7.5940017e-04,-6.1629497e-02,2.6553557e-01,-4.0721114e-02
2.2897911e+00,-2.2874338e-04,-3.9265877e-04,1.0373114e-04,1.4837834e-02,-6.4790557e-03,1.4873752e-02,1.2678521e-03,1.1066127e-04,9.0861525e-04,-2.1307319e-02,-5.2576667e-03,1.6680170e-01
2.2997913e+00,-6.7584243e-04,-8.7882176e-04,-2.4534941e-04,-4.4877680e-02,-4.8691449e-02,-4.4456059e-02,2.1809612e-03,3.9030883e-03,-1.4073490e-03,9.1308823e-02,3.7923402e-01,-2.3159113e-01
2.3097913e+00,-8.7863874e-04,-6.3199655e-04,-1.5775696e-04,-2.0273142e-02,2.4642367e-02,-2.0334944e-02,1.5690059e-03,3.5466627e-03,-1.5911818e-03,-6.1195595e-02,-3.5642593e-02,-1.8383296e-02
2.3197913e+00,-9.5023527e-04,-2.7933472e-04,-1.1180035e-04,-7.1269302e-03,3.5268120e-02,-7.1829017e-03,1.0804851e-03,8.1077907e-04,-7.5163793e-04,-4.8852123e-02,-2.7358862e-01,8.3954470e-02
2.3297913e+00,-1.3879831e-03,-5.0763597e-04,-1.4096608e-04,-4.3854780e-02,-2.2796080e-02,-4.3712510e-02,1.8882473e-03,1.1122007e-03,-8.4381987e-04,8.0776293e-02,3.0142193e-02,-9.2182030e-03
2.3397913e+00,-1.5833682e-03,-4.0817408e-04,5.9493077e-05,-1.9508324e-02,1.0022072e-02,-1.9529928e-02,2.2997090e-03,-1.5849610e-03,3.7229244e-04,4.1146209e-02,-2.6971643e-01,1.2161135e-01
2.3497913e+00,-1.9445013e-03,-4.3296238e-04,-2.8471441e-05,-3.6160649e-02,-2.4129358e-03,-3.6070455e-02,2.2906357e-03,4.6663377e-04,-1.1558361e-03,-9.0732751e-04,2.0515967e-01,-1.5281300e-01
2.3597913e+00,-2.1881146e-03,-6.7183137e-05,1.1968098e-04,-2.4313126e-02,3.6686591e-02,-2.4245906e-02,1.9201560e-03,-2.5489811e-03,-9.0571051e-04,-3.7048004e-02,-3.0156177e-01,2.5012583e-02
2.3697913e+00,-2.2723811e-03,-1.3643846e-04,1.9770253e-04,-8.4310650e-03,-6.8908738e-03,-8.4506315e-03,1.4080779e-03,-2.7002021e-03,6.3288090e-04,-5.1207856e-02,-1.5122115e-02,1.5385929e-01
2.3797913e+00,-2.7991987e-03,-6.8677019e-04,8.1402711e-05,-5.2862284e-02,-5.4885037e-02,-5.2655619e-02,3.2583760e-03,4.5115344e-04,-2.7187479e-05,1.8502998e-01,3.1513585e-01,-6.6006901e-02
2.3897913e+00,-3.3622150e-03,-7.9594583e-04,2.2957788e-04,-5.6313290e-02,-1.0605960e-02,-5.6349617e-02,4.4417651e-03,-1.0902396e-03,6.4507288e-04,1.1833902e-01,-1.5413945e-01,6.7226100e-02
2.3997912e+00,-4.0484197e-03,-7.8081374e-04,2.5084275e-04,-6.8562874e-02,1.9299399e-03,-6.8667715e-02,4.4443435e-03,-1.6276866e-03,7.3224774e-04,2.5784253e-04,-5.3744753e-02,8.7174938e-03
2.4097912e+00,-4.9235163e-03,-1.0684081e-03,1.8794288e-04,-8.7635983e-02,-2.8152809e-02,-8.7580649e-02,5.3533903e-03,-1.5734411e-03,3.0236836e-04,9.0904765e-02,5.4245617e-03,-4.2987979e-02
2.4197912e+00,-5.4324770e-03,-1.0911216e-03,1.5972438e-04,-5.0868533e-02,-1.9554205e-03,-5.0936788e-02,4.6203977e-03,-1.5852855e-03,7.3713262e-04,-7.3299329e-02,-1.1844420e-03,4.3476467e-02
2.4297912e+00,-6.4232758e-03,-1.4001016e-03,1.4050197e-04,-9.9194472e-02,-3.0372735e-02,-9.9127821e-02,4.9405741e-03,-3.5723031e-04,3.7283115e-04,3.2017669e-02,1.2280563e-01,-3.6430181e-02
2.4397912e+00,-7.1589684e-03,-1.2651415e-03,2.1655628e-04,-7.3488771e-02,1.3996604e-02,-7.3556315e-02,5.2473212e-03,-1.5595120e-03,1.1866878e-04,3.0674749e-02,-1.2022828e-01,-2.5416262e-02
2.4497912e+00,-7.8893260e-03,-1.7298994e-03,2.4013762e-04,-7.3284357e-02,-4.5836935e-02,-7.3190478e-02,7.2030795e-03,-1.5257021e-03,1.1541596e-03,1.9557601e-01,3.3809965e-03,1.0354918e-01
2.4597912e+00,-8.5039557e-03,-1.7205143e-03,2.4739805e-04,-6.1371499e-02,1.5053993e-03,-6.1543178e-02,6.9960956e-03,-2.2246422e-03,1.3570521e-03,-2.0698410e-02,-6.9894075e-02,2.0289268e-02
2.4697912e+00,-9.4050922e-03,-2.0376365e-03,2.4963505e-04,-9.0352541e-02,-3.0818294e-02,-9.0184749e-02,8.5535240e-03,-1.3532718e-03,3.2340113e-04,1.5574300e-01,8.7137121e-02,-1.0336520e-01
2.4797912e+00,-1.0261537e-02,-2.2744922e-03,2.7000328e-04,-8.5789988e-02,-2.2744456e-02,-8.5754111e-02,9.4908150e-03,-1.4840933e-03,8.8163114e-04,9.3729182e-02,-1.3082163e-02,5.5823054e-02
2.4897912e+00,-1.1126519e-02,-2.2903973e-03,3.6384921e-04,-8.6430800e-02,-6.5214633e-04,-8.6577786e-02,9.3287823e-03,-1.5175804e-03,9.0730359e-04,-1.6203285e-02,-3.3487172e-03,2.5672470e-03
2.4997911e+00,-1.2164082e-02,-2.6677490e-03,3.5749079e-04,-1.0416055e-01,-3.6492350e-02,-1.0379607e-01,1.0989056e-02,-9.6758075e-04,4.1190040e-05,1.6602751e-01,5.5000019e-02,-8.6611437e-02
2.5097911e+00,-1.3017526e-02,-2.8144638e-03,3.1640944e-04,-8.5440721e-02,-1.3467176e-02,-8.5446591e-02,1.1553002e-02,-2.5445479e-03,7.9089142e-04,5.6394693e-02,-1.5769687e-01,7.4970209e-02
2.5197911e+00,-1.4350900e-02,-3.3480608e-03,1.9175179e-04,-1.3413034e-01,-5.1506945e-02,-1.3327097e-01,1.2875764e-02,-9.8768232e-04,-8.7648991e-04,1.3227626e-01,1.5568671e-01,-1.6673829e-01
2.5297911e+00,-1.4909828e-02,-3.4445168e-03,2.8662247e-04,-5.6027777e-02,-8.9890343e-03,-5.5867105e-02,1.2322712e-02,5.8873751e-04,-3.6439321e-04,-5.5305187e-02,1.5764213e-01,5.1209719e-02
2.5397911e+00,-1.5715674e-02,-3.9608376e-03,2.6226925e-04,-8.1325560e-02,-5.0516551e-02,-8.0547431e-02,1.4296124e-02,5.1773275e-04,-1.3654772e-04,1.9734134e-01,-7.1004822e-03,2.2784571e-02
2.5497913e+00,-1.6332879e-02,-4.1051175e-03,3.5553385e-04,-6.1939598e-02,-1.3551037e-02,-6.1697008e-02,1.5042115e-02,8.6475538e-04,-1.6872968e-04,7.4597374e-02,3.4701469e-02,-3.2181223e-03
2.5597913e+00,-1.7014028e-02,-3.6142555e-03,6.9339295e-04,-6.7285716e-02,5.0373984e-02,-6.7998764e-02,1.5221599e-02,-3.7690189e-03,1.0879701e-03,1.7948496e-02,-4.6337787e-01,1.2567009e-01
2.5697913e+00,-1.7934488e-02,-4.0030256e-03,6.4466465e-04,-9.2603319e-02,-3.7091319e-02,-9.2224039e-02,1.5957581e-02,-3.3854432e-03,5.5906219e-04,7.3598249e-02,3.8357604e-02,-5.2890839e-02
2.5797913e+00,-1.8450319e-02,-3.7865174e-03,7.0157797e-04,-5.1201596e-02,2.2669018e-02,-5.1525808e-02,1.4799597e-02,-4.9856031e-03,1.0747674e-03,-1.1579850e-01,-1.6001614e-01,5.1570573e-02
2.5897913e+00,-1.9561293e-02,-4.1479397e-03,6.4676084e-04,-1.1174203e-01,-3.3561688e-02,-1.1126055e-01,1.7489095e-02,-5.6866785e-03,-2.6509358e-04,2.6895005e-01,-7.0107602e-02,-1.3398623e-01
2.5997913e+00,-2.0702558e-02,-4.8008962e-03,6.0301515e-04,-1.1528773e-01,-6.2613279e-02,-1.1446221e-01,1.9019035e-02,-4.3750687e-03,5.2551990e-04,1.5299416e-01,1.3116110e-01,7.9061423e-02
2.6097913e+00,-2.1320983e-02,-4.7857000e-03,7.1175279e-04,-6.1668109e-02,2.9702023e-03,-6.1963949e-02,1.8431049e-02,-5.0197196e-03,2.1954378e-03,-5.8798630e-02,-6.4465147e-02,1.6699195e-01
2.6197913e+00,-2.2465136e-02,-5.1146719e-03,2.9882794e-04,-1.1501858e-01,-3.0764388e-02,-1.1440415e-01,1.7538854e-02,-1.0592185e-03,-3.8243804e-04,-8.9219593e-02,3.9605049e-01,-2.5778783e-01
2.6297913e+00,-2.3520880e-02,-5.1054193e-03,6.3831943e-04,-1.0552397e-01,3.3144955e-03,-1.0557695e-01,1.8155888e-02,-4.4768742e-03,1.5423122e-04,6.1703368e-02,-3.4176590e-01,5.3666977e-02
2.6397913e+00,-2.4780152e-02,-5.5133586e-03,7.1626538e-04,-1.2684207e-01,-3.7582589e-02,-1.2600860e-01,2.1351220e-02,-4.0782742e-03,-5.7602382e-04,3.1953357e-01,3.9860039e-02,-7.3025574e-02
2.6497912e+00,-2.5774338e-02,-5.7109667e-03,7.2623375e-04,-9.9903165e-02,-1.7256312e-02,-9.9399279e-02,2.1701777e-02,-3.4465399e-03,-7.9576170e-04,3.5055762e-02,6.3173495e-02,-2.1973809e-02
2.6597912e+00,-2.6622471e-02,-6.0703450e-03,6.5395733e-04,-8.5558015e-02,-3.4003754e-02,-8.4863063e-02,2.0918465e-02,-1.7942290e-03,-1.3467992e-04,-7.8331328e-02,1.6523125e-01,6.6108241e-02
2.6697912e+00,-2.7896035e-02,-6.5584949e-03,7.0993820e-04,-1.2851722e-01,-4.5468788e-02,-1.2742917e-01,2.3155136e-02,-3.0187523e-03,-5.0745995e-04,2.2366732e-01,-1.2245245e-01,-3.7278038e-02
2.6797912e+00,-2.9344921e-02,-6.9105626e-03,5.9474656e-04,-1.4597608e-01,-3.0857523e-02,-1.4478874e-01,2.5503244e-02,-4.4437367e-03,-1.6351238e-03,2.3481105e-01,-1.4249858e-01,-1.1276649e-01
2.6897912e+00,-3.0389912e-02,-7.6495056e-03,6.9517920e-04,-1.0669838e-01,-7.0863703e-02,-1.0437599e-01,2.7138125e-02,-1.6094759e-03,-2.2276385e-03,1.6348819e-01,2.8342636e-01,-5.9251529e-02
2.6997912e+00,-3.1374421e-02,-8.1370628e-03,6.5720061e-04,-1.0002084e-01,-4.5813664e-02,-9.8281518e-02,2.8713645e-02,-9.7197742e-04,-2.1422499e-03,1.5755218e-01,6.3749905e-02,8.5388729e-03
2.7097912e+00,-3.2095320e-02,-7.1394343e-03,1.0691534e-03,-6.9336736e-02,1.0231739e-01,-7.1204976e-02,2.7378466e-02,-8.6308289e-03,-6.6265482e-05,-1.3351798e-01,-7.6588588e-01,2.0759864e-01
2.7197912e+00,-3.3436790e-02,-8.2795223e-03,8.2645088e-04,-1.3755049e-01,-1.0983114e-01,-1.3418616e-01,2.8418830e-02,-2.3867000e-03,-1.6260889e-03,1.0403647e-01,6.2441349e-01,-1.5598249e-01
2.7297912e+00,-3.4587624e-02,-8.4789864e-03,7.8781095e-04,-1.1581115e-01,-1.6183552e-02,-1.1494405e-01,2.9715154e-02,-2.9137208e-03,-1.6164049e-03,1.2963255e-01,-5.2702137e-02,9.6840422e-04
2.7397912e+00,-3.6059390e-02,-8.5865397e-03,6.7066262e-04,-1.4782632e-01,-5.5432608e-03,-1.4681385e-01,3.0114316e-02,-5.2844357e-03,-2.6703144e-03,3.9916173e-02,-2.3707171e-01,-1.0539105e-01
2.7497911e+00,-3.7320783e-02,-8.9904135e-03,9.0960876e-04,-1.2764943e-01,-3.5804185e-02,-1.2600458e-01,3.1008502e-02,-5.1865925e-03,-2.5278451e-03,8.9418722e-02,9.7843239e-03,1.4246944e-02
2.7597911e+00,-3.8567974e-02,-9.5603538e-03,8.4611847e-04,-1.2689607e-01,-5.2679892e-02,-1.2441979e-01,3.1464850e-02,-2.9142257e-03,-3.5795246e-03,4.5634861e-02,2.2723690e-01,-1.0516805e-01
2.7697911e+00,-3.9355698e-02,-9.5901325e-03,9.3204327e-04,-7.9043599e-02,-2.4630076e-04,-7.8556670e-02,3.0975299e-02,-3.6983104e-03,-2.7534267e-03,-4.8955143e-02,-7.8408551e-02,8.2609863e-02
2.7797911e+00,-4.0436579e-02,-1.0083188e-02,9.6656176e-04,-1.0981908e-01,-4.5178600e-02,-1.0814711e-01,3.3337608e-02,-4.5986290e-03,-1.3661993e-03,2.3623110e-01,-9.0031946e-02,1.3872287e-01
2.7897911e+00,-4.1854611e-02,-1.1177513e-02,7.1877111e-04,-1.4614426e-01,-1.0402206e-01,-1.4146776e-01,3.6479667e-02,-1.1737034e-03,-3.1369162e-03,3.1420617e-01,3.4249289e-01,-1.7707185e-01
2.7997913e+00,-4.2970806e-02,-1.1358748e-02,8.1040812e-04,-1.1258316e-01,-1.3856964e-02,-1.1125719e-01,3.6658130e-02,-1.4668401e-03,-3.3830256e-03,1.7845939e-02,-2.9313006e-02,-2.4610381e-02
2.8097913e+00,-4.4167810e-02,-1.1233091e-02,1.1968111e-03,-1.1940856e-01,1.7280042e-02,-1.1940412e-01,3.5748011e-02,-3.7190347e-03,-1.9532285e-03,-9.1012021e-02,-2.2521968e-01,1.4297985e-01
2.8197913e+00,-4.6176930e-02,-1.2213880e-02,8.8860412e-04,-2.0538356e-01,-8.9677736e-02,-2.0031561e-01,3.8910262e-02,-2.5549182e-03,-4.0309815e-03,3.1622544e-01,1.1641176e-01,-2.0777550e-01
2.8297913e+00,-4.7571442e-02,-1.2613718e-02,9.3896473e-04,-1.4149889e-01,-3.4360186e-02,-1.3888670e-01,3.8378378e-02,-1.7539041e-03,-4.4276934e-03,-5.3188476e-02,8.0101489e-02,-3.9671232e-02
2.8397913e+00,-4.9230395e-02,-1.3144989e-02,9.6768327e-04,-1.6868918e-01,-4.5942136e-02,-1.6522228e-01,4.0843398e-02,-2.2215168e-03,-4.6086023e-03,2.4650220e-01,-4.6761310e-02,-1.8090905e-02
2.8497913e+00,-5.0617401e-02,-1.4023588e-02,8.8830326e-04,-1.4304595e-01,-8.2045810e-02,-1.3784585e-01,4.2142628e-02,7.7865892e-04,-5.5445601e-03,1.2992320e-01,3.0001785e-01,-9.3595865e-02
2.8597913e+00,-5.2055528e-02,-1.4262257e-02,9.8873304e-04,-1.4533597e-01,-1.7603956e-02,-1.4318328e-01,4.2885616e-02,-5.2657067e-04,-4.4052419e-03,7.4298863e-02,-1.3052308e-01,1.1393193e-01
2.8697913e+00,-5.3386590e-02,-1.4308091e-02,1.1739661e-03,-1.3365899e-01,1.6491001e-03,-1.3262032e-01,4.4006500e-02,-2.8081366e-03,-3.6118970e-03,1.1208851e-01,-2.2815681e-01,7.9334564e-02
2.8797913e+00,-5.5163976e-02,-1.5272973e-02,1.1241178e-03,-1.8277516e-01,-8.8035864e-02,-1.7701712e-01,4.6211075e-02,-7.8445313e-04,-4.3355931e-03,2.2045768e-01,2.0236854e-01,-7.2369682e-02
2.8897913e+00,-5.6904767e-02,-1.5366422e-02,1.0547735e-03,-1.7529150e-01,-7.4512686e-04,-1.7310932e-01,4.6122379e-02,-3.2568686e-03,-5.5676702e-03,-8.8695928e-03,-2.4724178e-01,-1.2320783e-01
2.8997912e+00,-5.8744721e-02,-1.7278951e-02,9.1229686e-04,-1.9460690e-01,-1.8166015e-01,-1.8279561e-01,5.1767360e-02,1.0059047e-03,-5.2405004e-03,5.6449863e-01,4.2627773e-01,3.2717009e-02
2.9097912e+00,-6.0339753e-02,-1.6846197e-02,1.1403534e-03,-1.5795843e-01,5.1380719e-02,-1.5863347e-01,4.9757942e-02,-1.4213793e-03,-5.0587545e-03,-2.0094199e-01,-2.4272863e-01,1.8174614e-02
2.9197912e+00,-6.1920451e-02,-1.7304901e-02,1.3678464e-03,-1.6083951e-01,-3.7076251e-02,-1.5758262e-01,5.1492210e-02,-3.7940018e-03,-3.9187104e-03,1.7342695e-01,-2.3726247e-01,1.1400451e-01
2.9297912e+00,-6.3720409e-02,-1.7517183e-02,1.2434580e-03,-1.8145677e-01,-1.0166765e-02,-1.7949330e-01,5.3451962e-02,-7.8829735e-03,-3.2480288e-03,1.9597544e-01,-4.0889756e-01,6.7068228e-02
2.9397912e+00,-6.5464278e-02,-1.8557004e-02,1.2036946e-03,-1.8035095e-01,-9.4146423e-02,-1.7390804e-01,5.3518207e-02,-2.0621100e-03,-3.7416350e-03,6.6244805e-03,5.8208690e-01,-4.9360674e-02
2.9497912e+00,-6.7837833e-02,-1.9842876e-02,1.0246990e-03,-2.4560985e-01,-1.1431630e-01,-2.3625781e-01,5.8284996e-02,-9.5770663e-04,-4.9279953e-03,4.7667933e-01,1.1044044e-01,-1.1863614e-01
2.9597912e+00,-6.9952786e-02,-2.0500080e-02,1.0173859e-03,-2.1600887e-01,-5.3061114e-02,-2.1048654e-01,5.9180292e-02,-1.6761420e-04,-4.7230855e-03,8.9529681e-02,7.9009319e-02,2.0490997e-02
2.9697912e+00,-7.1883173e-02,-2.0830385e-02,1.0192811e-03,-1.9539183e-01,-2.1109890e-02,-1.9234199e-01,5.9647626e-02,-1.8428617e-03,-3.7744315e-03,4.6733446e-02,-1.6752491e-01,9.4865490e-02
2.9797912e+00,-7.4635886e-02,-2.2690327e-02,6.8469941e-04,-2.8860106e-01,-1.6776804e-01,-2.7332412e-01,6.5927279e-02,1.1430006e-03,-6.1017280e-03,6.2796588e-01,2.9858651e-01,-2.3272988e-01
2.9897912e+00,-7.6520764e-02,-2.1583785e-02,1.1541442e-03,-1.8155460e-01,1.2417925e-01,-1.8686147e-01,6.4375780e-02,-8.6901835e-03,-3.0584565e-03,-1.5515000e-01,-9.8331935e-01,3.0432745e-01
2.9997911e+00,-7.8800755e-02,-2.2556223e-02,1.1566757e-03,-2.3453877e-01,-7.9814473e-02,-2.2813369e-01,6.6846796e-02,-8.7036061e-03,-2.4286927e-03,2.4710185e-01,-1.3422559e-03,6.2976436e-02
3.0097911e+00,-8.1187403e-02,-2.3588077e-02,1.0176757e-03,-2.4597818e-01,-8.5304787e-02,-2.3830022e-01,6.8637387e-02,-5.3312028e-03,-3.3508881e-03,1.7905921e-01,3.3724065e-01,-9.2219627e-02
3.0197911e+00,-8.4005668e-02,-2.5141465e-02,7.6881162e-04,-2.9371733e-01,-1.3324130e-01,-2.8099783e-01,7.3522888e-02,-3.4761065e-03,-4.4143320e-03,4.8855056e-01,1.8550981e-01,-1.0634450e-01
3.0297911e+00,-8.6694108e-02,-2.6528265e-02,6.8390862e-04,-2.7996183e-01,-1.1740143e-01,-2.6762828e-01,7.6621760e-02,-1.0936005e-03,-4.8135709e-03,3.0988749e-01,2.3825083e-01,-3.9923927e-02
3.0397911e+00,-8.9307325e-02,-2.6829581e-02,7.2835123e-04,-2.6418678e-01,-8.9272563e-03,-2.6002288e-01,7.7425177e-02,-3.4670030e-03,-5.0529258e-03,8.0341865e-02,-2.3734047e-01,-2.3935512e-02
3.0497913e+00,-9.2013192e-02,-2.7911014e-02,7.1020256e-04,-2.7967960e-01,-8.5313507e-02,-2.6948651e-01,7.9772550e-02,-3.4208877e-03,-4.9726648e-03,2.3473190e-01,4.6114286e-03,8.0259125e-03
3.0597913e+00,-9.4660552e-02,-2.8579347e-02,5.2667323e-04,-2.7073156e-01,-4.3865043e-02,-2.6347224e-01,8.1450361e-02,-4.5856489e-03,-5.4367597e-03,1.6778120e-01,-1.1647624e-01,-4.6409528e-02
3.0697913e+00,-9.7291224e-02,-2.9536808e-02,7.4427688e-04,-2.7132535e-01,-7.2132717e-02,-2.6221297e-01,8.3803139e-02,-4.7985145e-03,-4.4453482e-03,2.3527802e-01,-2.1286582e-02,9.9141241e-02
3.0797913e+00,-9.9979712e-02,-3.1019689e-02,4.9634426e-04,-2.8198351e-01,-1.2343415e-01,-2.6795213e-01,8.7381312e-02,-3.0840495e-03,-4.5451514e-03,3.5781770e-01,1.7144667e-01,-9.9803263e-03
3.0897913e+00,-1.0280990e-01,-3.2191153e-02,5.6010985e-04,-2.9336851e-01,-9.0303787e-02,-2.8231707e-01,9.0422766e-02,-2.8622138e-03,-3.2827066e-03,3.0414563e-01,2.2183593e-02,1.2624459e-01
3.0997913e+00,-1.0584493e-01,-3.2685857e-02,6.0980736e-04,-3.0777403e-01,-2.0163887e-02,-3.0256258e-01,9.0711300e-02,-5.3211954e-03,-3.4240884e-03,2.8853505e-02,-2.4589840e-01,-1.4138186e-02
3.1097913e+00,-1.0892437e-01,-3.3477879e-02,6.6626696e-04,-3.1505525e-01,-4.8132433e-02,-3.0717565e-01,9.2587993e-02,-7.3596255e-03,-3.5994482e-03,1.8766944e-01,-2.0384320e-01,-1.7535995e-02
3.1197913e+00,-1.1234595e-01,-3.5261938e-02,5.2569491e-04,-3.5987452e-01,-1.4279577e-01,-3.4069329e-01,9.6736145e-02,-5.0797010e-03,-6.1141558e-03,4.1481560e-01,2.2799267e-01,-2.5147100e-01
3.1297913e+00,-1.1544579e-01,-3.6862879e-02,2.5215462e-04,-3.2659314e-01,-1.2696491e-01,-3.0826671e-01,1.0051585e-01,-3.9454760e-03,-6.8243527e-03,3.7797122e-01,1.1342261e-01,-7.1019757e-02
3.1397913e+00,-1.1839327e-01,-3.8206485e-02,4.1305615e-04,-3.0905652e-01,-1.0295922e-01,-2.9272732e-01,1.0278059e-01,-1.5424772e-03,-7.0776301e-03,2.2647405e-01,2.4030011e-01,-2.5327770e-02
3.1497912e+00,-1.2137284e-01,-3.9740634e-02,2.9208330e-04,-3.1431537e-01,-1.2042240e-01,-2.9630570e-01,1.0617187e-01,-1.8687604e-03,-5.9877931e-03,3.3912828e-01,-3.2628350e-02,1.0898380e-01
3.1597912e+00,-1.2447771e-01,-4.1203474e-02,5.5970959e-04,-3.2627358e-01,-1.1209862e-01,-3.0851754e-01,1.0829560e-01,7.4575876e-04,-5.7966960e-03,2.1237300e-01,2.6145217e-01,1.9109732e-02
